time_index,servos_1,servos_2,tx_controls_1,gps_sat_count_0,position_x,axis_rate_yaw,altitude_gps,velocity_z,acceleration_y,velocity_y,tx_controls_2,axis_rate_roll,time_flight,mode_1,acceleration_z,wind_x,attitude_yaw,tx_controls_5,airspeed_0,global_position_latitude,servos_3,time_actual,tx_controls_4,velocity_x,position_z,rpm_0,magnetometer_2,wind_y,tx_controls_0,mode_0,servos_4,servos_5,tx_controls_6,servos_6,attitude_pitch,servos_0,mode_2,global_position_longitude,axis_rate_pitch,altitude_baro,rpm_1,acceleration_x,tx_controls_7,servos_7,magnetometer_1,attitude_roll,magnetometer_0,tx_controls_3,position_y,current_3,airspeed_1,current_0,current_1,current_2,battery_0,battery_1
0.0,0.0,0.0,1568.0,17.0,0.0,0.0,-0.87,0.06129436194896698,0.09320031106472015,0.053173720836639404,1491.0,0.0,19.594887999999997,5.0,-9.754029273986816,0.0,2.7354545366507126,1500.0,0.0,51.4595449,0.0,19.575903,1417.0,0.002537086606025696,0.4352857768535614,20995.801025390625,402.0,0.0,1000.0,5.0,0.0,0.0,1500.0,0.0,0.06161012259539984,0.0,1.0,-2.7909466999999997,0.0,-0.36643171310424805,-14.0,1.1286373138427734,1500.0,0.0,-3.0,-0.004537856055185257,214.0,1603.0,0.0,,,,,,,
0.09981800000000263,0.0,0.0,1568.0,16.0,0.0,0.0,-0.86,0.057846374809741974,0.0808553472161293,0.05380869656801224,1491.0,0.0,19.694706,5.0,-9.746647834777832,0.0,2.7356290695759125,1500.0,0.0,51.4595449,0.0,19.655321999999998,1418.0,0.003032637294381857,0.433388352394104,20995.801025390625,402.0,0.0,1000.0,5.0,0.0,0.0,1500.0,0.0,0.06161012259539984,0.0,1.0,-2.7909466999999997,0.0,-0.3457876741886139,-14.0,1.149673342704773,1500.0,0.0,-3.0,-0.004537856055185257,214.0,1602.0,0.0,,,,,,,
0.2000150000000005,0.0,0.0,1568.0,16.0,0.0,0.0,-0.86,0.05457407608628273,0.07030193507671356,0.0565219521522522,1491.0,0.0,19.794902999999998,5.0,-9.758695602416992,0.0,2.7356290695759125,1500.0,0.0,51.4595449,0.0,19.775313999999998,1418.0,0.0028403503820300102,0.43098899722099304,20995.801025390625,402.0,0.0,1000.0,5.0,0.0,0.0,1500.0,0.0,0.0614355896702004,0.0,1.0,-2.7909466999999997,0.0,-0.27353355288505554,-14.0,1.1569350957870483,1500.0,0.0,-3.0,-0.00471238898038469,214.0,1602.0,0.0,,,,,,,
0.2997930000000011,0.0,0.0,1568.0,16.0,0.0,0.0,-0.8300000000000001,0.0505770780146122,0.14499802887439728,0.057163458317518234,1491.0,0.0,19.894681,5.0,-9.736401557922363,0.0,2.7358036025011114,1500.0,0.0,51.4595451,0.0,19.85511,1417.0,0.0032584608998149633,0.4283490478992462,20993.702392578125,402.0,0.0,1000.0,5.0,0.0,0.0,1500.0,0.0,0.0614355896702004,0.0,1.0,-2.7909466999999997,0.0,-0.21676242351531982,-14.0,1.14107346534729,1500.0,0.0,-3.0,-0.0054105206811824215,214.0,1603.0,0.0,,,,,,,
0.3997370000000018,0.0,0.0,1568.0,16.0,0.0,0.0,-0.8300000000000001,0.046945713460445404,-0.03525436297059059,0.06141923740506172,1491.0,0.0,19.994625,5.0,-9.730742454528809,0.0,2.7358036025011114,1500.0,0.0,51.4595451,0.0,19.975282999999997,1418.0,0.0023936794605106115,0.42116016149520874,20995.801025390625,402.0,0.0,1000.0,5.0,0.0,0.0,1500.0,0.0,0.0614355896702004,0.0,1.0,-2.7909466999999997,0.0,-0.3612707257270813,-14.0,1.1707935333251953,1500.0,0.0,-3.0,-0.004537856055185257,214.0,1602.0,0.0,,,,,,,
0.49979800000000196,0.0,0.0,1568.0,16.0,0.0,0.0,-0.79,0.04168560355901718,0.13031907379627228,0.06181688234210014,1491.0,0.0,20.094686,5.0,-9.75955581665039,0.0,2.7361526683515107,1500.0,0.0,51.4595452,0.0,20.055013,1418.0,0.0028583789244294167,0.4160741865634918,20993.702392578125,402.0,0.0,1000.0,5.0,0.0,0.0,1500.0,0.0,0.06126105674500097,0.0,1.0,-2.7909466999999997,0.0,-0.44900789856910706,-14.0,1.1652092933654785,1500.0,0.0,-3.0,-0.005759586531581287,214.0,1602.0,0.0,,,,,,,
0.5997560000000028,0.0,0.0,1568.0,16.0,0.0,0.0,-0.79,0.03782704472541809,0.02091534249484539,0.06512206047773361,1491.0,0.0,20.194644,5.0,-9.795586585998535,0.0,2.7361526683515107,1500.0,0.0,51.4595452,0.0,20.174896999999998,1418.0,0.0020413014572113752,0.412062406539917,20993.702392578125,402.0,0.0,1000.0,5.0,0.0,0.0,1500.0,0.0,0.061086523819801536,0.0,1.0,-2.7909466999999997,0.0,-0.335465669631958,-14.0,1.0778768062591553,1500.0,0.0,-3.0,-0.0054105206811824215,214.0,1602.0,0.0,,,,,,,
0.7000670000000007,0.0,0.0,1568.0,17.0,0.0,0.0,-0.74,0.03669466823339462,0.03979138284921646,0.062345705926418304,1490.0,0.0,20.294954999999998,5.0,-9.768796920776367,0.0,2.7363272012767097,1500.0,0.0,51.459545399999996,0.0,20.255012,1417.0,-0.0007295225514099002,0.41059133410453796,20991.0791015625,402.0,0.0,1001.0,5.0,0.0,0.0,1501.0,0.0,0.061086523819801536,0.0,1.0,-2.7909468,0.0,-0.43352484703063965,-14.0,1.1460827589035034,1500.0,0.0,-3.0,-0.006108652381980154,214.0,1603.0,0.0,,,,,,,
0.799787000000002,0.0,0.0,1569.0,17.0,0.0,0.0,-0.74,0.034765928983688354,0.14099755883216858,0.0707818940281868,1490.0,0.0,20.394675,5.0,-9.665382385253906,0.0,2.736501734201909,1500.0,0.0,51.459545399999996,0.0,20.374882,1417.0,0.00020622025476768613,0.4096692204475403,20991.0791015625,402.0,0.0,1000.0,5.0,0.0,0.0,1500.0,0.0,0.061086523819801536,0.0,1.0,-2.7909468,0.0,-0.27353355288505554,-14.0,1.2296282052993774,1500.0,0.0,-3.0,-0.0066322511575784525,214.0,1603.0,0.0,,,,,,,
0.899790000000003,0.0,0.0,1568.0,17.0,0.0,0.0,-0.7000000000000001,0.03148850053548813,0.07432744652032852,0.06839534640312195,1491.0,0.0,20.494678,5.0,-9.684545516967773,0.0,2.736501734201909,1500.0,0.0,51.4595456,0.0,20.455284,1418.0,-0.0005360988434404135,0.40877535939216614,20989.505126953125,402.0,0.0,1000.0,5.0,0.0,0.0,1500.0,0.0,0.06073745796940267,0.0,1.0,-2.7909469,0.0,-0.26321151852607727,-14.0,1.2160212993621826,1500.0,0.0,-3.0,-0.006981317007977318,214.0,1602.0,0.0,,,,,,,
0.9998090000000026,0.0,0.0,1568.0,17.0,0.0,0.0,-0.7000000000000001,0.02957743965089321,0.7466146945953369,0.08152125775814056,1491.0,0.0,20.594697,5.0,-9.635234832763672,0.0,2.736676267127109,1500.0,0.0,51.4595456,0.0,20.575322999999997,1418.0,0.0029802254866808653,0.40437713265419006,20991.0791015625,402.0,0.0,1000.0,5.0,0.0,0.0,1500.0,0.0,0.06073745796940267,0.0,1.0,-2.7909469,0.0,-0.41804182529449463,-14.0,1.0114619731903076,1500.0,0.0,-3.0,-0.00767944870877505,214.0,1602.0,0.0,,,,,,,
1.0998600000000032,0.0,0.0,1569.0,17.0,0.0,0.0,-0.67,0.02722601592540741,0.029141580685973167,0.059316519647836685,1490.0,0.0,20.694748,5.0,-10.204402923583984,0.0,2.7368508000523084,1500.0,0.0,51.459545899999995,0.0,20.655036,1417.0,-0.005261681042611599,0.401326984167099,20991.0791015625,402.0,0.0,1000.0,5.0,0.0,0.0,1500.0,0.0,0.06091199089460211,0.0,1.0,-2.790947,0.0,-0.4438468813896179,-14.0,1.1551213264465332,1500.0,0.0,-3.0,-0.005934119456780721,214.0,1603.0,0.0,,,,,,,
1.199746000000001,0.0,0.0,1569.0,17.0,0.0,0.0,-0.67,0.022021645680069923,0.9193897843360901,0.09339091181755066,1490.0,0.0,20.794634,5.0,-9.649200439453125,0.0,2.7371998659027073,1500.0,0.0,51.459545899999995,0.0,20.774925,1417.0,0.005372850690037012,0.4005456566810608,20999.4736328125,402.0,0.0,1000.0,5.0,0.0,0.0,1500.0,0.0,0.06056292504420324,0.0,1.0,-2.790947,0.0,-0.43352484703063965,-14.0,0.6781161427497864,1500.0,0.0,-3.0,-0.00890117918517108,214.0,1603.0,0.0,,,,,,,
1.2997760000000014,0.0,0.0,1568.0,17.0,0.0,0.0,-0.63,0.030298732221126556,-0.18178027868270874,0.06489215791225433,1491.0,-0.00017453292519943296,20.894664,5.0,-9.884450912475586,0.0,2.7371998659027073,1500.0,0.0,51.4595461,0.0,20.854996,1418.0,-0.01381050143390894,0.40184372663497925,20991.0791015625,402.0,0.0,1000.0,5.0,0.0,0.0,1500.0,0.0,0.0603883921190038,0.0,1.0,-2.7909471,0.0,-0.4283638596534729,-14.0,0.8898625373840332,1500.0,0.0,-3.0,-0.008726646259971648,214.0,1602.0,0.0,,,,,,,
1.3997670000000006,0.0,0.0,1568.0,17.0,0.0,0.0,-0.63,0.026259321719408035,-0.10558794438838959,0.07850181311368942,1491.0,-0.00017453292519943296,20.994654999999998,5.0,-9.594664573669434,0.0,2.7375489317531057,1500.0,0.0,51.4595461,0.0,20.975223,1418.0,0.0009780506370589137,0.40491631627082825,20991.0791015625,402.0,0.0,1000.0,5.0,0.0,0.0,1500.0,0.0,0.060039326268604934,0.0,1.0,-2.7909471,0.0,-0.3612707257270813,-14.0,1.4532090425491333,1500.0,0.0,-3.0,-0.008726646259971648,214.0,1602.0,0.0,,,,,,,
1.499759000000001,0.0,0.0,1569.0,17.0,0.0,0.0,-0.59,0.02066819928586483,0.1075691282749176,0.07651733607053757,1490.0,-0.00034906585039886593,21.094647,5.0,-9.57055377960205,0.0,2.7377234646783055,1500.0,0.0,51.4595462,0.0,21.055049999999998,1417.0,0.002336591947823763,0.40673398971557617,20989.505126953125,402.0,0.0,1000.0,5.0,0.0,0.0,1500.0,0.0,0.059864793343405505,0.0,1.0,-2.7909474,-0.00017453292519943296,-0.4128808081150055,-14.0,1.3739873170852661,1500.0,0.0,-3.0,-0.009773843811168246,214.0,1603.0,0.0,,,,,,,
1.5997460000000032,0.0,0.0,1568.0,17.0,0.0,0.0,-0.59,0.02108626626431942,0.17599156498908997,0.0785277932882309,1491.0,-0.0005235987755982988,21.194634,5.0,-9.785539627075195,0.0,2.738072530528704,1500.0,0.0,51.4595462,0.0,21.174909,1417.0,-0.001958064967766404,0.4087495803833008,20989.505126953125,402.0,0.0,1000.0,5.0,0.0,0.0,1500.0,0.0,0.05969026041820607,0.0,1.0,-2.7909474,-0.00017453292519943296,-0.3199826180934906,-14.0,1.1022987365722656,1500.0,0.0,-3.0,-0.011519173063162575,214.0,1603.0,0.0,,,,,,,
1.699784000000001,0.0,0.0,1568.0,17.0,0.0,0.0,-0.54,0.0164470374584198,-0.3603789210319519,0.06393793225288391,1491.0,-0.0006981317007977319,21.294672,5.0,-9.755166053771973,0.0,2.737897997603505,1500.0,0.0,51.459546499999995,0.0,21.255025,1418.0,-0.008186967112123966,0.40906238555908203,20989.505126953125,402.0,0.0,1000.0,5.0,0.0,0.0,1500.0,0.0,0.05969026041820607,0.0,1.0,-2.7909476,-0.00017453292519943296,-0.4696519374847412,-14.0,1.073244571685791,1500.0,0.0,-3.0,-0.009250245035569947,214.0,1602.0,0.0,,,,,,,
1.7997760000000014,0.0,0.0,1568.0,17.0,0.0,0.0,-0.54,0.013657606206834316,0.1871097981929779,0.08010684698820114,1491.0,-0.0008726646259971648,21.394664,5.0,-9.29464340209961,0.0,2.7375489317531057,1500.0,0.0,51.459546499999995,0.0,21.374862999999998,1418.0,0.007284282241016626,0.40948793292045593,21006.301025390625,402.0,0.0,1000.0,5.0,0.0,0.0,1500.0,0.0,0.059864793343405505,0.0,1.0,-2.7909476,-0.00034906585039886593,-0.35610970854759216,-14.0,1.682654619216919,1500.0,0.0,-3.0,-0.007155849933176752,214.0,1602.0,0.0,,,,,,,
1.8997830000000029,0.0,0.0,1568.0,17.0,0.0,0.0,-0.49,0.006836278364062309,0.3229566812515259,0.07521799951791763,1491.0,-0.0010471975511965976,21.494671,5.0,-9.649028778076172,0.0,2.737897997603505,1500.0,0.0,51.4595469,0.0,21.455002999999998,1418.0,0.006560475565493107,0.4101189374923706,20992.653076171875,402.0,0.0,1000.0,5.0,0.0,0.0,1500.0,0.0,0.059864793343405505,0.0,1.0,-2.7909478,-0.00034906585039886593,-0.4128808081150055,-14.0,1.4664623737335205,1500.0,0.0,-3.0,-0.009075712110370514,214.0,1602.0,0.0,,,,,,,
1.999964000000002,0.0,0.0,1568.0,17.0,0.0,0.0,-0.49,0.0014080263208597898,0.004068853333592415,0.07136308401823044,1490.0,-0.0012217304763960308,21.594852,5.0,-9.803224563598633,0.0,2.7375489317531057,1501.0,0.0,51.4595469,0.0,21.575347,1417.0,0.005354190710932016,0.41016364097595215,20992.653076171875,402.0,0.0,1000.0,5.0,0.0,0.0,1500.0,0.0,0.06021385919380437,0.0,1.0,-2.7909478,-0.0005235987755982988,-0.3457876741886139,-14.0,0.8579813838005066,1500.0,0.0,-3.0,-0.006806784082777886,214.0,1603.0,0.0,,,,,,,
2.0997800000000026,0.0,0.0,1568.0,16.0,0.0,0.0,-0.45,0.0165390782058239,0.20061731338500977,0.0706094354391098,1491.0,-0.0013962634015954637,21.694668,5.0,-9.751459121704102,0.0,2.7375489317531057,1500.0,0.0,51.459547099999995,0.0,21.655120999999998,1418.0,-0.005764065310359001,0.4099540114402771,20989.505126953125,402.0,0.0,1000.0,5.0,0.0,0.0,1500.0,0.0,0.06021385919380437,0.0,1.0,-2.7909479,-0.0005235987755982988,-0.42320284247398376,-14.0,1.0765776634216309,1500.0,0.0,-3.0,-0.007853981633974483,214.0,1602.0,0.0,,,,,,,
2.1997730000000004,0.0,0.0,1568.0,16.0,0.0,0.0,-0.45,0.007350515108555555,-0.013685368932783604,0.0530828982591629,1491.0,-0.0015707963267948964,21.794660999999998,5.0,-9.66313648223877,0.0,2.737897997603505,1500.0,0.0,51.459547099999995,0.0,21.774921,1418.0,-0.001217851066030562,0.409540057182312,20989.505126953125,402.0,0.0,1000.0,5.0,0.0,0.0,1500.0,0.0,0.0603883921190038,0.0,1.0,-2.7909479,-0.0006981317007977319,-0.43352484703063965,-14.0,1.2186601161956787,1500.0,0.0,-3.0,-0.008726646259971648,214.0,1602.0,0.0,,,,,,,
2.299755000000001,0.0,0.0,1568.0,17.0,0.0,0.0,-0.42,0.013407249003648758,-0.051367588341236115,0.05076909810304642,1490.0,-0.0019198621771937625,21.894643,5.0,-9.848220825195312,0.0,2.7375489317531057,1501.0,0.0,51.4595474,0.0,21.85504,1417.0,-0.006622644141316414,0.40997716784477234,20948.15283203125,402.0,0.0,1000.0,5.0,0.0,0.0,1500.0,0.0,0.06056292504420324,0.0,1.0,-2.7909481,-0.0006981317007977319,-0.4128808081150055,-14.0,1.0203229188919067,1500.0,0.0,-3.0,-0.006283185307179586,214.0,1603.0,0.0,,,,,,,
2.399776000000003,0.0,0.0,1568.0,17.0,0.0,0.0,-0.42,0.0072060562670230865,-0.03971816971898079,0.04131129011511803,1490.0,-0.0020943951023931952,21.994664,5.0,-9.738001823425293,0.0,2.7375489317531057,1500.0,0.0,51.4595474,0.0,21.975310999999998,1417.0,-0.00571209192276001,0.41091686487197876,20948.15283203125,402.0,0.0,1001.0,5.0,0.0,0.0,1500.0,0.0,0.06073745796940267,0.0,1.0,-2.7909481,-0.0008726646259971648,-0.44900789856910706,-14.0,1.050735354423523,1501.0,0.0,-3.0,-0.006457718232379019,214.0,1603.0,0.0,,,,,,,
2.4996270000000003,0.0,0.0,1568.0,17.0,0.0,0.0,-0.39,0.012801510281860828,-0.07739377021789551,0.029616553336381912,1491.0,-0.0022689280275926286,22.094514999999998,5.0,-10.064009666442871,0.0,2.7371998659027073,1500.0,0.0,51.459547699999995,0.0,22.054990999999998,1417.0,-0.00808543898165226,0.4118039608001709,18375.1162109375,402.0,0.0,1000.0,5.0,0.0,0.0,1500.0,0.0,0.06126105674500097,0.0,1.0,-2.7909482,-0.0008726646259971648,-0.45932990312576294,-14.0,0.9666191935539246,1500.0,0.0,-3.0,-0.004537856055185257,214.0,1603.0,0.0,,,,,,,
2.5997800000000026,0.0,0.0,1568.0,17.0,0.0,0.00017453292519943296,-0.39,0.010522178374230862,-0.310269832611084,0.02981702797114849,1491.0,-0.0024434609527920616,22.194668,5.0,-10.034749984741211,0.0,2.736501734201909,1500.0,0.0,51.459547699999995,0.0,22.174896,1418.0,-0.005810899194329977,0.41433101892471313,18375.1162109375,402.0,0.0,1000.0,5.0,0.0,0.0,1500.0,0.0,0.06161012259539984,0.0,1.0,-2.7909482,-0.0010471975511965976,-0.4128808081150055,-14.0,1.1455310583114624,1500.0,0.0,-3.0,0.0005235987755982988,214.0,1602.0,0.0,,,,,,,
2.699786000000003,0.0,0.0,1569.0,17.0,0.0,0.00017453292519943296,-0.37,-0.003102389397099614,0.13733644783496857,0.022501328960061073,1490.0,-0.002617993877991494,22.294674,5.0,-9.59566879272461,0.0,2.736501734201909,1500.0,0.0,51.459548,0.0,22.255084999999998,1417.0,0.00023222508025355637,0.41571366786956787,17933.389892578125,402.0,0.0,1000.0,5.0,0.0,0.0,1500.0,0.0,0.06213372137099813,0.0,1.0,-2.7909482,-0.0010471975511965976,-0.3973977863788605,-14.0,1.0666660070419312,1501.0,0.0,-3.0,-0.0005235987755982988,214.0,1603.0,0.0,,,,,,,
2.7999870000000016,0.0,0.0,1569.0,17.0,0.0,0.00034906585039886593,-0.37,0.002577447099611163,-0.00885685533285141,0.01848338171839714,1490.0,-0.0027925268031909274,22.394875,5.0,-9.617015838623047,0.0,2.7361526683515107,1500.0,0.0,51.459548,0.0,22.374892,1417.0,0.003964073024690151,0.4167020320892334,17933.389892578125,402.0,0.0,1000.0,5.0,0.0,0.0,1500.0,0.0,0.06300638599699529,0.0,1.0,-2.7909482,-0.0012217304763960308,-0.5573890805244446,-14.0,1.239330768585205,1500.0,0.0,-3.0,0.00034906585039886593,214.0,1603.0,0.0,,,,,,,
2.899788000000001,0.0,0.0,1568.0,17.0,0.0,0.00034906585039886593,-0.32,0.0074927350506186485,0.2900732457637787,0.013134347274899483,1491.0,-0.0027925268031909274,22.494676,5.0,-9.667015075683594,0.0,2.7361526683515107,1500.0,0.0,51.4595485,0.0,22.455054999999998,1418.0,-0.005867078900337219,0.41903382539749146,17933.389892578125,402.0,0.0,1000.0,5.0,0.0,0.0,1500.0,0.0,0.06318091892219473,0.0,1.0,-2.7909482999999997,-0.0012217304763960308,-0.4644909203052521,-14.0,1.0779591798782349,1500.0,0.0,-3.0,-0.0008726646259971648,214.0,1602.0,0.0,,,,,,,
2.999813000000003,0.0,0.0,1568.0,17.0,0.0,0.0005235987755982988,-0.32,0.011528288945555687,0.14916935563087463,0.0005967838224023581,1491.0,-0.0029670597283903604,22.594701,5.0,-9.952972412109375,0.0,2.7356290695759125,1500.0,0.0,51.4595485,0.0,22.575426,1418.0,-0.0009622412617318332,0.4251320958137512,19061.018798828125,402.0,0.0,1000.0,5.0,0.0,0.0,1500.0,0.0,0.06318091892219473,0.0,1.0,-2.7909482999999997,-0.0012217304763960308,-0.43352484703063965,-14.0,1.2986316680908203,1500.0,0.0,-3.0,0.0,214.0,1602.0,0.0,,,,,,,
3.0997510000000013,0.0,0.0,1568.0,17.0,0.0,0.0005235987755982988,-0.28,0.006009913049638271,0.2984187602996826,0.0001754692057147622,1491.0,-0.0029670597283903604,22.694639,5.0,-9.742013931274414,0.0,2.7356290695759125,1500.0,0.0,51.459548899999994,0.0,22.655006,1418.0,-0.0034874414559453726,0.428529292345047,17933.389892578125,402.0,0.0,1000.0,5.0,0.0,0.0,1500.0,0.0,0.06335545184739416,0.0,1.0,-2.7909482999999997,-0.0012217304763960308,-0.4025588035583496,-14.0,0.9291127920150757,1500.0,0.0,-3.0,-0.00017453292519943296,214.0,1602.0,0.0,,,,,,,
3.19979,0.0,0.0,1568.0,17.0,0.0,0.0005235987755982988,-0.28,0.00913103949278593,0.35054439306259155,-0.011405419558286667,1491.0,-0.0029670597283903604,22.794677999999998,5.0,-9.768209457397461,0.0,2.735280003725513,1500.0,0.0,51.459548899999994,0.0,22.775009999999998,1418.0,-0.0020978704560548067,0.43137192726135254,17933.389892578125,402.0,0.0,1000.0,5.0,0.0,0.0,1500.0,0.0,0.06405358354819189,0.0,1.0,-2.7909482999999997,-0.0013962634015954637,-0.3767537474632263,-14.0,1.1962686777114868,1500.0,0.0,-3.0,-0.00034906585039886593,214.0,1602.0,0.0,,,,,,,
3.299968,0.0,0.0,1568.0,17.0,0.0,0.0006981317007977319,-0.22,0.0161746796220541,-0.5362444519996643,-0.027228519320487976,1491.0,-0.0029670597283903604,22.894855999999997,5.0,-9.940733909606934,0.0,2.734756404949915,1500.0,0.0,51.4595493,0.0,22.855059999999998,1418.0,-0.013287375681102276,0.4323708713054657,17933.389892578125,402.0,0.0,1000.0,5.0,0.0,0.0,1500.0,0.0,0.06405358354819189,0.0,1.0,-2.7909484,-0.0013962634015954637,-0.3870757520198822,-14.0,1.1892716884613037,1500.0,0.0,-3.0,0.0017453292519943296,214.0,1602.0,0.0,,,,,,,
3.399660000000001,0.0,0.0,1568.0,17.0,0.0,0.0008726646259971648,-0.22,-0.001561917131766677,0.8678581118583679,-0.010793481953442097,1491.0,-0.003141592653589793,22.994547999999998,5.0,-9.516600608825684,0.0,2.7349309378751148,1500.0,0.0,51.4595493,0.0,22.975185,1418.0,0.008530762977898121,0.43178486824035645,17933.389892578125,402.0,0.0,1000.0,5.0,0.0,0.0,1500.0,0.0,0.06422811647339133,0.0,1.0,-2.7909484,-0.0013962634015954637,-0.4386858642101288,-14.0,1.2873344421386719,1500.0,0.0,-3.0,-0.003665191429188092,214.0,1602.0,0.0,,,,,,,
3.4997830000000008,0.0,0.0,1568.0,17.0,0.0,0.0008726646259971648,-0.16,0.004000573419034481,-0.9541409015655518,-0.06231793016195297,1491.0,-0.003141592653589793,23.094670999999998,5.0,-9.76048469543457,0.0,2.7338837403239182,1500.0,0.0,51.4595498,0.0,23.05503,1418.0,-0.019939344376325607,0.43095991015434265,17019.896728515625,402.0,0.0,1000.0,5.0,0.0,0.0,1500.0,0.0,0.0645771823237902,0.0,1.0,-2.7909485,-0.0013962634015954637,-0.4025588035583496,-14.0,1.057748556137085,1500.0,0.0,-3.0,0.0020943951023931952,214.0,1602.0,0.0,,,,,,,
3.599767,0.0,0.0,1568.0,17.0,0.0,0.0010471975511965976,-0.16,0.004766679834574461,0.892341136932373,-0.007291455753147602,1491.0,-0.003141592653589793,23.194654999999997,5.0,-9.834430694580078,0.0,2.7338837403239182,1500.0,0.0,51.4595498,0.0,23.174882999999998,1418.0,0.007147800177335739,0.42998069524765015,17933.389892578125,402.0,0.0,1000.0,5.0,0.0,0.0,1500.0,0.0,0.0645771823237902,0.0,1.0,-2.7909485,-0.0013962634015954637,-0.5419060587882996,-14.0,1.0925804376602173,1500.0,0.0,-3.0,-0.0008726646259971648,214.0,1602.0,0.0,,,,,,,
3.6997890000000027,0.0,0.0,1569.0,16.0,0.0,0.0012217304763960308,-0.16,0.0020329307299107313,-0.7097399234771729,-0.06346484273672104,1490.0,-0.003141592653589793,23.294677,5.0,-9.77670669555664,0.0,2.73318560862312,1500.0,0.0,51.459550099999994,0.0,23.254970999999998,1417.0,-0.017109330743551254,0.43057411909103394,17933.389892578125,402.0,0.0,1000.0,5.0,0.0,0.0,1500.0,0.0,0.06475171524898962,0.0,1.0,-2.7909485999999997,-0.0013962634015954637,-0.5212620496749878,-14.0,1.1039812564849854,1500.0,0.0,-3.0,0.0019198621771937625,214.0,1603.0,0.0,,,,,,,
3.799792,0.0,0.0,1568.0,16.0,0.0,0.0012217304763960308,-0.16,0.003983919508755207,0.7880275845527649,-0.016189171001315117,1491.0,-0.003141592653589793,23.394679999999997,5.0,-9.790204048156738,0.0,2.7328365427727213,1500.0,0.0,51.459550099999994,0.0,23.374909,1417.0,0.006443521473556757,0.43469882011413574,18672.060791015625,402.0,0.0,1000.0,5.0,0.0,0.0,1500.0,0.0,0.06492624817418906,0.0,1.0,-2.7909485999999997,-0.0013962634015954637,-0.48513495922088623,-14.0,1.1164772510528564,1500.0,0.0,-3.0,0.0,214.0,1603.0,0.0,,,,,,,
3.899810000000002,0.0,0.0,1568.0,15.0,0.0,0.0013962634015954637,-0.15,0.0038562107365578413,-0.5581045150756836,-0.06423727422952652,1490.0,-0.003141592653589793,23.494698,5.0,-9.73764705657959,0.0,2.732138411071923,1501.0,0.0,51.4595504,0.0,23.455119,1417.0,-0.014233340509235859,0.43826478719711304,18672.060791015625,402.0,0.0,1000.0,5.0,0.0,0.0,1500.0,0.0,0.06492624817418906,0.0,1.0,-2.7909481,-0.0013962634015954637,-0.4025588035583496,-14.0,1.1217926740646362,1500.0,0.0,-3.0,0.0020943951023931952,214.0,1603.0,0.0,,,,,,,
3.9997480000000003,0.0,0.0,1568.0,15.0,0.0,0.0013962634015954637,-0.15,0.006736266892403364,0.6746048927307129,-0.023198183625936508,1490.0,-0.0029670597283903604,23.594635999999998,5.0,-9.784578323364258,0.0,2.731614812296325,1500.0,0.0,51.4595504,0.0,23.575174999999998,1417.0,0.005657798610627651,0.4423648416996002,20997.375,402.0,0.0,1001.0,5.0,0.0,0.0,1501.0,0.0,0.06492624817418906,0.0,1.0,-2.7909481,-0.0013962634015954637,-0.5419060587882996,-14.0,1.136724829673767,1500.0,0.0,-3.0,0.0005235987755982988,214.0,1603.0,0.0,,,,,,,
4.099765000000001,0.0,0.0,1568.0,17.0,0.0,0.0015707963267948964,-0.07,0.005567849148064852,-0.4639521539211273,-0.06423399597406387,1491.0,-0.0029670597283903604,23.694653,5.0,-9.745832443237305,0.0,2.7309166805955276,1500.0,0.0,51.4595506,0.0,23.655082,1417.0,-0.012251678854227066,0.44527751207351685,20990.02978515625,402.0,0.0,1000.0,5.0,0.0,0.0,1500.0,0.0,0.0651007810993885,0.0,1.0,-2.7909481,-0.0013962634015954637,-0.43352484703063965,-14.0,1.140212059020996,1500.0,0.0,-3.0,0.0020943951023931952,214.0,1603.0,0.0,,,,,,,
4.199782000000003,0.0,0.0,1568.0,17.0,0.0,0.0015707963267948964,-0.07,0.007794057950377464,0.5732362866401672,-0.028094103559851646,1491.0,-0.0029670597283903604,23.79467,5.0,-9.77497673034668,0.0,2.730393081819929,1500.0,0.0,51.4595506,0.0,23.774886,1417.0,0.004514922853559256,0.44995248317718506,20990.02978515625,402.0,0.0,1000.0,5.0,0.0,0.0,1500.0,0.0,0.0651007810993885,0.0,1.0,-2.7909481,-0.0013962634015954637,-0.4954569935798645,-14.0,1.1316206455230713,1500.0,0.0,-3.0,0.0006981317007977319,214.0,1603.0,0.0,,,,,,,
4.299748000000001,0.0,0.0,1568.0,17.0,0.0,0.0017453292519943296,0.09,0.006972113158553839,-0.3925745189189911,-0.06373072415590286,1491.0,-0.0029670597283903604,23.894636,5.0,-9.748478889465332,0.0,2.7298694830443306,1500.0,0.0,51.4595511,0.0,23.855010999999998,1418.0,-0.010674500837922096,0.45270922780036926,19565.82373046875,402.0,0.0,1000.0,5.0,0.0,0.0,1500.0,0.0,0.0651007810993885,0.0,1.0,-2.7909482,-0.0012217304763960308,-0.6502872705459595,-14.0,1.1278021335601807,1500.0,0.0,-3.0,0.0019198621771937625,214.0,1602.0,0.0,,,,,,,
4.3997920000000015,0.0,0.0,1568.0,17.0,0.0,0.0017453292519943296,0.09,0.010161767713725567,0.5034449696540833,-0.03131965175271034,1491.0,-0.0029670597283903604,23.99468,5.0,-9.775068283081055,0.0,2.7291713513435334,1500.0,0.0,51.4595511,0.0,23.975433,1418.0,0.004417048767209053,0.4604766368865967,19565.82373046875,402.0,0.0,1000.0,5.0,0.0,0.0,1500.0,0.0,0.0651007810993885,0.0,1.0,-2.7909482,-0.0012217304763960308,-0.5057790279388428,-14.0,1.134379506111145,1500.0,0.0,-3.0,0.0008726646259971648,214.0,1602.0,0.0,,,,,,,
4.499794000000001,0.0,0.0,1568.0,16.0,0.0,0.0019198621771937625,0.25,0.010900069028139114,-0.3287225365638733,-0.06224412843585014,1491.0,-0.0029670597283903604,24.094682,5.0,-9.747962951660156,0.0,2.7286477525679347,1500.0,0.0,51.459551499999996,0.0,24.055065,1418.0,-0.00853638630360365,0.4671468436717987,19565.82373046875,402.0,0.0,1000.0,5.0,0.0,0.0,1500.0,0.0,0.0651007810993885,0.0,1.0,-2.7909482,-0.0012217304763960308,-0.5212620496749878,-14.0,1.1435000896453857,1500.0,0.0,-3.0,0.0019198621771937625,214.0,1602.0,0.0,,,,,,,
4.599658000000002,0.0,0.0,1568.0,16.0,0.0,0.0019198621771937625,0.25,0.014980832114815712,0.44351428747177124,-0.03394139185547829,1491.0,-0.0029670597283903604,24.194546,5.0,-9.755496978759766,0.0,2.7281241537923364,1500.0,0.0,51.459551499999996,0.0,24.174892,1418.0,0.005197306163609028,0.476412296295166,19565.82373046875,402.0,0.0,1000.0,5.0,0.0,0.0,1500.0,0.0,0.0651007810993885,0.0,1.0,-2.7909482,-0.0012217304763960308,-0.4644909203052521,-14.0,1.142108678817749,1500.0,0.0,-3.0,0.0010471975511965976,214.0,1602.0,0.0,,,,,,,
4.699791000000001,0.0,0.0,1568.0,16.0,0.0,0.0019198621771937625,0.4,0.01534544862806797,-0.2752716541290283,-0.06068464741110802,1491.0,-0.0027925268031909274,24.294679,5.0,-9.74856948852539,0.0,2.727600555016738,1500.0,0.0,51.4595519,0.0,24.255043999999998,1418.0,-0.005411047488451004,0.4815499484539032,18672.060791015625,402.0,0.0,1000.0,5.0,0.0,0.0,1500.0,0.0,0.0651007810993885,0.0,1.0,-2.7909482,-0.0012217304763960308,-0.4799739420413971,-14.0,1.1380014419555664,1500.0,0.0,-3.0,0.0019198621771937625,214.0,1602.0,0.0,,,,,,,
4.799768,0.0,0.0,1568.0,16.0,0.0,0.0020943951023931952,0.4,0.01725432090461254,0.4116693139076233,-0.03600110113620758,1491.0,-0.0027925268031909274,24.394655999999998,5.0,-9.76137924194336,0.0,2.72707695624114,1500.0,0.0,51.4595519,0.0,24.37489,1418.0,0.006783336400985718,0.487307071685791,19067.07373046875,402.0,0.0,1000.0,5.0,0.0,0.0,1500.0,0.0,0.0651007810993885,0.0,1.0,-2.7909482,-0.0012217304763960308,-0.43352484703063965,-14.0,1.148084044456482,1500.0,0.0,-3.0,0.0010471975511965976,214.0,1602.0,0.0,,,,,,,
4.899746,0.0,0.0,1568.0,16.0,0.0,0.0020943951023931952,0.51,0.016542905941605568,-0.2375504970550537,-0.058751173317432404,1490.0,-0.0027925268031909274,24.494633999999998,5.0,-9.731492042541504,0.0,2.7265533574655416,1500.0,0.0,51.4595524,0.0,24.455043999999997,1417.0,-0.0028160521760582924,0.4896206855773926,18672.060791015625,402.0,0.0,1001.0,5.0,0.0,0.0,1500.0,0.0,0.0651007810993885,0.0,1.0,-2.7909481,-0.0012217304763960308,-0.5780331492424011,-14.0,1.1405487060546875,1501.0,0.0,-3.0,0.0017453292519943296,214.0,1603.0,0.0,,,,,,,
4.999865,0.0,0.0,1569.0,16.0,0.0,0.0020943951023931952,0.51,0.01742558553814888,0.37898701429367065,-0.03687899932265282,1490.0,-0.0027925268031909274,24.594752999999997,5.0,-9.756558418273926,0.0,2.726204291615143,1500.0,0.0,51.4595524,0.0,24.575447999999998,1417.0,0.007789277471601963,0.4935429096221924,18672.060791015625,402.0,0.0,1000.0,5.0,0.0,0.0,1500.0,0.0,0.0651007810993885,0.0,1.0,-2.7909481,-0.0012217304763960308,-0.5212620496749878,-14.0,1.1353319883346558,1500.0,0.0,-3.0,0.0008726646259971648,214.0,1603.0,0.0,,,,,,,
5.0997720000000015,0.0,0.0,1568.0,16.0,0.0,0.0020943951023931952,0.6,0.01695326529443264,-0.19686762988567352,-0.055897001177072525,1491.0,-0.0027925268031909274,24.69466,5.0,-9.734743118286133,0.0,2.725855225764744,1500.0,0.0,51.459552699999996,0.0,24.655053,1418.0,-0.0006661398219875991,0.4971902072429657,18486.321533203125,402.0,0.0,1000.0,5.0,0.0,0.0,1500.0,0.0,0.0651007810993885,0.0,1.0,-2.7909481,-0.0012217304763960308,-0.5315840244293213,-14.0,1.141666054725647,1500.0,0.0,-3.0,0.0017453292519943296,214.0,1602.0,0.0,,,,,,,
5.20017,0.0,0.0,1568.0,16.0,0.0,0.0020943951023931952,0.6,0.01872139796614647,0.35268816351890564,-0.0364484041929245,1491.0,-0.0027925268031909274,24.795057999999997,5.0,-9.770475387573242,0.0,2.725506159914345,1500.0,0.0,51.459552699999996,0.0,24.774884999999998,1418.0,0.007957017049193382,0.5028395056724548,18672.060791015625,402.0,0.0,1000.0,5.0,0.0,0.0,1500.0,0.0,0.0651007810993885,0.0,1.0,-2.7909481,-0.0012217304763960308,-0.5522280931472778,-14.0,1.1467268466949463,1500.0,0.0,-3.0,0.0008726646259971648,214.0,1602.0,0.0,,,,,,,
5.299805000000003,0.0,0.0,1569.0,16.0,0.0,0.0020943951023931952,0.68,0.018471993505954742,-0.16831068694591522,-0.052980486303567886,1490.0,-0.002617993877991494,24.894693,5.0,-9.736092567443848,0.0,2.7251570940639462,1500.0,0.0,51.4595529,0.0,24.855083,1417.0,0.0009013972012326121,0.5069913864135742,18672.060791015625,402.0,0.0,1000.0,5.0,0.0,0.0,1500.0,0.0,0.0651007810993885,0.0,1.0,-2.7909479,-0.0012217304763960308,-0.4696519374847412,-14.0,1.1535334587097168,1500.0,0.0,-3.0,0.0015707963267948964,214.0,1603.0,0.0,,,,,,,
5.399812000000001,0.0,0.0,1568.0,16.0,0.0,0.0020943951023931952,0.68,0.02043023146688938,0.31964120268821716,-0.03607780113816261,1491.0,-0.002617993877991494,24.994699999999998,5.0,-9.756048202514648,0.0,2.724982561138747,1500.0,0.0,51.4595529,0.0,24.975255999999998,1417.0,0.00813783798366785,0.5122179388999939,18672.060791015625,402.0,0.0,1000.0,5.0,0.0,0.0,1500.0,0.0,0.0651007810993885,0.0,1.0,-2.7909479,-0.0012217304763960308,-0.5315840244293213,-14.0,1.1610981225967407,1500.0,0.0,-3.0,0.0006981317007977319,214.0,1603.0,0.0,,,,,,,
5.499750000000002,0.0,0.0,1568.0,16.0,0.0,0.0022689280275926286,0.74,0.01965291239321232,-0.15344436466693878,-0.04970531910657883,1491.0,-0.002617993877991494,25.094638,5.0,-9.736513137817383,0.0,2.724633495288348,1500.0,0.0,51.459553199999995,0.0,25.055051,1418.0,0.0013164974516257644,0.5149784088134766,18537.72607421875,402.0,0.0,1000.0,5.0,0.0,0.0,1500.0,0.0,0.0651007810993885,0.0,1.0,-2.7909477,-0.0012217304763960308,-0.49029597640037537,-14.0,1.1422450542449951,1500.0,0.0,-3.0,0.0015707963267948964,214.0,1602.0,0.0,,,,,,,
5.599801000000003,0.0,0.0,1568.0,16.0,0.0,0.0022689280275926286,0.74,0.02063925936818123,0.28766000270843506,-0.03396345674991608,1491.0,-0.002617993877991494,25.194689,5.0,-9.761374473571777,0.0,2.724458962363148,1500.0,0.0,51.459553199999995,0.0,25.174906999999997,1418.0,0.007963467389345169,0.5185278654098511,18672.060791015625,402.0,0.0,1000.0,5.0,0.0,0.0,1500.0,0.0,0.06492624817418906,0.0,1.0,-2.7909477,-0.0012217304763960308,-0.5883551836013794,-14.0,1.15409255027771,1500.0,0.0,-3.0,0.0005235987755982988,214.0,1602.0,0.0,,,,,,,
5.7000480000000024,0.0,0.0,1568.0,16.0,0.0,0.0020943951023931952,0.87,0.0205805916339159,-0.14145275950431824,-0.04605118930339813,1491.0,-0.002617993877991494,25.294936,5.0,-9.733758926391602,0.0,2.7241098965127497,1500.0,0.0,51.459553299999996,0.0,25.255065,1417.0,0.002517665270715952,0.5214101076126099,18672.060791015625,402.0,0.0,1000.0,5.0,0.0,0.0,1500.0,0.0,0.06492624817418906,0.0,1.0,-2.7909474,-0.0010471975511965976,-0.5006179809570312,-14.0,1.1402331590652466,1500.0,0.0,-3.0,0.0013962634015954637,214.0,1603.0,0.0,,,,,,,
5.799775,0.0,0.0,1568.0,16.0,0.0,0.0020943951023931952,0.87,0.021754788234829903,0.2828928232192993,-0.0326271690428257,1491.0,-0.002617993877991494,25.394662999999998,5.0,-9.755784034729004,0.0,2.72393536358755,1500.0,0.0,51.459553299999996,0.0,25.374872999999997,1417.0,0.007906230166554451,0.5260728001594543,18672.060791015625,402.0,0.0,1000.0,5.0,0.0,0.0,1500.0,0.0,0.06492624817418906,0.0,1.0,-2.7909474,-0.0010471975511965976,-0.5212620496749878,-14.0,1.1539477109909058,1500.0,0.0,-3.0,0.0005235987755982988,214.0,1603.0,0.0,,,,,,,
5.899799000000002,0.0,0.0,1568.0,17.0,0.0,0.0020943951023931952,1.01,0.02100299298763275,-0.11336559057235718,-0.04310714453458786,1491.0,-0.0024434609527920616,25.494687,5.0,-9.740580558776855,0.0,2.7235862977371514,1500.0,0.0,51.4595536,0.0,25.455018,1418.0,0.002911726711317897,0.5284628868103027,18537.72607421875,402.0,0.0,1000.0,5.0,0.0,0.0,1500.0,0.0,0.06492624817418906,0.0,1.0,-2.7909471999999997,-0.0010471975511965976,-0.5315840244293213,-14.0,1.1376606225967407,1500.0,0.0,-3.0,0.0012217304763960308,214.0,1602.0,0.0,,,,,,,
5.999985000000002,0.0,0.0,1568.0,17.0,0.0,0.0020943951023931952,1.01,0.021092616021633148,0.26799631118774414,-0.031131727620959282,1491.0,-0.0024434609527920616,25.594873,5.0,-9.755448341369629,0.0,2.7235862977371514,1500.0,0.0,51.4595536,0.0,25.575302999999998,1418.0,0.008111018687486649,0.531787097454071,18672.060791015625,402.0,0.0,1000.0,5.0,0.0,0.0,1500.0,0.0,0.06475171524898962,0.0,1.0,-2.7909471999999997,-0.0010471975511965976,-0.5986771583557129,-14.0,1.154426097869873,1500.0,0.0,-3.0,0.00034906585039886593,214.0,1602.0,0.0,,,,,,,
6.099756000000003,0.0,0.0,1568.0,15.0,0.0,0.0020943951023931952,1.12,0.021088477224111557,-0.0954662412405014,-0.04022930935025215,1490.0,-0.0024434609527920616,25.694644,5.0,-9.754932403564453,0.0,2.7232372318867526,1501.0,0.0,51.4595537,0.0,25.65503,1417.0,0.0035609244368970394,0.5348212122917175,18672.060791015625,402.0,0.0,1000.0,5.0,0.0,0.0,1500.0,0.0,0.06475171524898962,0.0,1.0,-2.7909471,-0.0010471975511965976,-0.44900789856910706,-14.0,1.1501810550689697,1500.0,0.0,-3.0,0.0012217304763960308,214.0,1603.0,0.0,,,,,,,
6.199796000000003,0.0,0.0,1568.0,15.0,0.0,0.0020943951023931952,1.12,0.02111249603331089,0.24788668751716614,-0.03056548349559307,1490.0,-0.0024434609527920616,25.794684,5.0,-9.753286361694336,0.0,2.7232372318867526,1500.0,0.0,51.4595537,0.0,25.774919,1417.0,0.007160322740674019,0.5382764339447021,18672.060791015625,402.0,0.0,1001.0,5.0,0.0,0.0,1501.0,0.0,0.06475171524898962,0.0,1.0,-2.7909471,-0.0010471975511965976,-0.6193212270736694,-14.0,1.1545125246047974,1500.0,0.0,-3.0,0.00034906585039886593,214.0,1603.0,0.0,,,,,,,
6.299768,0.0,0.0,1568.0,17.0,0.0,0.0020943951023931952,1.25,0.020610688254237175,-0.07536087185144424,-0.038003887981176376,1491.0,-0.0024434609527920616,25.894655999999998,5.0,-9.748269081115723,0.0,2.7228881660363533,1500.0,0.0,51.4595542,0.0,25.855047,1418.0,0.003017546609044075,0.5405176877975464,18537.72607421875,402.0,0.0,1000.0,5.0,0.0,0.0,1500.0,0.0,0.06475171524898962,0.0,1.0,-2.7909469,-0.0010471975511965976,-0.5006179809570312,-14.0,1.1456053256988525,1500.0,0.0,-3.0,0.0010471975511965976,214.0,1602.0,0.0,,,,,,,
6.399728,0.0,0.0,1568.0,17.0,0.0,0.0020943951023931952,1.25,0.021163789555430412,0.23285554349422455,-0.02980196103453636,1491.0,-0.0024434609527920616,25.994615999999997,5.0,-9.755436897277832,0.0,2.7228881660363533,1500.0,0.0,51.4595542,0.0,25.975215,1418.0,0.006368857342749834,0.544304370880127,18537.72607421875,402.0,0.0,1000.0,5.0,0.0,0.0,1500.0,0.0,0.0645771823237902,0.0,1.0,-2.7909469,-0.0010471975511965976,-0.350948691368103,-14.0,1.1525936126708984,1500.0,0.0,-3.0,0.00017453292519943296,214.0,1602.0,0.0,,,,,,,
6.499780000000001,0.0,0.0,1568.0,17.0,0.0,0.0020943951023931952,1.3900000000000001,0.019697513431310654,-0.06952705979347229,-0.036326032131910324,1490.0,-0.0024434609527920616,26.094668,5.0,-9.733977317810059,0.0,2.722713633111154,1500.0,0.0,51.4595547,0.0,26.055065,1417.0,0.003141768742352724,0.5435462594032288,18537.72607421875,402.0,0.0,1001.0,5.0,0.0,0.0,1500.0,0.0,0.0645771823237902,0.0,1.0,-2.7909468,-0.0010471975511965976,-0.5780331492424011,-14.0,1.150972604751587,1501.0,0.0,-3.0,0.0010471975511965976,214.0,1603.0,0.0,,,,,,,
6.599780000000003,0.0,0.0,1569.0,17.0,0.0,0.0020943951023931952,1.3900000000000001,0.017860624939203262,0.22341738641262054,-0.0287510696798563,1490.0,-0.0024434609527920616,26.194668,5.0,-9.756240844726562,0.0,2.722713633111154,1500.0,0.0,51.4595547,0.0,26.174868999999997,1417.0,0.0056984154507517815,0.5410513281822205,20951.811767578125,402.0,0.0,1000.0,5.0,0.0,0.0,1500.0,0.0,0.0645771823237902,0.0,1.0,-2.7909468,-0.0010471975511965976,-0.5109400153160095,-14.0,1.1454510688781738,1500.0,0.0,-3.0,0.00017453292519943296,214.0,1603.0,0.0,,,,,,,
6.699727000000003,0.0,0.0,1568.0,17.0,0.0,0.0020943951023931952,1.49,0.0162334144115448,-0.05285664275288582,-0.03426471725106239,1491.0,-0.0024434609527920616,26.294615,5.0,-9.751443862915039,0.0,2.722539100185955,1500.0,0.0,51.4595553,0.0,26.254998,1418.0,0.00247567193582654,0.5403681993484497,20951.811767578125,402.0,0.0,1000.0,5.0,0.0,0.0,1500.0,0.0,0.06440264939859076,0.0,1.0,-2.7909468,-0.0010471975511965976,-0.5212620496749878,-14.0,1.1593546867370605,1500.0,0.0,-3.0,0.0008726646259971648,214.0,1602.0,0.0,,,,,,,
6.799774000000003,0.0,0.0,1568.0,17.0,0.0,0.0020943951023931952,1.49,0.014642905443906784,0.21063612401485443,-0.028174007311463356,1491.0,-0.0022689280275926286,26.394662,5.0,-9.743967056274414,0.0,2.722539100185955,1500.0,0.0,51.4595553,0.0,26.374762,1418.0,0.004009295254945755,0.5393999218940735,20983.7373046875,402.0,0.0,1000.0,5.0,0.0,0.0,1500.0,0.0,0.06440264939859076,0.0,1.0,-2.7909468,-0.0010471975511965976,-0.5677111148834229,-14.0,1.1457579135894775,1500.0,0.0,-3.0,0.0,214.0,1602.0,0.0,,,,,,,
6.899759000000003,0.0,0.0,1569.0,17.0,0.0,0.0019198621771937625,1.6400000000000001,0.01351005956530571,-0.04201504960656166,-0.03304431959986687,1490.0,-0.0022689280275926286,26.494647,5.0,-9.738871574401855,0.0,2.722364567260755,1500.0,0.0,51.4595558,0.0,26.455253,1417.0,0.001733845449052751,0.5390050411224365,20951.811767578125,444.0,0.0,1000.0,5.0,0.0,0.0,1500.0,0.0,0.06440264939859076,0.0,1.0,-2.7909466,-0.0010471975511965976,-0.4644909203052521,-14.0,1.1506074666976929,1500.0,0.0,-3.0,0.0008726646259971648,197.0,1603.0,0.0,,,,,,,
6.999739000000002,0.0,0.0,1568.0,17.0,0.0,0.0019198621771937625,1.6400000000000001,0.01270634401589632,0.1992434561252594,-0.028829341754317284,1491.0,-0.0022689280275926286,26.594627,5.0,-9.753156661987305,0.0,2.722539100185955,1500.0,0.0,51.4595558,0.0,26.575252,1417.0,0.0037729344330728054,0.538829505443573,20951.811767578125,444.0,0.0,1000.0,5.0,0.0,0.0,1500.0,0.0,0.06440264939859076,0.0,1.0,-2.7909466,-0.0010471975511965976,-0.4541688859462738,-14.0,1.1438919305801392,1500.0,0.0,-3.0,0.0,197.0,1603.0,0.0,,,,,,,
7.099747000000001,0.0,0.0,1568.0,17.0,0.06679131090641022,0.0019198621771937625,1.75,0.0122383963316679,-0.03949549049139023,-0.03304493799805641,1491.0,-0.0022689280275926286,26.694634999999998,5.0,-9.754290580749512,0.0,2.722364567260755,1500.0,0.0,51.4595564,0.0,26.655047,1418.0,0.001719245221465826,0.5389344692230225,18537.72607421875,444.0,0.0,1000.0,5.0,0.0,0.0,1500.0,0.0,0.06440264939859076,0.0,1.0,-2.7909466,-0.0010471975511965976,-0.5625501275062561,-14.0,1.1542506217956543,1500.0,0.0,-3.0,0.0008726646259971648,197.0,1602.0,0.0,,,,,,,
7.199799000000002,0.0,0.0,1568.0,17.0,0.06679131090641022,0.0019198621771937625,1.75,0.011249086819589138,0.18336477875709534,-0.030392756685614586,1491.0,-0.0022689280275926286,26.794687,5.0,-9.746673583984375,0.0,2.722539100185955,1500.0,0.0,51.4595564,0.0,26.774898999999998,1418.0,0.0033980668522417545,0.5393363237380981,18537.72607421875,444.0,0.0,1000.0,5.0,0.0,0.0,1500.0,0.0,0.06440264939859076,0.0,1.0,-2.7909466,-0.0010471975511965976,-0.5625501275062561,-14.0,1.1287755966186523,1500.0,0.0,-3.0,0.0,197.0,1602.0,0.0,,,,,,,
7.299648000000001,0.0,0.0,1568.0,17.0,0.12245073169469833,0.0019198621771937625,1.84,0.010704622603952885,-0.033723779022693634,-0.03439563512802124,1491.0,-0.0022689280275926286,26.894536,5.0,-9.746133804321289,0.0,2.722539100185955,1500.0,0.0,51.459556899999995,0.0,26.855024999999998,1418.0,0.002437358954921365,0.5396952629089355,18537.72607421875,444.0,0.0,1000.0,5.0,0.0,0.0,1500.0,0.0,0.06440264939859076,0.0,1.0,-2.7909466999999997,-0.0010471975511965976,-0.5986771583557129,-14.0,1.1499608755111694,1500.0,0.0,-3.0,0.0008726646259971648,197.0,1602.0,-0.006935909390449524,,,,,,,
7.3997980000000005,0.0,0.0,1568.0,17.0,0.12245073169469833,0.0019198621771937625,1.84,0.00996769592165947,0.16417938470840454,-0.03280918300151825,1490.0,-0.0022689280275926286,26.994685999999998,5.0,-9.753009796142578,0.0,2.722539100185955,1501.0,0.0,51.459556899999995,0.0,26.975296999999998,1417.0,0.003775177523493767,0.5403462052345276,18567.228271484375,444.0,0.0,1000.0,5.0,0.0,0.0,1500.0,0.0,0.06440264939859076,0.0,1.0,-2.7909466999999997,-0.0010471975511965976,-0.5728721022605896,-14.0,1.150161623954773,1500.0,0.0,-3.0,0.00017453292519943296,197.0,1603.0,-0.006935909390449524,,,,,,,
7.499784000000002,0.0,0.0,1568.0,16.0,0.17811015248298645,0.0017453292519943296,1.9100000000000001,0.00977025181055069,-0.017591647803783417,-0.036874037235975266,1491.0,-0.0022689280275926286,27.094672,5.0,-9.741839408874512,0.0,2.722539100185955,1500.0,0.0,51.459557399999994,0.0,27.055056,1418.0,0.0028895384166389704,0.5408162474632263,18567.228271484375,444.0,0.0,1000.0,5.0,0.0,0.0,1500.0,0.0,0.06440264939859076,0.0,1.0,-2.7909469,-0.0010471975511965976,-0.5883551836013794,-14.0,1.153242826461792,1500.0,0.0,-3.0,0.0008726646259971648,197.0,1602.0,-0.02080773003399372,,,,,,,
7.599645000000002,0.0,0.0,1568.0,16.0,0.17811015248298645,0.0017453292519943296,1.9100000000000001,-0.018162785097956657,0.1474687159061432,-0.03264753520488739,1491.0,-0.0022689280275926286,27.194533,5.0,-9.735032081604004,0.0,2.722539100185955,1500.0,0.0,51.459557399999994,0.0,27.174882,1418.0,0.003737044520676136,0.4688304364681244,20942.93017578125,444.0,0.0,1000.0,5.0,0.0,0.0,1500.0,0.0,0.06440264939859076,0.0,1.0,-2.7909469,-0.0010471975511965976,-0.6399652361869812,-14.0,1.141086220741272,1500.0,0.0,-3.0,0.00017453292519943296,197.0,1602.0,-0.02080773003399372,,,,,,,
7.699791000000001,0.0,0.0,1568.0,16.0,0.22263768315315247,0.0017453292519943296,1.97,-0.03160775825381279,-0.0028186349663883448,-0.033903948962688446,1490.0,-0.0022689280275926286,27.294679,5.0,-9.749671936035156,0.0,2.722539100185955,1501.0,0.0,51.4595578,0.0,27.255049999999997,1417.0,0.0027906487230211496,0.4325084686279297,20942.93017578125,444.0,0.0,1000.0,5.0,0.0,0.0,1500.0,0.0,0.06440264939859076,0.0,1.0,-2.7909466999999997,-0.0010471975511965976,-0.5677111148834229,-14.0,1.1517008543014526,1500.0,0.0,-3.0,0.0006981317007977319,197.0,1603.0,-0.006935909390449524,,,,,,,
7.799798000000003,0.0,0.0,1568.0,16.0,0.22263768315315247,0.0017453292519943296,1.97,-0.05592802166938782,0.16113293170928955,-0.029192231595516205,1490.0,-0.0022689280275926286,27.394686,5.0,-9.747124671936035,0.0,2.722539100185955,1500.0,0.0,51.4595578,0.0,27.37492,1417.0,0.0026572311762720346,0.36384347081184387,20942.93017578125,444.0,0.0,1001.0,5.0,0.0,0.0,1500.0,0.0,0.06422811647339133,0.0,1.0,-2.7909466999999997,-0.0008726646259971648,-0.5419060587882996,-14.0,1.1544607877731323,1501.0,0.0,-3.0,0.0,197.0,1603.0,-0.006935909390449524,,,,,,,
7.899748000000002,0.0,0.0,1568.0,16.0,0.2782971262931824,0.0017453292519943296,2.04,-0.06788123399019241,0.01682642474770546,-0.030176183208823204,1491.0,-0.0022689280275926286,27.494636,5.0,-9.756555557250977,0.0,2.722364567260755,1500.0,0.0,51.4595583,0.0,27.454998,1417.0,0.0017751841805875301,0.3283182382583618,18567.228271484375,444.0,0.0,1000.0,5.0,0.0,0.0,1500.0,0.0,0.06422811647339133,0.0,1.0,-2.7909465,-0.0008726646259971648,-0.5522280931472778,-14.0,1.150804877281189,1500.0,0.0,-3.0,0.0005235987755982988,197.0,1603.0,0.006935909390449524,,,,,,,
8.000062,0.0,0.0,1568.0,16.0,0.2782971262931824,0.0017453292519943296,2.04,-0.08838406205177307,0.12754656374454498,-0.026485364884138107,1491.0,-0.0022689280275926286,27.594949999999997,5.0,-9.74720573425293,0.0,2.722364567260755,1500.0,0.0,51.4595583,0.0,27.575436999999997,1418.0,0.0014443456893786788,0.26689401268959045,18567.228271484375,444.0,0.0,1000.0,5.0,0.0,0.0,1500.0,0.0,0.06405358354819189,0.0,1.0,-2.7909465,-0.0008726646259971648,-0.5573890805244446,-14.0,1.1463558673858643,1500.0,0.0,-3.0,0.0,197.0,1602.0,0.006935909390449524,,,,,,,
8.099779000000002,0.0,0.0,1568.0,16.0,0.3228246569633484,0.0017453292519943296,2.14,-0.09348242729902267,0.011003843508660793,-0.027637680992484093,1491.0,-0.0022689280275926286,27.694667,5.0,-9.750557899475098,0.0,2.722364567260755,1500.0,0.0,51.459558699999995,0.0,27.615121,1418.0,0.0008551474893465638,0.25002214312553406,18567.228271484375,444.0,0.0,1000.0,5.0,0.0,0.0,1500.0,0.0,0.06405358354819189,0.0,1.0,-2.7909465,-0.0008726646259971648,-0.6502872705459595,-14.0,1.150282621383667,1500.0,0.0,-3.0,0.0,197.0,1602.0,0.006935909390449524,,,,,,,
8.199765000000003,0.0,0.0,1569.0,16.0,0.3228246569633484,0.0017453292519943296,2.14,-0.11638616025447845,0.14165756106376648,-0.023695625364780426,1490.0,-0.0020943951023931952,27.794653,5.0,-9.751785278320312,0.0,2.722364567260755,1500.0,0.0,51.459558699999995,0.0,27.774860999999998,1417.0,0.0007121333619579673,0.17528168857097626,19290.388427734375,444.0,0.0,1000.0,5.0,0.0,0.0,1500.0,0.0,0.06387905062299247,0.0,1.0,-2.7909465,-0.0008726646259971648,-0.5831941366195679,-14.0,1.1517438888549805,1500.0,0.0,-3.0,-0.00017453292519943296,197.0,1603.0,0.006935909390449524,,,,,,,
8.299768,0.0,0.0,1568.0,16.0,0.3562203049659729,0.0015707963267948964,2.2600000000000002,-0.12571991980075836,0.022103646770119667,-0.02341008000075817,1491.0,-0.0020943951023931952,27.894655999999998,5.0,-9.746334075927734,0.0,2.722364567260755,1500.0,0.0,51.459559,0.0,27.855082,1418.0,0.00030672538559883833,0.14361485838890076,18567.228271484375,444.0,0.0,1000.0,5.0,0.0,0.0,1500.0,0.0,0.06387905062299247,0.0,1.0,-2.7909465,-0.0008726646259971648,-0.6296432614326477,-14.0,1.1498165130615234,1500.0,0.0,-3.0,0.00017453292519943296,197.0,1602.0,0.006935909390449524,,,,,,,
8.399935000000003,0.0,0.0,1568.0,16.0,0.3562203049659729,0.0015707963267948964,2.2600000000000002,-0.14525675773620605,0.11671842634677887,-0.021685922518372536,1491.0,-0.0020943951023931952,27.994823,5.0,-9.752445220947266,0.0,2.722539100185955,1500.0,0.0,51.459559,0.0,27.975306999999997,1418.0,-1.3346405467018485e-05,0.08147749304771423,18567.228271484375,444.0,0.0,1000.0,5.0,0.0,0.0,1500.0,0.0,0.06387905062299247,0.0,1.0,-2.7909465,-0.0008726646259971648,-0.5470671057701111,-14.0,1.1409296989440918,1500.0,0.0,-3.0,-0.00017453292519943296,197.0,1602.0,0.006935909390449524,,,,,,,
8.499732000000002,0.0,0.0,1568.0,16.0,0.4007478356361389,0.0015707963267948964,2.36,-0.15452994406223297,0.04851265996694565,-0.0208633691072464,1491.0,-0.0020943951023931952,28.09462,5.0,-9.76239013671875,0.0,2.722539100185955,1500.0,0.0,51.459559399999996,0.0,28.055055,1418.0,-0.00030051867361180484,0.04790029302239418,18567.228271484375,444.0,0.0,1000.0,5.0,0.0,0.0,1500.0,0.0,0.06387905062299247,0.0,1.0,-2.7909463,-0.0008726646259971648,-0.5419060587882996,-14.0,1.1430988311767578,1500.0,0.0,-3.0,0.00017453292519943296,197.0,1602.0,0.02080773003399372,,,,,,,
8.599793000000002,0.0,0.0,1568.0,16.0,0.4007478356361389,0.0015707963267948964,2.36,-0.17507396638393402,0.10483887046575546,-0.019828563556075096,1491.0,-0.0020943951023931952,28.194681,5.0,-9.748920440673828,0.0,2.7228881660363533,1500.0,0.0,51.459559399999996,0.0,28.174887,1418.0,9.516166755929589e-05,-0.016614703461527824,18846.75830078125,444.0,0.0,1000.0,5.0,0.0,0.0,1500.0,0.0,0.06370451769779303,0.0,1.0,-2.7909463,-0.0008726646259971648,-0.6915753483772278,-14.0,1.1398836374282837,1500.0,0.0,-3.0,-0.00017453292519943296,197.0,1602.0,0.02080773003399372,,,,,,,
8.699843000000001,0.0,0.0,1568.0,16.0,0.4341434836387634,0.0015707963267948964,2.46,-0.184561088681221,0.040273040533065796,-0.019351458176970482,1491.0,-0.0020943951023931952,28.294731,5.0,-9.749246597290039,0.0,2.7228881660363533,1500.0,0.0,51.4595597,0.0,28.255043999999998,1418.0,0.00031030020909383893,-0.05203164368867874,18567.228271484375,444.0,0.0,1000.0,5.0,0.0,0.0,1500.0,0.0,0.06370451769779303,0.0,1.0,-2.7909460999999998,-0.0008726646259971648,-0.6812533736228943,-14.0,1.1472570896148682,1500.0,0.0,-3.0,0.0,197.0,1602.0,0.03467954695224762,,,,,,,
8.79963,0.0,0.0,1568.0,16.0,0.4341434836387634,0.0013962634015954637,2.46,-0.2050759643316269,0.1049240231513977,-0.018984075635671616,1491.0,-0.0020943951023931952,28.394517999999998,5.0,-9.75436019897461,0.0,2.723062698961553,1500.0,0.0,51.4595597,0.0,28.374917999999997,1418.0,-0.00044042017543688416,-0.11903892457485199,18567.228271484375,444.0,0.0,1000.0,5.0,0.0,0.0,1500.0,0.0,0.06370451769779303,0.0,1.0,-2.7909460999999998,-0.0008726646259971648,-0.6451262831687927,-14.0,1.1399078369140625,1500.0,0.0,-3.0,-0.00034906585039886593,197.0,1602.0,0.03467954695224762,,,,,,,
8.899807000000003,0.0,0.0,1568.0,16.0,0.4675391614437103,0.0013962634015954637,2.56,-0.21561799943447113,0.057309456169605255,-0.018412088975310326,1491.0,-0.0020943951023931952,28.494695,5.0,-9.747447967529297,0.0,2.723062698961553,1500.0,0.0,51.459559999999996,0.0,28.455047999999998,1418.0,-8.725396037334576e-05,-0.15632827579975128,18537.72607421875,444.0,0.0,1000.0,5.0,0.0,0.0,1500.0,0.0,0.06370451769779303,0.0,1.0,-2.7909459,-0.0008726646259971648,-0.6657702922821045,-14.0,1.1467126607894897,1500.0,0.0,-3.0,0.0,197.0,1602.0,0.04855136573314667,,,,,,,
8.999870000000001,0.0,0.0,1568.0,16.0,0.4675391614437103,0.0013962634015954637,2.56,-0.23675699532032013,0.09903962165117264,-0.01773703098297119,1490.0,-0.0020943951023931952,28.594758,5.0,-9.765777587890625,0.0,2.7232372318867526,1501.0,0.0,51.459559999999996,0.0,28.575433,1417.0,-0.0006009681965224445,-0.2258680760860443,18537.72607421875,444.0,0.0,1000.0,5.0,0.0,0.0,1500.0,0.0,0.06370451769779303,0.0,1.0,-2.7909459,-0.0008726646259971648,-0.6348042488098145,-14.0,1.1514264345169067,1500.0,0.0,-3.0,-0.00034906585039886593,197.0,1603.0,0.04855136573314667,,,,,,,
9.099745000000002,0.0,0.0,1569.0,17.0,0.48980292677879333,0.0013962634015954637,2.65,-0.2471301406621933,0.06479699909687042,-0.017221378162503242,1490.0,-0.0020943951023931952,28.694633,5.0,-9.74857234954834,0.0,2.7232372318867526,1500.0,0.0,51.4595602,0.0,28.655044,1417.0,-0.0006097173318266869,-0.26507261395454407,18537.72607421875,444.0,0.0,1000.0,5.0,0.0,0.0,1500.0,0.0,0.06370451769779303,0.0,1.0,-2.7909458,-0.0008726646259971648,-0.6451262831687927,-14.0,1.1432849168777466,1500.0,0.0,-3.0,0.0,197.0,1603.0,0.05548727512359619,,,,,,,
9.199967000000001,0.0,0.0,1568.0,17.0,0.48980292677879333,0.0013962634015954637,2.65,-0.26798543334007263,0.09780855476856232,-0.018140243366360664,1491.0,-0.0020943951023931952,28.794855,5.0,-9.743419647216797,0.0,2.7234117648119516,1500.0,0.0,51.4595602,0.0,28.774898999999998,1417.0,-0.0007329008658416569,-0.3362210690975189,19158.3984375,444.0,0.0,1000.0,5.0,0.0,0.0,1500.0,0.0,0.06370451769779303,0.0,1.0,-2.7909458,-0.0008726646259971648,-0.5573890805244446,-14.0,1.1518608331680298,1500.0,0.0,-3.0,-0.00034906585039886593,197.0,1603.0,0.05548727512359619,,,,,,,
9.299775,0.0,0.0,1568.0,16.0,0.512066662311554,0.0013962634015954637,2.75,-0.2780889570713043,0.05502917990088463,-0.017606157809495926,1490.0,-0.0020943951023931952,28.894662999999998,5.0,-9.742803573608398,0.0,2.7234117648119516,1500.0,0.0,51.4595604,0.0,28.855100999999998,1417.0,-0.00045190448872745037,-0.37681296467781067,19158.3984375,444.0,0.0,1000.0,5.0,0.0,0.0,1501.0,0.0,0.06370451769779303,0.0,1.0,-2.7909457,-0.0008726646259971648,-0.6967363953590393,-14.0,1.147420883178711,1500.0,0.0,-3.0,0.0,197.0,1603.0,0.062423184514045715,,,,,,,
9.399769000000003,0.0,0.0,1569.0,16.0,0.512066662311554,0.0013962634015954637,2.75,-0.29855209589004517,0.06694142520427704,-0.01781519688665867,1490.0,-0.0020943951023931952,28.994657,5.0,-9.756702423095703,0.0,2.7234117648119516,1500.0,0.0,51.4595604,0.0,28.975203999999998,1417.0,-0.0008033787598833442,-0.4501124918460846,20973.259521484375,444.0,0.0,1000.0,5.0,0.0,0.0,1500.0,0.0,0.06370451769779303,0.0,1.0,-2.7909457,-0.0008726646259971648,-0.686414361000061,-14.0,1.1460044384002686,1501.0,0.0,-3.0,-0.00034906585039886593,197.0,1603.0,0.062423184514045715,,,,,,,
9.499798000000002,0.0,0.0,1568.0,16.0,0.5231985449790955,0.0013962634015954637,2.77,-0.30877599120140076,0.06616783887147903,-0.01690613105893135,1491.0,-0.0020943951023931952,29.094686,5.0,-9.751472473144531,0.0,2.7234117648119516,1500.0,0.0,51.459560499999995,0.0,29.055032999999998,1417.0,-0.0005050042527727783,-0.4922383725643158,19158.3984375,444.0,0.0,1000.0,5.0,0.0,0.0,1500.0,0.0,0.0635299847725936,0.0,1.0,-2.7909455,-0.0008726646259971648,-0.6348042488098145,-14.0,1.1414304971694946,1500.0,0.0,-3.0,-0.00017453292519943296,197.0,1603.0,0.07629500329494476,,,,,,,
9.600016,0.0,0.0,1568.0,16.0,0.5231985449790955,0.0013962634015954637,2.77,-0.3263571858406067,0.024608075618743896,-0.016417795792222023,1491.0,-0.0020943951023931952,29.194903999999998,5.0,-9.70584487915039,0.0,2.7234117648119516,1500.0,0.0,51.459560499999995,0.0,29.174892999999997,1418.0,-0.00048371334560215473,-0.5606920123100281,19158.3984375,444.0,0.0,1000.0,5.0,0.0,0.0,1500.0,0.0,0.0635299847725936,0.0,1.0,-2.7909455,-0.0008726646259971648,-0.7431854605674744,-14.0,1.172792911529541,1500.0,0.0,-3.0,-0.0005235987755982988,197.0,1602.0,0.07629500329494476,,,,,,,
9.699629000000002,0.0,0.0,1568.0,16.0,0.5231985449790955,0.0013962634015954637,2.79,-0.3362521529197693,0.23778721690177917,-0.011427342891693115,1491.0,-0.0020943951023931952,29.294517,5.0,-9.672316551208496,0.0,2.723760830662351,1500.0,0.0,51.459560499999995,0.0,29.255060999999998,1418.0,8.670194074511528e-05,-0.6009976863861084,19158.3984375,444.0,0.0,1000.0,5.0,0.0,0.0,1500.0,0.0,0.0635299847725936,0.0,1.0,-2.790945,-0.0008726646259971648,-0.6089991927146912,-14.0,1.148254156112671,1500.0,0.0,-3.0,-0.0010471975511965976,197.0,1602.0,0.11097455024719238,,,,,,,
9.800033000000003,0.0,0.0,1568.0,16.0,0.5231985449790955,0.0013962634015954637,2.79,-0.3485203981399536,-0.23134654760360718,-0.025599921122193336,1491.0,-0.0020943951023931952,29.394921,5.0,-9.842033386230469,0.0,2.7234117648119516,1500.0,0.0,51.459560499999995,0.0,29.374927,1418.0,-0.007677650079131126,-0.6621994376182556,20992.12841796875,444.0,0.0,1000.0,5.0,0.0,0.0,1500.0,0.0,0.0635299847725936,0.0,1.0,-2.790945,-0.0008726646259971648,-0.6657702922821045,-14.0,1.2565747499465942,1500.0,0.0,-3.0,-0.0010471975511965976,197.0,1602.0,0.11097455024719238,,,,,,,
9.899784,0.0,0.0,1568.0,15.0,0.5454623699188232,0.0012217304763960308,2.82,-0.35742780566215515,0.2670174837112427,0.0060951970517635345,1491.0,-0.0020943951023931952,29.494671999999998,5.0,-10.03606128692627,0.0,2.724284429437949,1500.0,0.0,51.4595607,0.0,29.455060999999997,1418.0,0.0030512840021401644,-0.6991636157035828,19158.3984375,444.0,0.0,1000.0,5.0,0.0,0.0,1500.0,0.0,0.06335545184739416,0.0,1.0,-2.7909447,-0.0008726646259971648,-0.6244822144508362,-14.0,0.6596071720123291,1500.0,0.0,-3.0,-0.0027925268031909274,197.0,1602.0,0.13178227841854095,,,,,,,
9.999727,0.0,0.0,1568.0,15.0,0.5454623699188232,0.0012217304763960308,2.82,-0.460469126701355,-0.7287208437919617,-0.025097791105508804,1491.0,-0.0020943951023931952,29.594614999999997,5.0,-11.562397956848145,0.0,2.723062698961553,1500.0,0.0,51.4595607,0.0,29.575236,1418.0,0.028147133067250252,-0.7568960785865784,20992.12841796875,444.0,0.0,1000.0,5.0,0.0,0.0,1500.0,0.0,0.06544984694978735,0.0,1.0,-2.7909447,-0.0008726646259971648,-0.670931339263916,-14.0,1.0292035341262817,1500.0,0.0,-3.0,-0.00471238898038469,197.0,1602.0,0.13178227841854095,,,,,,,
10.099792,0.0,0.0,1568.0,15.0,0.5454623699188232,0.0012217304763960308,2.84,-0.6253999471664429,0.0756412073969841,0.007972083985805511,1491.0,-0.0020943951023931952,29.694679999999998,5.0,-12.296699523925781,0.0,2.7253316269891457,1500.0,0.0,51.4595607,0.0,29.655085999999997,1418.0,0.03658192232251167,-0.8045961856842041,19158.3984375,444.0,0.0,1000.0,5.0,0.0,0.0,1500.0,0.0,0.06265732014659643,0.0,1.0,-2.7909444999999997,-0.0008726646259971648,-0.6451262831687927,-14.0,1.1427278518676758,1500.0,0.0,-3.0,-0.0017453292519943296,197.0,1602.0,0.14565409719944,,,,,,,
10.199828,0.0,0.0,1568.0,15.0,0.5454623699188232,0.0012217304763960308,2.84,-0.9909806847572327,0.3756113350391388,-0.03544612601399422,1491.0,-0.0020943951023931952,29.794715999999998,5.0,-12.838888168334961,0.0,2.73021854889473,1500.0,0.0,51.4595607,0.0,29.774903,1418.0,0.009713615290820599,-0.9006364941596985,19590.00927734375,444.0,0.0,1000.0,5.0,0.0,0.0,1500.0,0.0,0.045727626402251434,0.0,1.0,-2.7909444999999997,-0.0008726646259971648,-0.4799739420413971,-14.0,1.7480531930923462,1500.0,0.0,-3.0,0.012391837689159739,197.0,1602.0,0.14565409719944,,,,,,,
10.299741000000001,0.0,0.0,1569.0,16.0,0.5343304872512817,0.0012217304763960308,2.95,-1.1633564233779907,0.16881456971168518,-0.046414799988269806,1490.0,-0.0020943951023931952,29.894629,5.0,-12.071869850158691,0.0,2.7298694830443306,1500.0,0.0,51.459560599999996,0.0,29.855076,1417.0,-0.05251990258693695,-0.9884582757949829,19158.3984375,444.0,0.0,1000.0,5.0,0.0,0.0,1500.0,0.0,0.03647738136668149,0.0,1.0,-2.7909447999999997,-0.0008726646259971648,-0.6089991927146912,-14.0,1.928229570388794,1500.0,0.0,-3.0,0.031066860685499065,197.0,1603.0,0.12484636902809143,,,,,,,
10.399776000000003,0.0,0.0,1569.0,16.0,0.5343304872512817,0.0012217304763960308,2.95,-1.468630313873291,0.4036136567592621,-0.06570267677307129,1490.0,-0.0020943951023931952,29.994664,5.0,-11.935632705688477,0.0,2.721840968485157,1500.0,0.0,51.459560599999996,0.0,29.975295,1417.0,-0.17670851945877075,-1.1434847116470337,19158.3984375,444.0,0.0,1000.0,5.0,0.0,0.0,1500.0,0.0,0.028972465583105872,0.0,1.0,-2.7909447999999997,-0.0008726646259971648,-0.39223676919937134,-14.0,2.38578462600708,1500.0,0.0,-3.0,0.03665191429188092,197.0,1603.0,0.12484636902809143,,,,,,,
10.499739000000002,0.0,0.0,1568.0,17.0,0.5009347796440125,0.0012217304763960308,3.12,-1.5848699808120728,-0.4046400487422943,-0.05389552190899849,1491.0,-0.0020943951023931952,30.094627,5.0,-9.461541175842285,0.0,2.71171805882359,1500.0,0.0,51.4595603,0.0,30.055082,1418.0,-0.3114120364189148,-1.2648175954818726,19158.3984375,444.0,0.0,1000.0,5.0,0.0,0.0,1500.0,0.0,0.03159045946109736,0.0,1.0,-2.7909455999999997,-0.0008726646259971648,-0.28901657462120056,-14.0,2.611752986907959,1500.0,0.0,-3.0,0.04293509959906051,197.0,1602.0,0.06935909390449524,,,,,,,
10.599743,0.0,0.0,1568.0,17.0,0.5009347796440125,0.0012217304763960308,3.12,-1.4775251150131226,-0.835381269454956,0.054195087403059006,1490.0,-0.0020943951023931952,30.194630999999998,5.0,-7.925514221191406,0.0,2.7014206162368235,1500.0,0.0,51.4595603,0.0,30.174698,1417.0,-0.48804908990859985,-1.4464561939239502,21027.861572265625,444.0,0.0,1000.0,5.0,0.0,0.0,1501.0,0.0,0.05358160803622592,0.0,1.0,-2.7909455999999997,-0.0008726646259971648,-0.14966928958892822,-14.0,2.4740145206451416,1500.0,0.0,-3.0,0.047472955654245766,197.0,1603.0,0.06935909390449524,,,,,,,
10.699820000000003,0.0,0.0,1568.0,16.0,0.44527536630630493,0.0012217304763960308,3.36,-1.3307360410690308,-0.1645948737859726,0.13422630727291107,1491.0,-0.0020943951023931952,30.294708,5.0,-7.306910514831543,0.0,2.700547951610826,1500.0,0.0,51.4595598,0.0,30.254991999999998,1417.0,-0.5844306945800781,-1.5557692050933838,20987.406494140625,444.0,0.0,1000.0,5.0,0.0,0.0,1500.0,0.0,0.07522369076095561,0.0,1.0,-2.7909462,-0.0008726646259971648,-0.11354222148656845,-14.0,2.976924419403076,1500.0,0.0,-3.0,0.04590215932745086,197.0,1603.0,0.027743637561798096,,,,,,,
10.799743000000003,0.0,0.0,1568.0,16.0,0.44527536630630493,0.0012217304763960308,3.36,-1.0700960159301758,-0.5806528925895691,0.21919625997543335,1491.0,-0.0019198621771937625,30.394631,5.0,-7.516201019287109,0.0,2.7031659454888177,1500.0,0.0,51.4595598,0.0,30.374751999999997,1417.0,-0.7525826692581177,-1.6912527084350586,20987.406494140625,444.0,0.0,1000.0,5.0,0.0,0.0,1500.0,0.0,0.10838494654884787,0.0,1.0,-2.7909462,-0.0008726646259971648,-0.09805919229984283,-14.0,2.0012154579162598,1500.0,0.0,-3.0,0.0317649923862968,197.0,1603.0,0.027743637561798096,,,,,,,
10.899636000000001,0.0,0.0,1568.0,17.0,0.3562203049659729,0.0012217304763960308,3.63,-0.9179960489273071,-0.22338828444480896,0.29450559616088867,1491.0,-0.0019198621771937625,30.494524,5.0,-8.219538688659668,0.0,2.7082274003196014,1500.0,0.0,51.459559,0.0,30.454984999999997,1418.0,-0.8100091814994812,-1.7657699584960938,19158.3984375,444.0,0.0,1000.0,5.0,0.0,0.0,1500.0,0.0,0.136659280431156,0.0,1.0,-2.7909452999999997,-0.0008726646259971648,-0.010322020389139652,-14.0,3.3679983615875244,1500.0,0.0,-3.0,0.012391837689159739,197.0,1602.0,0.09016682952642441,,,,,,,
