time_index,global_position_longitude,wind_y,velocity_y,servos_4,position_x,servos_5,servos_3,tx_controls_4,axis_rate_yaw,tx_controls_7,servos_2,airspeed_0,time_actual,position_y,tx_controls_5,attitude_roll,rpm_1,tx_controls_1,servos_1,mode_0,tx_controls_3,tx_controls_2,mode_1,altitude_gps,tx_controls_6,wind_x,velocity_x,servos_6,velocity_z,gps_sat_count_0,magnetometer_2,magnetometer_0,servos_7,attitude_yaw,tx_controls_0,position_z,global_position_latitude,axis_rate_pitch,servos_0,acceleration_z,altitude_baro,acceleration_y,magnetometer_1,time_flight,acceleration_x,mode_2,rpm_0,axis_rate_roll,attitude_pitch,battery_0,current_3,current_2,battery_1,current_1,airspeed_1,current_0
0.0,-2.7912817999999997,0.0,-0.044934261590242386,0.0,0.0,0.0,0.0,1417.0,0.0,1500.0,0.0,0.0,21.582227,0.0,1500.0,0.004537856055185257,-14.0,1572.0,0.0,5.0,1605.0,1495.0,5.0,12.34,1500.0,0.0,-0.05435916781425476,0.0,0.08884444832801819,14.0,457.0,150.0,0.0,2.4403193601384716,1000.0,-0.023507798090577126,51.4594448,0.0,0.0,-9.669757843017578,0.22605755925178528,0.44021207094192505,-2.0,21.601008,1.5064566135406494,1.0,599.9879913330078,0.0,0.06387905062299247,,,,,,,
0.10001799999999861,-2.7912817999999997,0.0,-0.04705395922064781,0.0,0.0,0.0,0.0,1417.0,0.0,1500.0,0.0,0.0,21.661956,0.0,1500.0,0.004363323129985824,-14.0,1572.0,0.0,5.0,1605.0,1495.0,5.0,12.34,1500.0,0.0,-0.05728795379400253,0.0,0.08639427274465561,14.0,457.0,150.0,0.0,2.440493893063671,1000.0,-0.027684370055794716,51.4594448,0.0,0.0,-9.680845260620117,0.011302878148853779,0.4539766013622284,-2.0,21.701026,1.5520130395889282,1.0,600.1080474853516,0.0,0.06370451769779303,,,,,,,
0.19998999999999967,-2.7912819,0.0,-0.04062163457274437,0.0,0.0,0.0,0.0,1418.0,0.0,1500.0,0.0,0.0,21.78163,0.0,1500.0,0.004537856055185257,-14.0,1572.0,0.0,5.0,1605.0,1494.0,5.0,12.35,1500.0,0.0,-0.05423321574926376,0.0,0.0839262381196022,14.0,457.0,150.0,0.0,2.44084295891407,1000.0,-0.03154879808425903,51.4594446,0.0,0.0,-9.655505180358887,0.20345181226730347,0.5326277017593384,-2.0,21.800998,1.528440237045288,1.0,599.9879913330078,0.0,0.06370451769779303,,,,,,,
0.29991799999999813,-2.7912819,0.0,-0.03612896054983139,0.0,0.0,0.0,0.0,1417.0,0.0,1500.0,0.0,0.0,21.861442,0.0,1500.0,0.004363323129985824,-14.0,1572.0,0.0,5.0,1605.0,1495.0,5.0,12.35,1501.0,0.0,-0.05044471099972725,0.0,0.08178315311670303,14.0,457.0,150.0,0.0,2.4411920247644687,1000.0,-0.03311993554234505,51.4594446,0.0,0.0,-9.636627197265625,0.11868022382259369,0.48630446195602417,-2.0,21.900926,1.5189483165740967,1.0,600.1080474853516,0.0,0.0635299847725936,,,,,,,
0.3999629999999996,-2.7912822,0.0,-0.039346009492874146,0.0,0.0,0.0,0.0,1418.0,0.0,1500.0,0.0,0.0,21.981593999999998,0.0,1500.0,0.003839724354387525,-14.0,1572.0,0.0,5.0,1605.0,1494.0,5.0,12.32,1500.0,0.0,-0.057321567088365555,0.0,0.08014226704835892,14.0,457.0,150.0,0.0,2.441541090614868,1000.0,-0.035833992063999176,51.4594445,0.0,0.0,-9.608180046081543,0.15541458129882812,0.31756827235221863,-2.0,22.000971,1.4697715044021606,1.0,599.9879913330078,0.0,0.0635299847725936,,,,,,,
0.49997199999999964,-2.7912822,0.0,-0.03183257579803467,0.0,0.0,0.0,0.0,1418.0,-0.00017453292519943296,1500.0,0.0,0.0,22.061939,0.0,1500.0,0.003490658503988659,-14.0,1572.0,0.0,5.0,1605.0,1494.0,5.0,12.32,1500.0,0.0,-0.05077067017555237,0.0,0.07958412915468216,14.0,457.0,150.0,0.0,2.441715623540067,1000.0,-0.037261176854372025,51.4594445,0.0,0.0,-9.636895179748535,0.04238579422235489,0.5566774606704712,-2.0,22.10098,1.5139765739440918,1.0,600.1080474853516,0.0,0.0635299847725936,,,,,,,
0.5999829999999982,-2.7912827,0.0,-0.030641919001936913,0.0,0.0,0.0,0.0,1417.0,-0.00017453292519943296,1500.0,0.0,0.0,22.181606,0.0,1500.0,0.004014257279586958,-14.0,1572.0,0.0,5.0,1605.0,1495.0,5.0,12.36,1500.0,0.0,-0.05133829638361931,0.0,0.0787648856639862,14.0,457.0,150.0,0.0,2.4420646893904663,1000.0,-0.037538688629865646,51.459444299999994,0.0,0.0,-9.669698715209961,0.11585450172424316,0.25542810559272766,-2.0,22.200991,1.501571536064148,1.0,600.1080474853516,0.0,0.06335545184739416,,,,,,,
0.7000019999999978,-2.7912827,0.0,-0.031690385192632675,0.0,0.0,0.0,0.0,1417.0,-0.00017453292519943296,1500.0,0.0,0.0,22.261456,0.0,1500.0,0.002617993877991494,-14.0,1572.0,0.0,5.0,1605.0,1495.0,5.0,12.36,1500.0,0.0,-0.053574901074171066,0.0,0.07887689769268036,14.0,457.0,150.0,0.0,2.4425882881660645,1000.0,-0.036501117050647736,51.459444299999994,0.0,0.0,-9.666084289550781,0.20910324156284332,0.4261179566383362,-2.0,22.301009999999998,1.5484570264816284,1.0,602.7243423461914,0.0,0.06335545184739416,,,,,,,
0.7999469999999995,-2.7912833,0.0,-0.027735164389014244,0.0,0.0,0.0,0.0,1418.0,-0.00034906585039886593,1500.0,0.0,0.0,22.381477999999998,0.0,1500.0,0.003665191429188092,-14.0,1572.0,0.0,5.0,1605.0,1494.0,5.0,12.43,1500.0,0.0,-0.051495667546987534,0.0,0.07672020047903061,14.0,457.0,150.0,0.0,2.442937354016463,1000.0,-0.036617957055568695,51.4594441,0.0,0.0,-9.621392250061035,0.05368867143988609,0.38957250118255615,-2.0,22.400955,1.527537226676941,1.0,600.2521362304688,0.00017453292519943296,0.06318091892219473,,,,,,,
0.8999639999999971,-2.7912833,0.0,-0.0260026678442955,0.0,0.0,0.0,0.0,1417.0,-0.00034906585039886593,1501.0,0.0,0.0,22.461426,0.0,1500.0,0.003665191429188092,-14.0,1572.0,0.0,5.0,1605.0,1495.0,5.0,12.43,1500.0,0.0,-0.05265692621469498,0.0,0.0769939124584198,14.0,457.0,150.0,0.0,2.4431118869416624,1000.0,-0.03651781752705574,51.4594441,0.0,0.0,-9.637317657470703,0.18084605038166046,0.3031805753707886,-2.0,22.500971999999997,1.4743362665176392,1.0,602.7243423461914,0.00017453292519943296,0.06318091892219473,,,,,,,
0.9999819999999993,-2.7912836999999997,0.0,-0.023158319294452667,0.0,0.0,0.0,0.0,1418.0,-0.0005235987755982988,1500.0,0.0,0.0,22.582081,0.0,1500.0,0.003490658503988659,-14.0,1572.0,0.0,5.0,1605.0,1494.0,5.0,12.46,1500.0,0.0,-0.05133407190442085,0.0,0.07703591138124466,14.0,457.0,150.0,0.0,2.4436354857172606,1000.0,-0.036087848246097565,51.459443799999995,0.0,0.0,-9.625304222106934,0.005651439074426889,0.3315224051475525,-2.0,22.60099,1.525233507156372,1.0,600.2521362304688,0.00034906585039886593,0.06318091892219473,,,,,,,
1.0999909999999993,-2.7912836999999997,0.0,-0.029396209865808487,0.0,0.0,0.0,0.0,1418.0,-0.0005235987755982988,1500.0,0.0,0.0,22.66202,0.0,1500.0,0.003490658503988659,-14.0,1572.0,0.0,5.0,1605.0,1494.0,5.0,12.46,1500.0,0.0,-0.058484774082899094,0.0,0.07803022116422653,14.0,457.0,150.0,0.0,2.4439845515676595,1000.0,-0.03481496870517731,51.459443799999995,0.0,0.0,-9.829626083374023,0.05086295306682587,0.12157563865184784,-2.0,22.700999,1.5195590257644653,1.0,600.2521362304688,0.00034906585039886593,0.06318091892219473,,,,,,,
1.1999879999999976,-2.7912843,0.0,-0.00941500160843134,0.0,0.0,0.0,0.0,1417.0,-0.0006981317007977319,1500.0,0.0,0.0,22.781489999999998,0.0,1500.0,0.0027925268031909274,-14.0,1572.0,0.0,5.0,1605.0,1495.0,5.0,12.46,1500.0,0.0,-0.044132448732852936,0.0,0.0788019672036171,14.0,457.0,150.0,0.0,2.444508150343258,1000.0,-0.03036879375576973,51.4594434,0.0,0.0,-9.642685890197754,0.15541458129882812,0.39227768778800964,-2.0,22.800995999999998,1.4239511489868164,1.0,600.240119934082,0.0005235987755982988,0.06318091892219473,,,,,,,
1.2999669999999988,-2.7912843,0.0,-0.024250943213701248,0.0,0.0,0.0,0.0,1417.0,-0.0006981317007977319,1500.0,0.0,0.0,22.861424,0.0,1500.0,0.0012217304763960308,-14.0,1572.0,0.0,5.0,1605.0,1495.0,5.0,12.46,1500.0,0.0,-0.05242390185594559,0.0,0.07596951723098755,14.0,457.0,150.0,0.0,2.444857216193657,1000.0,-0.027891021221876144,51.4594434,-0.00017453292519943296,0.0,-9.535774230957031,0.2175804078578949,0.47289109230041504,-2.0,22.900975,1.6522412300109863,1.0,600.240119934082,0.0006981317007977319,0.06318091892219473,,,,,,,
1.3999629999999996,-2.7912847,0.0,-0.00951466802507639,0.0,0.0,0.0,0.0,1418.0,-0.0008726646259971648,1500.0,0.0,0.0,22.981617,0.0,1500.0,0.0015707963267948964,-14.0,1572.0,0.0,5.0,1605.0,1494.0,5.0,12.51,1500.0,0.0,-0.03966372460126877,0.0,0.07324089854955673,14.0,457.0,150.0,0.0,2.4453808149692553,1000.0,-0.02705027349293232,51.459443099999994,-0.00017453292519943296,0.0,-9.585797309875488,0.13846026360988617,0.3542482554912567,-2.0,23.000971,1.5631942749023438,1.0,600.1080474853516,0.0008726646259971648,0.06318091892219473,,,,,,,
1.499969,-2.7912847,0.0,-0.016658218577504158,0.0,0.0,0.0,0.0,1417.0,-0.0008726646259971648,1501.0,0.0,0.0,23.06192,0.0,1500.0,0.00017453292519943296,-14.0,1572.0,0.0,5.0,1605.0,1495.0,5.0,12.51,1500.0,0.0,-0.04692354425787926,0.0,0.07325511425733566,14.0,457.0,150.0,0.0,2.4455553478944547,1000.0,-0.02790554240345955,51.459443099999994,-0.00017453292519943296,0.0,-9.51779842376709,0.08477158844470978,0.5288739800453186,-2.0,23.100977,1.5641229152679443,1.0,600.240119934082,0.0008726646259971648,0.06335545184739416,,,,,,,
1.5999409999999976,-2.7912851,0.0,-0.01036287285387516,0.0,0.0,0.0,0.0,1418.0,-0.0010471975511965976,1500.0,0.0,0.0,23.181639999999998,0.0,1500.0,0.0029670597283903604,-14.0,1572.0,0.0,5.0,1605.0,1494.0,5.0,12.52,1500.0,0.0,-0.04590224102139473,0.0,0.07803694158792496,15.0,457.0,150.0,0.0,2.446078946670053,1000.0,-0.027886494994163513,51.4594429,-0.00034906585039886593,0.0,-9.882952690124512,0.08194586634635925,0.13723987340927124,-2.0,23.200948999999998,1.4544869661331177,1.0,600.240119934082,0.0010471975511965976,0.06335545184739416,,,,,,,
1.6999609999999983,-2.7912851,0.0,-0.007469097152352333,0.0,0.0,0.0,0.0,1418.0,-0.0012217304763960308,1500.0,0.0,0.0,23.261298,0.0,1500.0,0.0019198621771937625,-14.0,1572.0,0.0,5.0,1605.0,1494.0,5.0,12.52,1500.0,0.0,-0.03828606754541397,0.0,0.07170871645212173,15.0,457.0,150.0,0.0,2.446428012520452,1000.0,-0.027299722656607628,51.4594429,-0.00034906585039886593,0.0,-9.469217300415039,0.14411169290542603,0.5327195525169373,-2.0,23.300969,1.5602456331253052,1.0,640.6286544799805,0.0012217304763960308,0.0635299847725936,,,,,,,
1.7999639999999992,-2.791286,0.0,-0.004703570157289505,0.0,0.0,0.0,0.0,1417.0,-0.0012217304763960308,1500.0,0.0,0.0,23.381581999999998,0.0,1500.0,0.0024434609527920616,-14.0,1572.0,0.0,5.0,1605.0,1495.0,5.0,12.55,1500.0,0.0,-0.03603533282876015,0.0,0.07208515703678131,15.0,457.0,150.0,0.0,2.4471261442212495,1000.0,-0.025997109711170197,51.459442499999994,-0.0005235987755982988,0.0,-9.651554107666016,0.18084605038166046,0.3265686333179474,-2.0,23.400972,1.551119327545166,1.0,600.240119934082,0.0013962634015954637,0.0635299847725936,,,,,,,
1.899956999999997,-2.791286,0.0,-0.002966316184028983,0.0,0.0,0.0,0.0,1417.0,-0.0012217304763960308,1500.0,0.0,0.0,23.461430999999997,0.0,1500.0,0.0020943951023931952,-14.0,1572.0,0.0,5.0,1605.0,1495.0,5.0,12.55,1500.0,0.0,-0.036201972514390945,0.0,0.07500506192445755,15.0,457.0,150.0,0.0,2.4474752100716484,1000.0,-0.026358339935541153,51.459442499999994,-0.0005235987755982988,0.0,-9.766181945800781,0.2288832813501358,0.34383851289749146,-2.0,23.500964999999997,1.4625329971313477,1.0,600.240119934082,0.0015707963267948964,0.06370451769779303,,,,,,,
1.9999819999999993,-2.7912868,0.0,0.004104591440409422,0.0,0.0,0.0,0.0,1418.0,-0.0013962634015954637,1500.0,0.0,0.0,23.582234,0.0,1500.0,0.0012217304763960308,-14.0,1572.0,0.0,5.0,1605.0,1494.0,5.0,12.57,1500.0,0.0,-0.022572407498955727,0.0,0.07285802811384201,15.0,457.0,150.0,0.0,2.448173341772446,1000.0,-0.02938295155763626,51.4594421,-0.0006981317007977319,0.0,-9.895052909851074,0.17802032828330994,0.28767725825309753,-2.0,23.60099,1.7498213052749634,1.0,600.1080474853516,0.0017453292519943296,0.06370451769779303,,,,,,,
2.0999540000000003,-2.7912868,0.0,0.0051841409876942635,0.0,0.0,0.0,0.0,1417.0,-0.0015707963267948964,1501.0,0.0,0.0,23.662034,0.0,1500.0,-0.00034906585039886593,-14.0,1572.0,0.0,5.0,1605.0,1495.0,5.0,12.57,1500.0,0.0,-0.02488434873521328,0.0,0.06697194278240204,15.0,457.0,150.0,0.0,2.4486969405480448,1000.0,-0.032685767859220505,51.4594421,-0.0006981317007977319,0.0,-9.668469429016113,0.12150593847036362,0.5457572340965271,-2.0,23.700962,1.5700215101242065,1.0,600.1080474853516,0.0019198621771937625,0.06387905062299247,,,,,,,
2.199940999999999,-2.7912876,0.0,0.0075047435238957405,0.0,0.0,0.0,0.0,1418.0,-0.0015707963267948964,1500.0,0.0,0.0,23.781608,0.0,1500.0,0.0005235987755982988,-14.0,1572.0,0.0,5.0,1605.0,1494.0,5.0,12.56,1500.0,0.0,-0.01910444349050522,0.0,0.06236470490694046,15.0,457.0,150.0,0.0,2.449220539323643,1000.0,-0.03710981085896492,51.4594418,-0.0008726646259971648,0.0,-9.59373664855957,0.19780036807060242,0.38511234521865845,-2.0,23.800949,1.5559849739074707,1.0,600.0960311889648,0.0020943951023931952,0.06422811647339133,,,,,,,
2.2999769999999984,-2.7912876,0.0,0.01150452345609665,0.0,0.0,0.0,0.0,1418.0,-0.0017453292519943296,1500.0,0.0,0.0,23.861437,0.0,1500.0,0.00034906585039886593,-14.0,1572.0,0.0,5.0,1605.0,1494.0,5.0,12.56,1500.0,0.0,-0.012544621713459492,0.0,0.06232335418462753,15.0,457.0,150.0,0.0,2.4497441380992413,1000.0,-0.04015691578388214,51.4594418,-0.0008726646259971648,0.0,-9.690263748168945,0.17236889898777008,0.3847426772117615,-2.0,23.900985,1.54847252368927,1.0,600.0960311889648,0.0022689280275926286,0.06422811647339133,,,,,,,
2.3999629999999996,-2.7912884,0.0,0.012335402891039848,0.0,0.0,0.0,0.0,1418.0,-0.0019198621771937625,1500.0,0.0,0.0,23.981583999999998,0.0,1500.0,-0.00034906585039886593,-14.0,1572.0,0.0,5.0,1604.0,1495.0,5.0,12.52,1500.0,0.0,-0.0084967240691185,0.0,0.059437766671180725,15.0,457.0,150.0,0.0,2.450616802725238,1000.0,-0.04543610289692879,51.4594415,-0.0008726646259971648,0.0,-9.671911239624023,0.20910324156284332,0.4543314576148987,-2.0,24.000971,1.5185623168945312,1.0,600.0960311889648,0.0022689280275926286,0.0645771823237902,,,,,,,
2.499958999999997,-2.7912884,0.0,0.01612909324467182,0.0,0.0,0.0,0.0,1417.0,-0.0019198621771937625,1500.0,0.0,0.0,24.061937999999998,0.0,1500.0,0.00017453292519943296,-14.0,1572.0,0.0,5.0,1605.0,1495.0,5.0,12.52,1500.0,0.0,-0.003301303368061781,0.0,0.05567954108119011,15.0,457.0,150.0,0.0,2.4509658685756373,1000.0,-0.04951145872473717,51.4594415,-0.0010471975511965976,0.0,-9.632710456848145,0.3390863537788391,0.21251563727855682,-2.0,24.100966999999997,1.4991228580474854,1.0,600.0960311889648,0.0024434609527920616,0.06475171524898962,,,,,,,
2.5999669999999995,-2.7912893,0.0,0.022825436666607857,0.0,0.0,0.0,0.0,1418.0,-0.0020943951023931952,1500.0,0.0,0.0,24.181514,0.0,1500.0,-0.0015707963267948964,-14.0,1572.0,0.0,5.0,1605.0,1494.0,5.0,12.46,1500.0,0.0,0.006515249609947205,0.0,0.0516936369240284,15.0,457.0,150.0,0.0,2.451838533201634,1000.0,-0.058941520750522614,51.4594412,-0.0010471975511965976,0.0,-9.648082733154297,0.25714048743247986,0.4981957972049713,-2.0,24.200975,1.4758919477462769,1.0,600.0960311889648,0.0024434609527920616,0.06492624817418906,,,,,,,
2.69998,-2.7912893,0.0,0.020628876984119415,0.0,0.0,0.0,0.0,1417.0,-0.0022689280275926286,1501.0,0.0,0.0,24.261461,0.0,1500.0,-0.0012217304763960308,-14.0,1572.0,0.0,5.0,1605.0,1495.0,5.0,12.46,1500.0,0.0,0.006088473834097385,0.0,0.0481434091925621,15.0,457.0,150.0,0.0,2.452187599052033,1000.0,-0.067190982401371,51.4594412,-0.0010471975511965976,0.0,-9.645824432373047,0.31082916259765625,0.2896086275577545,-2.0,24.300988,1.4205269813537598,1.0,600.0960311889648,0.0024434609527920616,0.0651007810993885,,,,,,,
2.799944,-2.7912901999999997,0.0,0.02638152427971363,0.0,0.0,0.0,0.0,1418.0,-0.0022689280275926286,1500.0,0.0,0.0,24.3816,0.0,1500.0,-0.0019198621771937625,-14.0,1572.0,0.0,5.0,1605.0,1494.0,5.0,12.38,1500.0,0.0,0.020594092085957527,0.0,0.0423315167427063,14.0,457.0,150.0,0.0,2.4530602636780303,1000.0,-0.08126518130302429,51.459441,-0.0010471975511965976,0.0,-9.673629760742188,0.22605755925178528,0.4160364270210266,-2.0,24.400952,1.4396064281463623,1.0,600.0960311889648,0.002617993877991494,0.06527531402458793,,,,,,,
2.89996,-2.7912901999999997,0.0,0.023552529513835907,0.0,0.0,0.0,0.0,1418.0,-0.0022689280275926286,1500.0,0.0,0.0,24.461413,0.0,1500.0,-0.0017453292519943296,-14.0,1572.0,0.0,5.0,1605.0,1494.0,5.0,12.38,1500.0,0.0,0.016973312944173813,0.0,0.03834863379597664,14.0,457.0,150.0,0.0,2.4535838624536286,1000.0,-0.0910257026553154,51.459441,-0.0012217304763960308,0.0,-9.753490447998047,0.3475635051727295,0.06804053485393524,-2.0,24.500968,1.5117077827453613,1.0,600.0960311889648,0.002617993877991494,0.06544984694978735,,,,,,,
2.999936999999999,-2.7912911,0.0,0.03279050067067146,0.0,0.0,0.0,0.0,1418.0,-0.0024434609527920616,1500.0,0.0,0.0,24.58197,0.0,1500.0,-0.0033161255787892262,-14.0,1572.0,0.0,5.0,1604.0,1495.0,5.0,12.32,1500.0,0.0,0.028360506519675255,0.0,0.02955775335431099,14.0,457.0,150.0,0.0,2.4544565270796257,1000.0,-0.10670913755893707,51.459440699999995,-0.0012217304763960308,0.0,-9.667625427246094,0.2712690830230713,0.5741790533065796,-2.0,24.600945,1.4893786907196045,1.0,600.0960311889648,0.002617993877991494,0.0656243798749868,,,,,,,
3.100007999999999,-2.7912911,0.0,0.026873387396335602,0.0,0.0,0.0,0.0,1417.0,-0.0024434609527920616,1500.0,0.0,0.0,24.66198,0.0,1500.0,-0.0024434609527920616,-14.0,1572.0,0.0,5.0,1605.0,1495.0,5.0,12.32,1500.0,0.0,0.02471517212688923,0.0,0.024213774129748344,14.0,457.0,150.0,0.0,2.4548055929300245,1000.0,-0.11800526827573776,51.459440699999995,-0.0012217304763960308,0.0,-9.6804780960083,0.08477158844470978,0.1646166443824768,-2.0,24.701016,1.4926235675811768,1.0,600.0960311889648,0.0024434609527920616,0.06579891280018622,,,,,,,
3.200257999999998,-2.7912920999999997,0.0,0.03222662955522537,0.0,0.0,0.0,0.0,1418.0,-0.002617993877991494,1500.0,0.0,0.0,24.781496,0.0,1500.0,-0.003665191429188092,-14.0,1572.0,0.0,5.0,1605.0,1494.0,5.0,12.24,1500.0,0.0,0.0327594093978405,0.0,0.018038105219602585,14.0,457.0,150.0,0.0,2.4555037246308222,1000.0,-0.13105927407741547,51.4594404,-0.0012217304763960308,0.0,-9.641892433166504,0.11868022382259369,0.48868706822395325,-2.0,24.801266,1.5072932243347168,1.0,600.0960311889648,0.0024434609527920616,0.06579891280018622,,,,,,,
3.299972999999998,-2.7912920999999997,0.0,0.029095832258462906,0.0,0.0,0.0,0.0,1417.0,-0.002617993877991494,1500.0,0.0,0.0,24.861445999999997,0.0,1500.0,-0.0027925268031909274,-14.0,1572.0,0.0,5.0,1605.0,1495.0,5.0,12.24,1500.0,0.0,0.031815305352211,0.0,0.01567917689681053,14.0,457.0,150.0,0.0,2.455852790481221,1000.0,-0.13620007038116455,51.4594404,-0.0012217304763960308,0.0,-9.65920639038086,0.1525888592004776,0.27306127548217773,-2.0,24.900980999999998,1.4990543127059937,1.0,749.962532043457,0.0024434609527920616,0.06597344572538566,,,,,,,
3.3999619999999986,-2.7912928,0.0,0.0319870300590992,0.0,0.0,0.0,0.0,1418.0,-0.0027925268031909274,1500.0,0.0,0.0,24.981605,0.0,1500.0,-0.0033161255787892262,-14.0,1572.0,0.0,5.0,1605.0,1494.0,5.0,12.17,1500.0,0.0,0.03683935105800629,0.0,0.013396401889622211,14.0,457.0,150.0,0.0,2.456725455107218,1000.0,-0.14127086102962494,51.45944,-0.0012217304763960308,0.0,-9.64916706085205,0.10455162078142166,0.44506311416625977,-2.0,25.00097,1.503426432609558,1.0,600.0960311889648,0.0024434609527920616,0.0661479786505851,,,,,,,
3.4999789999999997,-2.7912928,0.0,0.030976595357060432,0.0,0.0,0.0,0.0,1418.0,-0.0027925268031909274,1500.0,0.0,0.0,25.061901,0.0,1500.0,-0.0027925268031909274,-14.0,1572.0,0.0,5.0,1605.0,1494.0,5.0,12.17,1500.0,0.0,0.037150789052248,0.0,0.013141993433237076,14.0,457.0,150.0,0.0,2.4572490538828164,1000.0,-0.14300797879695892,51.45944,-0.0012217304763960308,0.0,-9.672910690307617,0.17236889898777008,0.32636162638664246,-2.0,25.100987,1.4893933534622192,1.0,600.7569808959961,0.0024434609527920616,0.0661479786505851,,,,,,,
3.599978,-2.7912933,0.0,0.03144313022494316,0.0,0.0,0.0,0.0,1418.0,-0.0029670597283903604,1500.0,0.0,0.0,25.181601,0.0,1500.0,-0.0033161255787892262,-14.0,1572.0,0.0,5.0,1604.0,1495.0,5.0,12.1,1500.0,0.0,0.039774246513843536,0.0,0.012400946579873562,13.0,457.0,150.0,0.0,2.458121718508814,1000.0,-0.1444046050310135,51.4594398,-0.0012217304763960308,0.0,-9.646852493286133,0.22040612995624542,0.4336315393447876,-2.0,25.200986,1.5172474384307861,1.0,600.0960311889648,0.0024434609527920616,0.0661479786505851,,,,,,,
3.7002360000000003,-2.7912933,0.0,0.030501222237944603,0.0,0.0,0.0,0.0,1417.0,-0.0029670597283903604,1500.0,0.0,0.0,25.261457999999998,0.0,1500.0,-0.003141592653589793,-14.0,1572.0,0.0,5.0,1605.0,1495.0,5.0,12.1,1500.0,0.0,0.03989693149924278,0.0,0.011275402270257473,13.0,457.0,150.0,0.0,2.458470784359213,1000.0,-0.14613661170005798,51.4594398,-0.0012217304763960308,0.0,-9.670134544372559,0.05368867143988609,0.34626758098602295,-2.0,25.301244,1.4922593832015991,1.0,600.7569808959961,0.0022689280275926286,0.06632251157578453,,,,,,,
3.799958,-2.7912939,0.0,0.0303361713886261,0.0,0.0,0.0,0.0,1418.0,-0.0029670597283903604,1500.0,0.0,0.0,25.381615999999998,0.0,1500.0,-0.003665191429188092,-14.0,1572.0,0.0,5.0,1605.0,1494.0,5.0,12.0,1500.0,0.0,0.04135856032371521,0.0,0.010102477855980396,13.0,457.0,150.0,0.0,2.4593434489852095,1000.0,-0.14717990159988403,51.459439499999995,-0.0012217304763960308,0.0,-9.662498474121094,0.0649915486574173,0.4340289235115051,-2.0,25.400966,1.5045597553253174,1.0,600.7569808959961,0.0022689280275926286,0.06632251157578453,,,,,,,
3.899927999999999,-2.7912939,0.0,0.027244312688708305,0.0,0.0,0.0,0.0,1417.0,-0.003141592653589793,1500.0,0.0,0.0,25.46146,0.0,1500.0,-0.003141592653589793,-14.0,1572.0,0.0,5.0,1605.0,1495.0,5.0,12.0,1500.0,0.0,0.039151351898908615,0.0,0.010526464320719242,13.0,457.0,150.0,0.0,2.459692514835609,1000.0,-0.14540593326091766,51.459439499999995,-0.0012217304763960308,0.0,-9.672646522521973,0.22605755925178528,0.32189953327178955,-2.0,25.500936,1.492688775062561,1.0,642.4258651733398,0.0022689280275926286,0.06632251157578453,,,,,,,
3.9999450000000003,-2.7912945,0.0,0.029349029064178467,0.0,0.0,0.0,0.0,1418.0,-0.003141592653589793,1500.0,0.0,0.0,25.582020999999997,0.0,1500.0,-0.003141592653589793,-14.0,1572.0,0.0,5.0,1605.0,1494.0,5.0,11.94,1500.0,0.0,0.04148444905877113,0.0,0.010575284250080585,13.0,457.0,150.0,0.0,2.4603906465364065,1000.0,-0.14355279505252838,51.4594393,-0.0012217304763960308,0.0,-9.654787063598633,0.17802032828330994,0.4335067868232727,-2.0,25.600953,1.5023560523986816,1.0,601.2265243530273,0.0022689280275926286,0.06632251157578453,,,,,,,
4.100009,-2.7912945,0.0,0.02680600993335247,0.0,0.0,0.0,0.0,1418.0,-0.003141592653589793,1500.0,0.0,0.0,25.661949,0.0,1500.0,-0.0027925268031909274,-14.0,1572.0,0.0,5.0,1605.0,1494.0,5.0,11.94,1500.0,0.0,0.038689322769641876,0.0,0.011268415488302708,13.0,457.0,150.0,0.0,2.4607397123868053,1000.0,-0.14390335977077484,51.4594393,-0.0012217304763960308,0.0,-9.681717872619629,-0.011302878148853779,0.3039608597755432,-2.0,25.701017,1.4793133735656738,1.0,601.2265243530273,0.0020943951023931952,0.06632251157578453,,,,,,,
4.199973,-2.791295,0.0,0.027212094515562057,0.0,0.0,0.0,0.0,1418.0,-0.003141592653589793,1500.0,0.0,0.0,25.781585999999997,0.0,1500.0,-0.0029670597283903604,-14.0,1572.0,0.0,5.0,1604.0,1495.0,5.0,11.870000000000001,1500.0,0.0,0.039286691695451736,0.0,0.011033250018954277,13.0,457.0,150.0,0.0,2.461437844087603,1000.0,-0.14154158532619476,51.459438999999996,-0.0012217304763960308,0.0,-9.65168571472168,0.183671772480011,0.44971272349357605,-2.0,25.800981,1.499080777168274,1.0,600.7569808959961,0.0020943951023931952,0.06632251157578453,,,,,,,
4.299956999999999,-2.791295,0.0,0.025412598624825478,0.0,0.0,0.0,0.0,1418.0,-0.003141592653589793,1500.0,0.0,0.0,25.861456999999998,0.0,1500.0,-0.0024434609527920616,-14.0,1572.0,0.0,5.0,1604.0,1495.0,5.0,11.870000000000001,1500.0,0.0,0.03816663473844528,0.0,0.011757681146264076,13.0,457.0,150.0,0.0,2.461786909938002,1000.0,-0.13907456398010254,51.459438999999996,-0.0012217304763960308,0.0,-9.670421600341797,0.2712690830230713,0.3512515127658844,-2.0,25.900965,1.5016344785690308,1.0,601.2265243530273,0.0020943951023931952,0.06632251157578453,,,,,,,
4.399906999999999,-2.7912954,0.0,0.02514243684709072,0.0,0.0,0.0,0.0,1418.0,-0.003141592653589793,1500.0,0.0,0.0,25.981458,0.0,1500.0,-0.0024434609527920616,-14.0,1572.0,0.0,5.0,1605.0,1494.0,5.0,11.82,1500.0,0.0,0.03811528906226158,0.0,0.010927649214863777,13.0,457.0,150.0,0.0,2.4621359757884007,1000.0,-0.13960398733615875,51.4594388,-0.0012217304763960308,0.0,-9.651437759399414,0.09607446193695068,0.39538756012916565,-2.0,26.000915,1.5135358572006226,1.0,600.7569808959961,0.0020943951023931952,0.06632251157578453,,,,,,,
4.499948999999997,-2.7912954,0.0,0.023091984912753105,0.0,0.0,0.0,0.0,1417.0,-0.003141592653589793,1500.0,0.0,0.0,26.061951999999998,0.0,1500.0,-0.0022689280275926286,-14.0,1572.0,0.0,5.0,1605.0,1495.0,5.0,11.82,1500.0,0.0,0.03621380403637886,0.0,0.009694412350654602,13.0,457.0,150.0,0.0,2.4624850416387996,1000.0,-0.14061550796031952,51.4594388,-0.0010471975511965976,0.0,-9.651586532592773,0.19214892387390137,0.378734290599823,-2.0,26.100956999999998,1.4959588050842285,1.0,600.7569808959961,0.0019198621771937625,0.06632251157578453,,,,,,,
4.599930999999998,-2.7912958999999997,0.0,0.02085111476480961,0.0,0.0,0.0,0.0,1418.0,-0.003141592653589793,1500.0,0.0,0.0,26.18148,0.0,1500.0,-0.0019198621771937625,-14.0,1572.0,0.0,5.0,1605.0,1494.0,5.0,11.76,1500.0,0.0,0.03560485318303108,0.0,0.007981757633388042,13.0,457.0,150.0,0.0,2.462834107489199,1000.0,-0.1418342888355255,51.4594387,-0.0010471975511965976,0.0,-9.653419494628906,0.08194586634635925,0.3825174570083618,-2.0,26.200938999999998,1.5121147632598877,1.0,600.2160873413086,0.0019198621771937625,0.06632251157578453,,,,,,,
4.699919999999999,-2.7912958999999997,0.0,0.02018926665186882,0.0,0.0,0.0,0.0,1418.0,-0.003141592653589793,1500.0,0.0,0.0,26.261419,0.0,1500.0,-0.0017453292519943296,-14.0,1572.0,0.0,5.0,1605.0,1494.0,5.0,11.76,1500.0,0.0,0.0350102037191391,0.0,0.00727660208940506,13.0,457.0,150.0,0.0,2.463008640414398,1000.0,-0.14212553203105927,51.4594387,-0.0010471975511965976,0.0,-9.65463638305664,0.06781727075576782,0.3887108564376831,-2.0,26.300928,1.5008455514907837,1.0,600.2160873413086,0.0019198621771937625,0.06632251157578453,,,,,,,
4.799910999999998,-2.7912965,0.0,0.018906690180301666,0.0,0.0,0.0,0.0,1418.0,-0.0029670597283903604,1500.0,0.0,0.0,26.381435999999997,0.0,1500.0,-0.0017453292519943296,-14.0,1572.0,0.0,5.0,1604.0,1495.0,5.0,11.700000000000001,1500.0,0.0,0.034021180123090744,0.0,0.007189030293375254,13.0,457.0,150.0,0.0,2.463357706264797,1000.0,-0.13984555006027222,51.459438399999996,-0.0010471975511965976,0.0,-9.653060913085938,0.05086295306682587,0.37727296352386475,-2.0,26.400919,1.4930490255355835,1.0,600.0960311889648,0.0019198621771937625,0.0661479786505851,,,,,,,
4.8999539999999975,-2.7912965,0.0,0.018192199990153313,0.0,0.0,0.0,0.0,1418.0,-0.0029670597283903604,1500.0,0.0,0.0,26.461420999999998,0.0,1500.0,-0.0017453292519943296,-14.0,1572.0,0.0,5.0,1604.0,1495.0,5.0,11.700000000000001,1500.0,0.0,0.033525027334690094,0.0,0.008505201898515224,13.0,457.0,150.0,0.0,2.463532239189996,1000.0,-0.13662350177764893,51.459438399999996,-0.0010471975511965976,0.0,-9.658875465393066,0.11302877962589264,0.3979073464870453,-2.0,26.500961999999998,1.507361650466919,1.0,600.2160873413086,0.0019198621771937625,0.0661479786505851,,,,,,,
5.000382999999999,-2.7912971,0.0,0.014696662314236164,0.0,0.0,0.0,0.0,1418.0,-0.0029670597283903604,1500.0,0.0,0.0,26.582594,0.0,1500.0,-0.0012217304763960308,-14.0,1572.0,0.0,5.0,1605.0,1494.0,5.0,11.620000000000001,1500.0,0.0,0.030598796904087067,0.0,0.010386464186012745,13.0,457.0,150.0,0.0,2.4638813050403954,1000.0,-0.13104580342769623,51.4594381,-0.0010471975511965976,0.0,-9.662216186523438,0.09607446193695068,0.34587526321411133,-2.0,26.601391,1.4966884851455688,1.0,600.2160873413086,0.0017453292519943296,0.0661479786505851,,,,,,,
5.100003999999998,-2.7912971,0.0,0.016012877225875854,0.0,0.0,0.0,0.0,1417.0,-0.0029670597283903604,1500.0,0.0,0.0,26.661987999999997,0.0,1500.0,-0.0008726646259971648,-14.0,1572.0,0.0,5.0,1605.0,1495.0,5.0,11.620000000000001,1500.0,0.0,0.031533367931842804,0.0,0.011364131234586239,13.0,457.0,150.0,0.0,2.4640558379655944,1000.0,-0.12753641605377197,51.4594381,-0.0010471975511965976,0.0,-9.652289390563965,0.29104912281036377,0.38528528809547424,-2.0,26.701012,1.5184564590454102,1.0,749.9062957763672,0.0017453292519943296,0.0661479786505851,,,,,,,
5.199945,-2.7912977,0.0,0.013866503722965717,0.0,0.0,0.0,0.0,1418.0,-0.0029670597283903604,1500.0,0.0,0.0,26.781605,0.0,1500.0,-0.0010471975511965976,-14.0,1572.0,0.0,5.0,1605.0,1494.0,5.0,11.56,1500.0,0.0,0.02843485213816166,0.0,0.011617387644946575,13.0,457.0,150.0,0.0,2.4642303708907938,1000.0,-0.12622055411338806,51.459437799999996,-0.0010471975511965976,0.0,-9.671797752380371,0.22040612995624542,0.371695876121521,-2.0,26.800953,1.4905850887298584,1.0,600.2160873413086,0.0017453292519943296,0.0661479786505851,,,,,,,
5.299961,-2.7912977,0.0,0.013824105262756348,0.0,0.0,0.0,0.0,1418.0,-0.0029670597283903604,1500.0,0.0,0.0,26.861324999999997,0.0,1500.0,-0.0010471975511965976,-14.0,1572.0,0.0,5.0,1605.0,1494.0,5.0,11.56,1500.0,0.0,0.028419556096196175,0.0,0.00976955983787775,13.0,457.0,150.0,0.0,2.4644049038159936,1000.0,-0.12865154445171356,51.459437799999996,-0.0010471975511965976,0.0,-9.669126510620117,0.30800342559814453,0.38172146677970886,-2.0,26.900969,1.5003554821014404,1.0,642.5909423828125,0.0017453292519943296,0.06597344572538566,,,,,,,
5.3999989999999976,-2.7912984,0.0,0.011918428353965282,0.0,0.0,0.0,0.0,1418.0,-0.0029670597283903604,1500.0,0.0,0.0,26.981599,0.0,1500.0,-0.0008726646259971648,-14.0,1572.0,0.0,5.0,1604.0,1495.0,5.0,11.49,1500.0,0.0,0.026622721925377846,0.0,0.005440735258162022,13.0,457.0,150.0,0.0,2.464579436741193,1000.0,-0.13623861968517303,51.4594376,-0.0010471975511965976,0.0,-9.662306785583496,0.11302877962589264,0.4046410620212555,-2.0,27.001006999999998,1.4880925416946411,1.0,600.2160873413086,0.0017453292519943296,0.06597344572538566,,,,,,,
5.499972,-2.7912984,0.0,0.011378773488104343,0.0,0.0,0.0,0.0,1418.0,-0.0029670597283903604,1500.0,0.0,0.0,27.061933,0.0,1500.0,-0.0006981317007977319,-14.0,1572.0,0.0,5.0,1604.0,1495.0,5.0,11.49,1500.0,0.0,0.025212692096829414,0.0,0.0033233221620321274,13.0,457.0,150.0,0.0,2.464579436741193,1000.0,-0.14148351550102234,51.4594376,-0.0010471975511965976,0.0,-9.6726655960083,0.09324874728918076,0.36277854442596436,-2.0,27.10098,1.48274564743042,1.0,640.4099044799805,0.0017453292519943296,0.06597344572538566,,,,,,,
5.5999719999999975,-2.791299,0.0,0.010518467985093594,0.0,0.0,0.0,0.0,1418.0,-0.0027925268031909274,1500.0,0.0,0.0,27.181641,0.0,1500.0,-0.0005235987755982988,-14.0,1571.0,0.0,5.0,1605.0,1495.0,5.0,11.44,1500.0,0.0,0.02407342568039894,0.0,0.0023116236552596092,13.0,457.0,150.0,0.0,2.4649285025915915,1000.0,-0.1455848515033722,51.4594373,-0.0010471975511965976,0.0,-9.671520233154297,0.09042302519083023,0.3955990672111511,-2.0,27.200979999999998,1.499584674835205,1.0,640.4099044799805,0.0015707963267948964,0.06597344572538566,,,,,,,
5.699969999999997,-2.791299,0.0,0.010431020520627499,0.0,0.0,0.0,0.0,1417.0,-0.0027925268031909274,1500.0,0.0,0.0,27.261445,0.0,1500.0,-0.00034906585039886593,-14.0,1572.0,0.0,5.0,1605.0,1495.0,5.0,11.44,1500.0,0.0,0.023649748414754868,0.0,0.0017331502167508006,13.0,457.0,150.0,0.0,2.4651030355167913,1000.0,-0.14617185294628143,51.4594373,-0.0010471975511965976,0.0,-9.667510986328125,0.20345181226730347,0.37800806760787964,-2.0,27.300977999999997,1.5068880319595337,1.0,640.4099044799805,0.0015707963267948964,0.06579891280018622,,,,,,,
5.7999469999999995,-2.7912993999999998,0.0,0.009104335680603981,0.0,0.0,0.0,0.0,1418.0,-0.0027925268031909274,1500.0,0.0,0.0,27.381581999999998,0.0,1500.0,0.0,-14.0,1572.0,0.0,5.0,1605.0,1494.0,5.0,11.38,1500.0,0.0,0.021279238164424896,0.0,0.0017745810328051448,13.0,457.0,150.0,0.0,2.4651030355167913,1000.0,-0.147001251578331,51.459437099999995,-0.0010471975511965976,0.0,-9.648574829101562,0.1525888592004776,0.38002631068229675,-2.0,27.400955,1.5078480243682861,1.0,600.2160873413086,0.0015707963267948964,0.06579891280018622,,,,,,,
5.899965999999999,-2.7912993999999998,0.0,0.009529625996947289,0.0,0.0,0.0,0.0,1418.0,-0.002617993877991494,1500.0,0.0,0.0,27.461465,0.0,1500.0,0.00017453292519943296,-14.0,1572.0,0.0,5.0,1605.0,1494.0,5.0,11.38,1500.0,0.0,0.021108027547597885,0.0,0.0012119602179154754,13.0,457.0,150.0,0.0,2.4652775684419903,1000.0,-0.14811615645885468,51.459437099999995,-0.0010471975511965976,0.0,-9.56810474395752,0.11020306497812271,0.2848062217235565,-2.0,27.500974,1.5218544006347656,1.0,640.4099044799805,0.0015707963267948964,0.06579891280018622,,,,,,,
5.999990999999998,-2.7912996,0.0,0.007712812162935734,0.0,0.0,0.0,0.0,1418.0,-0.002617993877991494,1500.0,0.0,0.0,27.581996999999998,0.0,1500.0,0.0,-14.0,1572.0,0.0,5.0,1604.0,1495.0,5.0,11.35,1500.0,0.0,0.017576057463884354,0.0,0.0018597182352095842,13.0,457.0,150.0,0.0,2.4652775684419903,1000.0,-0.1486455798149109,51.459437,-0.0010471975511965976,0.0,-9.620019912719727,0.03673435375094414,0.4009455144405365,-2.0,27.600998999999998,1.5387061834335327,1.0,600.2160873413086,0.0015707963267948964,0.06579891280018622,,,,,,,
6.099979999999999,-2.7912996,0.0,0.008012787438929081,0.0,0.0,0.0,0.0,1418.0,-0.002617993877991494,1500.0,0.0,0.0,27.661953,0.0,1500.0,0.0005235987755982988,-14.0,1572.0,0.0,5.0,1604.0,1495.0,5.0,11.35,1500.0,0.0,0.01925031654536724,0.0,0.0008546422468498349,13.0,457.0,150.0,0.0,2.4651030355167913,1000.0,-0.14699938893318176,51.459437,-0.0010471975511965976,0.0,-9.657455444335938,0.04803723096847534,0.3872758448123932,-2.0,27.700988,1.4852781295776367,1.0,600.2160873413086,0.0015707963267948964,0.0656243798749868,,,,,,,
6.199976999999997,-2.7912999,0.0,0.006506739649921656,0.0,0.0,0.0,0.0,1418.0,-0.0024434609527920616,1500.0,0.0,0.0,27.781578999999997,0.0,1500.0,0.00017453292519943296,-14.0,1571.0,0.0,5.0,1605.0,1495.0,5.0,11.33,1500.0,0.0,0.017462322488427162,0.0,0.003912605810910463,13.0,457.0,150.0,0.0,2.4651030355167913,1000.0,-0.1414235532283783,51.4594368,-0.0010471975511965976,0.0,-9.68656063079834,0.21192896366119385,0.39898309111595154,-2.0,27.800984999999997,1.4863007068634033,1.0,600.0960311889648,0.0015707963267948964,0.0656243798749868,,,,,,,
6.299968999999997,-2.7912999,0.0,0.00885689351707697,0.0,0.0,0.0,0.0,1417.0,-0.0024434609527920616,1500.0,0.0,0.0,27.861445,0.0,1500.0,0.00034906585039886593,-14.0,1572.0,0.0,5.0,1605.0,1495.0,5.0,11.33,1500.0,0.0,0.018519533798098564,0.0,0.005406257696449757,13.0,457.0,150.0,0.0,2.4651030355167913,1000.0,-0.1386515498161316,51.4594368,-0.0010471975511965976,0.0,-9.681352615356445,0.1751946061849594,0.44632405042648315,-2.0,27.900976999999997,1.4838138818740845,1.0,600.0960311889648,0.0015707963267948964,0.0656243798749868,,,,,,,
6.399941999999999,-2.7913002,0.0,0.008512749336659908,0.0,0.0,0.0,0.0,1418.0,-0.0024434609527920616,1500.0,0.0,0.0,27.981589,0.0,1500.0,0.0005235987755982988,-14.0,1572.0,0.0,5.0,1605.0,1494.0,5.0,11.290000000000001,1500.0,0.0,0.017375491559505463,0.0,0.006343561690300703,13.0,457.0,150.0,0.0,2.4649285025915915,1000.0,-0.1374506950378418,51.4594367,-0.0010471975511965976,0.0,-9.660417556762695,0.18932320177555084,0.33431267738342285,-2.0,28.00095,1.5252373218536377,1.0,600.0239868164062,0.0013962634015954637,0.06544984694978735,,,,,,,
6.499970999999999,-2.7913002,0.0,0.0077743749134242535,0.0,0.0,0.0,0.0,1418.0,-0.0022689280275926286,1500.0,0.0,0.0,28.061937999999998,0.0,1500.0,0.0,-14.0,1572.0,0.0,5.0,1605.0,1494.0,5.0,11.290000000000001,1500.0,0.0,0.017276499420404434,0.0,0.003602386452257633,13.0,457.0,150.0,0.0,2.4651030355167913,1000.0,-0.137943834066391,51.4594367,-0.0010471975511965976,0.0,-9.574572563171387,0.14411169290542603,0.40110331773757935,-2.0,28.100979,1.5806995630264282,1.0,600.0239868164062,0.0013962634015954637,0.06544984694978735,,,,,,,
6.599957999999997,-2.7913003,0.0,0.009933431632816792,0.0,0.0,0.0,0.0,1418.0,-0.0022689280275926286,1500.0,0.0,0.0,28.181431999999997,0.0,1500.0,0.0005235987755982988,-14.0,1572.0,0.0,5.0,1604.0,1495.0,5.0,11.25,1500.0,0.0,0.013477051630616188,0.0,0.008621039800345898,13.0,457.0,150.0,0.0,2.4649285025915915,1000.0,-0.13916058838367462,51.4594367,-0.0010471975511965976,0.0,-9.634880065917969,0.045211512595415115,0.31473246216773987,-2.0,28.200965999999998,1.4838653802871704,1.0,600.0239868164062,0.0013962634015954637,0.0651007810993885,,,,,,,
6.699994999999998,-2.7913003,0.0,0.005934733431786299,0.0,0.0,0.0,0.0,1418.0,-0.0022689280275926286,1500.0,0.0,0.0,28.261433999999998,0.0,1500.0,-0.00017453292519943296,-14.0,1572.0,0.0,5.0,1604.0,1495.0,5.0,11.25,1500.0,0.0,0.015226508490741253,0.0,0.0052333916537463665,13.0,457.0,150.0,0.0,2.4649285025915915,1000.0,-0.13839368522167206,51.4594367,-0.0010471975511965976,0.0,-9.467700958251953,0.11868022382259369,0.5936076045036316,-2.0,28.301002999999998,1.638505220413208,1.0,600.3361968994141,0.0013962634015954637,0.06492624817418906,,,,,,,
6.799986999999998,-2.7913004999999997,0.0,0.00953076034784317,0.0,0.0,0.0,0.0,1418.0,-0.0022689280275926286,1500.0,0.0,0.0,28.38166,0.0,1500.0,0.003141592653589793,-14.0,1571.0,0.0,5.0,1605.0,1495.0,5.0,11.22,1500.0,0.0,0.014809099957346916,0.0,0.007644436322152615,13.0,444.0,197.0,0.0,2.4644049038159936,1001.0,-0.13502401113510132,51.4594367,-0.0010471975511965976,0.0,-9.843389511108398,0.19214892387390137,0.1660962998867035,-3.0,28.400994999999998,1.394202470779419,1.0,600.3361968994141,0.0013962634015954637,0.06440264939859076,,,,,,,
6.899964999999998,-2.7913004999999997,0.0,0.013274120166897774,0.0,0.0,0.0,0.0,1417.0,-0.0020943951023931952,1500.0,0.0,0.0,28.461464,0.0,1500.0,0.0,-14.0,1572.0,0.0,5.0,1605.0,1495.0,5.0,11.22,1500.0,0.0,0.017648769542574883,0.0,-0.002906935289502144,13.0,444.0,197.0,0.0,2.464753969666392,1000.0,-0.13446731865406036,51.4594367,-0.0010471975511965976,0.0,-9.55079460144043,0.04803723096847534,0.7562357187271118,-3.0,28.500973,1.38912034034729,1.0,642.7148971557617,0.0013962634015954637,0.06440264939859076,,,,,,,
6.999998999999999,-2.7913007999999997,0.0,0.011272517032921314,0.0,-0.011131884530186653,0.0,0.0,1418.0,-0.0020943951023931952,1500.0,0.0,0.0,28.582036,-0.02080778405070305,1500.0,0.004014257279586958,-14.0,1572.0,0.0,5.0,1605.0,1494.0,5.0,11.16,1500.0,0.0,0.014626680873334408,0.0,0.0077141933143138885,13.0,444.0,197.0,0.0,2.4642303708907938,1000.0,-0.13362105190753937,51.4594366,-0.0010471975511965976,0.0,-9.83415412902832,0.09324874728918076,-0.1969706118106842,-3.0,28.601007,1.3026187419891357,1.0,642.7148971557617,0.0013962634015954637,0.06475171524898962,,,,,,,
7.099998999999997,-2.7913007999999997,0.0,0.018190568313002586,0.0,-0.011131884530186653,0.0,0.0,1418.0,-0.0020943951023931952,1500.0,0.0,0.0,28.661970999999998,-0.02080778405070305,1500.0,-0.0012217304763960308,-14.0,1572.0,0.0,5.0,1605.0,1494.0,5.0,11.16,1500.0,0.0,0.0145846763625741,0.0,0.00678292429074645,13.0,444.0,197.0,0.0,2.4649285025915915,1000.0,-0.1314476579427719,51.4594366,-0.0010471975511965976,0.0,-9.579782485961914,0.12433166056871414,0.7164531350135803,-3.0,28.701006999999997,1.3674653768539429,1.0,642.7148971557617,0.0013962634015954637,0.06492624817418906,,,,,,,
7.199973999999997,-2.7913011,0.0,-0.0008007328724488616,0.0,-0.022263769060373306,0.0,0.0,1418.0,-0.0020943951023931952,1500.0,0.0,0.0,28.781589999999998,-0.0416155681014061,1500.0,0.0015707963267948964,-14.0,1572.0,0.0,5.0,1604.0,1495.0,5.0,11.09,1500.0,0.0,0.001580062322318554,0.0,0.009819289669394493,13.0,444.0,197.0,0.0,2.4644049038159936,1000.0,-0.12777215242385864,51.459436499999995,-0.0010471975511965976,0.0,-9.846407890319824,0.09042302519083023,0.27096885442733765,-3.0,28.800981999999998,1.5670645236968994,1.0,640.2321701049805,0.0013962634015954637,0.06440264939859076,,,,,,,
7.299948999999998,-2.7913011,0.0,0.00663261441513896,0.0,-0.022263769060373306,0.0,0.0,1418.0,-0.0019198621771937625,1500.0,0.0,0.0,28.861452999999997,-0.0416155681014061,1500.0,0.004886921905584123,-14.0,1572.0,0.0,5.0,1604.0,1495.0,5.0,11.09,1500.0,0.0,-0.0001744547043927014,0.0,0.012543476186692715,13.0,444.0,197.0,0.0,2.4640558379655944,1000.0,-0.12546782195568085,51.459436499999995,-0.0010471975511965976,0.0,-9.834674835205078,-0.005651439074426889,0.1709023416042328,-3.0,28.900957,1.314371109008789,1.0,642.7148971557617,0.0013962634015954637,0.06422811647339133,,,,,,,
7.3999939999999995,-2.7913015,0.0,0.01656257174909115,0.0,-0.03339565545320511,0.0,0.0,1418.0,-0.0019198621771937625,1500.0,0.0,0.0,28.981610999999997,-0.06935927271842957,1500.0,0.004537856055185257,-14.0,1571.0,0.0,5.0,1605.0,1495.0,5.0,11.05,1500.0,0.0,0.012718088924884796,0.0,0.011617306619882584,13.0,444.0,197.0,0.0,2.4638813050403954,1001.0,-0.11965447664260864,51.459436399999994,-0.0010471975511965976,0.0,-9.440546035766602,0.12715737521648407,0.234805628657341,-3.0,29.001002,1.5671807527542114,1.0,640.2321701049805,0.0013962634015954637,0.06370451769779303,,,,,,,
7.499927999999997,-2.7913015,0.0,0.008766072802245617,0.0,-0.03339565545320511,0.0,0.0,1417.0,-0.0019198621771937625,1500.0,0.0,0.0,29.061942,-0.06935927271842957,1500.0,0.0017453292519943296,-14.0,1572.0,0.0,5.0,1605.0,1495.0,5.0,11.05,1500.0,0.0,0.013205176219344139,0.0,0.005878759548068047,13.0,444.0,197.0,0.0,2.4640558379655944,1000.0,-0.11545412242412567,51.459436399999994,-0.0010471975511965976,0.0,-9.762378692626953,0.03390863537788391,0.3456689119338989,-3.0,29.100935999999997,1.561341404914856,1.0,642.7148971557617,0.0013962634015954637,0.06335545184739416,,,,,,,
7.599968999999998,-2.7913018999999997,0.0,0.0047933682799339294,0.0,-0.03339565545320511,0.0,0.0,1418.0,-0.0019198621771937625,1500.0,0.0,0.0,29.181625,-0.09710298478603363,1500.0,0.0029670597283903604,-14.0,1572.0,0.0,5.0,1605.0,1494.0,5.0,11.0,1500.0,0.0,0.006780607625842094,0.0,0.006694437004625797,13.0,444.0,197.0,0.0,2.4640558379655944,1000.0,-0.10994086414575577,51.459436399999994,-0.0010471975511965976,0.0,-9.764385223388672,0.10455162078142166,0.14160752296447754,-3.0,29.200976999999998,1.1797277927398682,1.0,642.7148971557617,0.0012217304763960308,0.06318091892219473,,,,,,,
7.6999749999999985,-2.7913018999999997,0.0,0.014503615908324718,0.0,-0.03339565545320511,0.0,0.0,1418.0,-0.0019198621771937625,1500.0,0.0,0.0,29.261436999999997,-0.09710298478603363,1500.0,0.0005235987755982988,-14.0,1572.0,0.0,5.0,1605.0,1494.0,5.0,11.0,1500.0,0.0,0.011649249121546745,0.0,0.00723116472363472,13.0,444.0,197.0,0.0,2.4642303708907938,1000.0,-0.1061956062912941,51.459436399999994,-0.0010471975511965976,0.0,-9.509190559387207,0.07064298540353775,0.5172984600067139,-3.0,29.300983,1.515542984008789,1.0,642.7148971557617,0.0012217304763960308,0.06335545184739416,,,,,,,
7.799959999999999,-2.7913022,0.0,0.012577648274600506,0.0,-0.03339565545320511,0.0,0.0,1418.0,-0.0017453292519943296,1500.0,0.0,0.0,29.381591,-0.11791076511144638,1500.0,0.0,-14.0,1572.0,0.0,5.0,1604.0,1495.0,5.0,10.94,1500.0,0.0,0.012946510687470436,0.0,0.008602161891758442,13.0,444.0,197.0,0.0,2.4642303708907938,1000.0,-0.10129404813051224,51.459436399999994,-0.0010471975511965976,0.0,-9.481040954589844,0.04803723096847534,0.4453638195991516,-3.0,29.400968,1.4765479564666748,1.0,640.2321701049805,0.0012217304763960308,0.06335545184739416,,,,,,,
7.899975999999999,-2.7913022,0.0,0.012063835747539997,0.0,-0.03339565545320511,0.0,0.0,1418.0,-0.0017453292519943296,1500.0,0.0,0.0,29.461408,-0.11791076511144638,1500.0,-0.002617993877991494,-14.0,1572.0,0.0,5.0,1604.0,1495.0,5.0,10.94,1500.0,0.0,0.01105653028935194,0.0,0.012693535536527634,13.0,444.0,197.0,0.0,2.4644049038159936,1000.0,-0.09742520749568939,51.459436399999994,-0.0010471975511965976,0.0,-9.546390533447266,0.08477158844470978,0.6987755298614502,-3.0,29.500984,1.655394196510315,1.0,640.2321701049805,0.0012217304763960308,0.06300638599699529,,,,,,,
7.999979,-2.7913026999999997,0.0,0.007630497217178345,0.0,-0.04452753812074661,0.0,0.0,1417.0,-0.0017453292519943296,1500.0,0.0,0.0,29.582020999999997,-0.15259040892124176,1501.0,-0.00034906585039886593,-14.0,1571.0,0.0,5.0,1605.0,1495.0,5.0,10.870000000000001,1500.0,0.0,0.007687870413064957,0.0,0.01364179328083992,14.0,444.0,197.0,0.0,2.4640558379655944,1001.0,-0.09214888513088226,51.4594363,-0.0010471975511965976,0.0,-9.677522659301758,0.11585450172424316,0.2629290521144867,-3.0,29.600987,1.4418236017227173,1.0,600.3361968994141,0.0012217304763960308,0.06300638599699529,,,,,,,
8.100023,-2.7913026999999997,0.0,0.010586162097752094,0.0,-0.04452753812074661,0.0,0.0,1417.0,-0.0017453292519943296,1500.0,0.0,0.0,29.66202,-0.15259040892124176,1500.0,-0.0012217304763960308,-14.0,1572.0,0.0,5.0,1605.0,1495.0,5.0,10.870000000000001,1500.0,0.0,0.0053643458522856236,0.0,0.013379906304180622,14.0,444.0,197.0,0.0,2.4642303708907938,1000.0,-0.08960606902837753,51.4594363,-0.0010471975511965976,0.0,-9.796815872192383,0.10172590613365173,0.4866768419742584,-3.0,29.701031,1.377532958984375,1.0,600.3361968994141,0.0012217304763960308,0.06300638599699529,,,,,,,
8.199955999999997,-2.7913031999999998,0.0,-0.011883972212672234,0.0,-0.055659420788288116,0.0,0.0,1418.0,-0.0017453292519943296,1500.0,0.0,0.0,29.781602,-0.18727004528045654,1500.0,0.0017453292519943296,-14.0,1572.0,0.0,5.0,1605.0,1494.0,5.0,10.790000000000001,1500.0,0.0,-0.002894832519814372,0.0,0.003093115519732237,14.0,444.0,197.0,0.0,2.4640558379655944,1000.0,-0.08754341304302216,51.4594362,-0.0010471975511965976,0.0,-9.811845779418945,0.16106601059436798,0.398188978433609,-3.0,29.800963999999997,1.3627891540527344,1.0,600.1200637817383,0.0012217304763960308,0.0635299847725936,,,,,,,
8.299964999999997,-2.7913031999999998,0.0,0.003197135403752327,0.0,-0.055659420788288116,0.0,0.0,1418.0,-0.0017453292519943296,1500.0,0.0,0.0,29.861427,-0.18727004528045654,1500.0,0.005934119456780721,-14.0,1572.0,0.0,5.0,1605.0,1494.0,5.0,10.790000000000001,1500.0,0.0,0.010427714325487614,0.0,0.004291033837944269,14.0,444.0,197.0,0.0,2.4640558379655944,1000.0,-0.0880657508969307,51.4594362,-0.0010471975511965976,0.0,-9.587545394897461,0.2938748300075531,-0.37225931882858276,-3.0,29.900972999999997,1.6273486614227295,1.0,600.1200637817383,0.0012217304763960308,0.06440264939859076,,,,,,,
8.399940999999998,-2.7913037999999997,0.0,0.020266564562916756,0.0,-0.06679131090641022,0.0,0.0,1418.0,-0.0017453292519943296,1500.0,0.0,0.0,29.981481,-0.22888560593128204,1500.0,-0.0022689280275926286,-14.0,1572.0,0.0,5.0,1604.0,1495.0,5.0,10.73,1500.0,0.0,0.018394464626908302,0.0,0.011138572357594967,14.0,444.0,197.0,0.0,2.464579436741193,1000.0,-0.09201794117689133,51.4594361,-0.0010471975511965976,0.0,-9.400294303894043,-0.016954317688941956,0.24535256624221802,-3.0,30.000949,1.712915301322937,1.0,600.1200637817383,0.0012217304763960308,0.0645771823237902,,,,,,,
8.499893999999998,-2.7913037999999997,0.0,0.005349175073206425,0.0,-0.06679131090641022,0.0,0.0,1418.0,-0.0017453292519943296,1500.0,0.0,0.0,30.061909,-0.22888560593128204,1500.0,0.0,-14.0,1572.0,0.0,5.0,1604.0,1495.0,5.0,10.73,1500.0,0.0,0.003414793638512492,0.0,0.012394852004945278,14.0,444.0,197.0,0.0,2.4642303708907938,1000.0,-0.09384868294000626,51.4594361,-0.0010471975511965976,0.0,-9.544075965881348,0.016954317688941956,-0.19453740119934082,-3.0,30.100901999999998,1.6027244329452515,1.0,601.7088851928711,0.0012217304763960308,0.06440264939859076,,,,,,,
8.599920999999998,-2.7913042999999997,0.0,0.0033583035692572594,0.0,-0.07792319357395172,0.0,0.0,1417.0,-0.0017453292519943296,1500.0,0.0,0.0,30.181494999999998,-0.2635652422904968,1501.0,-0.005934119456780721,-14.0,1572.0,0.0,5.0,1605.0,1495.0,5.0,10.65,1500.0,0.0,0.001982710789889097,0.0,0.015317568555474281,13.0,444.0,197.0,0.0,2.464579436741193,1000.0,-0.09182234108448029,51.459436,-0.0010471975511965976,0.0,-9.87037467956543,0.0875973030924797,1.014293909072876,-3.0,30.200929,1.1358698606491089,1.0,601.7088851928711,0.0012217304763960308,0.06370451769779303,,,,,,,
8.700064999999999,-2.7913042999999997,0.0,-0.00046624953392893076,0.0,-0.07792319357395172,0.0,0.0,1417.0,-0.0015707963267948964,1500.0,0.0,0.0,30.261419,-0.2635652422904968,1500.0,-0.0006981317007977319,-14.0,1572.0,0.0,5.0,1605.0,1495.0,5.0,10.65,1500.0,0.0,-0.013942321762442589,0.0,0.02299700677394867,13.0,444.0,197.0,0.0,2.4642303708907938,1000.0,-0.09008309245109558,51.459436,-0.0010471975511965976,0.0,-9.951519966125488,-0.02825719490647316,0.33323153853416443,-3.0,30.301073,1.398181676864624,1.0,601.7088851928711,0.0012217304763960308,0.06370451769779303,,,,,,,
8.799886999999998,-2.7913047,0.0,-0.0010476462775841355,0.0,-0.10018695890903473,0.0,0.0,1418.0,-0.0015707963267948964,1500.0,0.0,0.0,30.38152,-0.2913089692592621,1500.0,0.004886921905584123,-14.0,1572.0,0.0,5.0,1605.0,1494.0,5.0,10.57,1500.0,0.0,-0.007681931369006634,0.0,0.01686130091547966,13.0,444.0,197.0,0.0,2.4638813050403954,1000.0,-0.08537067472934723,51.459435799999994,-0.0010471975511965976,0.0,-9.31439208984375,0.19214892387390137,0.10270075500011444,-3.0,30.400895,1.5697016716003418,1.0,600.3121643066406,0.0012217304763960308,0.06335545184739416,,,,,,,
8.899912999999998,-2.7913047,0.0,0.007360915653407574,0.0,-0.10018695890903473,0.0,0.0,1418.0,-0.0015707963267948964,1500.0,0.0,0.0,30.461266,-0.2913089692592621,1500.0,0.006457718232379019,-14.0,1572.0,0.0,5.0,1605.0,1494.0,5.0,10.57,1500.0,0.0,0.005771244876086712,0.0,0.010902238078415394,13.0,444.0,197.0,0.0,2.4638813050403954,1000.0,-0.08276177197694778,51.459435799999994,-0.0010471975511965976,0.0,-9.597904205322266,0.025431476533412933,0.29684239625930786,-3.0,30.500920999999998,1.7245522737503052,1.0,600.3121643066406,0.0012217304763960308,0.06300638599699529,,,,,,,
8.999987999999998,-2.7913050999999998,0.0,0.008875063620507717,0.0,-0.11131884157657623,0.0,0.0,1418.0,-0.0015707963267948964,1500.0,0.0,0.0,30.581985999999997,-0.31905263662338257,1500.0,0.004014257279586958,-14.0,1572.0,0.0,5.0,1604.0,1495.0,5.0,10.52,1500.0,0.0,0.006949492264539003,0.0,0.006417825352400541,14.0,444.0,197.0,0.0,2.4642303708907938,1000.0,-0.0807977095246315,51.4594357,-0.0010471975511965976,0.0,-9.869020462036133,0.20910324156284332,0.3975253999233246,-3.0,30.600996,1.3656797409057617,1.0,600.1200637817383,0.0012217304763960308,0.06318091892219473,,,,,,,
9.099946,-2.7913050999999998,0.0,0.011096738278865814,0.0,-0.11131884157657623,0.0,0.0,1418.0,-0.0015707963267948964,1500.0,0.0,0.0,30.661928,-0.31905263662338257,1500.0,0.0033161255787892262,-14.0,1572.0,0.0,5.0,1604.0,1495.0,5.0,10.52,1500.0,0.0,0.006501588970422745,0.0,0.0053348662331700325,14.0,444.0,197.0,0.0,2.4642303708907938,1000.0,-0.08098737895488739,51.4594357,-0.0010471975511965976,0.0,-9.688759803771973,0.04803723096847534,-0.08128664642572403,-3.0,30.700954,1.4857897758483887,1.0,600.1200637817383,0.0012217304763960308,0.0635299847725936,,,,,,,
9.199950999999999,-2.7913056,0.0,0.009245562367141247,0.0,-0.12245073169469833,0.0,0.0,1417.0,-0.0013962634015954637,1500.0,0.0,0.0,30.781471999999997,-0.35373231768608093,1501.0,-0.004363323129985824,-14.0,1572.0,0.0,5.0,1605.0,1495.0,5.0,10.46,1500.0,0.0,0.012775124981999397,0.0,0.0011051013134419918,14.0,444.0,197.0,0.0,2.464579436741193,1000.0,-0.08249533176422119,51.4594356,-0.0010471975511965976,0.0,-9.129650115966797,0.0649915486574173,0.924322247505188,-3.0,30.800959,1.8838634490966797,1.0,600.1200637817383,0.0012217304763960308,0.0645771823237902,,,,,,,
9.299895999999997,-2.7913056,0.0,-0.016362998634576797,0.0,-0.12245073169469833,0.0,0.0,1418.0,-0.0013962634015954637,1500.0,0.0,0.0,30.861361,-0.35373231768608093,1500.0,0.0,-14.0,1572.0,0.0,5.0,1604.0,1495.0,5.0,10.46,1500.0,0.0,-0.029664862900972366,0.0,0.03056064434349537,14.0,444.0,197.0,0.0,2.4640558379655944,1000.0,-0.08137506991624832,51.4594356,-0.0010471975511965976,0.0,-10.341846466064453,0.022605756297707558,-0.6945339441299438,-3.0,30.900903999999997,1.471580982208252,1.0,749.0263290405273,0.0012217304763960308,0.06422811647339133,,,,,,,
9.399904,-2.7913059,0.0,0.004259046167135239,0.0,-0.12245073169469833,0.0,0.0,1418.0,-0.0013962634015954637,1500.0,0.0,0.0,30.981582,-0.3745400905609131,1500.0,0.0,-14.0,1572.0,0.0,5.0,1605.0,1494.0,5.0,10.36,1500.0,0.0,-0.0011962486896663904,0.0,0.01972039043903351,14.0,444.0,197.0,0.0,2.4642303708907938,1000.0,-0.07859733700752258,51.4594356,-0.0010471975511965976,0.0,-8.973149299621582,0.07064298540353775,0.8055837750434875,-3.0,31.000912,1.342299222946167,1.0,749.0263290405273,0.0012217304763960308,0.06370451769779303,,,,,,,
9.499934,-2.7913059,0.0,-0.01286046952009201,0.0,-0.12245073169469833,0.0,0.0,1418.0,-0.0013962634015954637,1500.0,0.0,0.0,31.061906999999998,-0.3745400905609131,1500.0,0.007330382858376184,-14.0,1572.0,0.0,5.0,1605.0,1494.0,5.0,10.36,1500.0,0.0,-0.01723218709230423,0.0,-0.0004312199598643929,14.0,444.0,197.0,0.0,2.463357706264797,1000.0,-0.07618967443704605,51.4594356,-0.0010471975511965976,0.0,-9.555154800415039,0.14693741500377655,-0.8571277856826782,-3.0,31.100942,1.7006816864013672,1.0,749.0263290405273,0.0012217304763960308,0.06335545184739416,,,,,,,
9.599926,-2.7913064,0.0,0.023667266592383385,0.0,-0.14471450448036194,0.0,0.0,1418.0,-0.0013962634015954637,1500.0,0.0,0.0,31.181053,-0.4092197120189667,1500.0,-0.003141592653589793,-14.0,1572.0,0.0,5.0,1604.0,1495.0,5.0,10.290000000000001,1500.0,0.0,0.027439042925834656,0.0,-0.002569006523117423,14.0,444.0,197.0,0.0,2.4642303708907938,1000.0,-0.07578478753566742,51.4594354,-0.0010471975511965976,0.0,-9.401690483093262,0.13563454151153564,1.3074958324432373,-3.0,31.200934,1.9660542011260986,1.0,600.8773574829102,0.0012217304763960308,0.06440264939859076,,,,,,,
9.699866999999998,-2.7913064,0.0,-0.020262543112039566,0.0,-0.14471450448036194,0.0,0.0,1418.0,-0.0013962634015954637,1500.0,0.0,0.0,31.26136,-0.4092197120189667,1500.0,0.0006981317007977319,-14.0,1572.0,0.0,5.0,1604.0,1495.0,5.0,10.290000000000001,1500.0,0.0,-0.03313931077718735,0.0,0.019893065094947815,14.0,444.0,197.0,0.0,2.4637067721151955,1000.0,-0.07602862268686295,51.4594354,-0.0010471975511965976,0.0,-9.971646308898926,0.1638917326927185,-0.45514070987701416,-3.0,31.300874999999998,1.3564014434814453,1.0,600.8773574829102,0.0012217304763960308,0.0645771823237902,,,,,,,
9.799909,-2.7913069,0.0,0.0309414304792881,0.0,-0.15584638714790344,0.0,0.0,1417.0,-0.0013962634015954637,1500.0,0.0,0.0,31.380954,-0.44389936327934265,1500.0,0.0008726646259971648,-14.0,1572.0,0.0,5.0,1605.0,1495.0,5.0,10.21,1501.0,0.0,0.016202770173549652,0.0,0.01032341830432415,15.0,444.0,197.0,0.0,2.4637067721151955,1000.0,-0.07800764590501785,51.459435299999996,-0.0010471975511965976,0.0,-9.656879425048828,-0.07912014424800873,0.8401414155960083,-3.0,31.400917,1.5320470333099365,1.0,600.1921081542969,0.0012217304763960308,0.0645771823237902,,,,,,,
9.899915999999997,-2.7913069,0.0,-0.006513155065476894,0.0,-0.15584638714790344,0.0,0.0,1418.0,-0.0013962634015954637,1500.0,0.0,0.0,31.461405,-0.44389936327934265,1500.0,-0.0010471975511965976,-14.0,1572.0,0.0,5.0,1604.0,1495.0,5.0,10.21,1500.0,0.0,-0.015391970984637737,0.0,0.008702880702912807,15.0,444.0,197.0,0.0,2.4638813050403954,1000.0,-0.07783547043800354,51.459435299999996,-0.0010471975511965976,0.0,-9.465437889099121,-0.05086295306682587,0.3634284436702728,-3.0,31.500923999999998,1.5254604816436768,1.0,600.1921081542969,0.0010471975511965976,0.0645771823237902,,,,,,,
9.999927,-2.7913072999999997,0.0,0.024642061442136765,0.0,-0.13358262181282043,0.0,0.0,1418.0,-0.0013962634015954637,1500.0,0.0,0.0,31.58165,-0.4716430604457855,1500.0,0.0024434609527920616,-14.0,1572.0,0.0,5.0,1605.0,1494.0,5.0,10.1,1500.0,0.0,0.015465440228581429,0.0,0.008055862039327621,15.0,444.0,197.0,0.0,2.4637067721151955,1000.0,-0.07300307601690292,51.4594355,-0.0010471975511965976,0.0,-9.59406852722168,0.07912014424800873,0.4148297607898712,-3.0,31.600935,1.6137067079544067,1.0,600.1921081542969,0.0010471975511965976,0.06440264939859076,,,,,,,
10.099943999999997,-2.7913072999999997,0.0,0.002415773691609502,0.0,-0.13358262181282043,0.0,0.0,1418.0,-0.0013962634015954637,1500.0,0.0,0.0,31.662032999999997,-0.4716430604457855,1500.0,-0.0013962634015954637,-14.0,1572.0,0.0,5.0,1605.0,1494.0,5.0,10.1,1500.0,0.0,-0.007850665599107742,0.0,0.011750350706279278,15.0,444.0,197.0,0.0,2.4640558379655944,1000.0,-0.06962474435567856,51.4594355,-0.0010471975511965976,0.0,-9.5479154586792,0.14976313710212708,0.639992892742157,-3.0,31.700951999999997,1.5393158197402954,1.0,600.1921081542969,0.0010471975511965976,0.0645771823237902,,,,,,,
10.199924,-2.7913077,0.0,0.016238030046224594,0.0,-0.13358262181282043,0.0,0.0,1418.0,-0.0012217304763960308,1500.0,0.0,0.0,31.781008,-0.4993867576122284,1500.0,0.003490658503988659,-14.0,1572.0,0.0,5.0,1605.0,1494.0,5.0,10.040000000000001,1500.0,0.0,0.005626734346151352,0.0,0.009803857654333115,14.0,444.0,197.0,0.0,2.4638813050403954,1000.0,-0.06666348874568939,51.4594355,-0.0010471975511965976,0.0,-9.599651336669922,0.0028257195372134447,0.1447005569934845,-3.0,31.800932,1.517134428024292,1.0,600.1320266723633,0.0010471975511965976,0.06440264939859076,,,,,,,
10.299909999999997,-2.7913077,0.0,0.0093658696860075,0.0,-0.13358262181282043,0.0,0.0,1418.0,-0.0012217304763960308,1500.0,0.0,0.0,31.861324999999997,-0.4993867576122284,1500.0,-0.0005235987755982988,-14.0,1572.0,0.0,5.0,1604.0,1495.0,5.0,10.040000000000001,1500.0,0.0,-0.0034071055706590414,0.0,0.013141482137143612,14.0,444.0,197.0,0.0,2.4640558379655944,1000.0,-0.06509614735841751,51.4594355,-0.0010471975511965976,0.0,-9.642278671264648,0.09890018403530121,0.7082809805870056,-3.0,31.900917999999997,1.5127618312835693,1.0,600.1320266723633,0.0010471975511965976,0.06440264939859076,,,,,,,
10.399927999999996,-2.7913083,0.0,0.012811928987503052,0.0,-0.12245073169469833,0.0,0.0,1417.0,-0.0012217304763960308,1500.0,0.0,0.0,31.981012,-0.5410023331642151,1500.0,0.003665191429188092,-14.0,1572.0,0.0,5.0,1605.0,1495.0,5.0,9.97,1501.0,0.0,-0.0008523609722033143,0.0,0.013030488044023514,14.0,444.0,197.0,0.0,2.4637067721151955,1000.0,-0.06250199675559998,51.4594356,-0.0010471975511965976,0.0,-9.696438789367676,0.2514890432357788,0.017806556075811386,-3.0,32.000935999999996,1.433685064315796,1.0,600.1200637817383,0.0010471975511965976,0.06440264939859076,,,,,,,
10.499918999999998,-2.7913083,0.0,0.012464536353945732,0.0,-0.12245073169469833,0.0,0.0,1418.0,-0.0012217304763960308,1500.0,0.0,0.0,32.061901,-0.5410023331642151,1500.0,0.0,-14.0,1572.0,0.0,5.0,1604.0,1495.0,5.0,9.97,1500.0,0.0,-0.0011074469657614827,0.0,0.012929228134453297,14.0,444.0,197.0,0.0,2.4638813050403954,1000.0,-0.06319347023963928,51.4594356,-0.0010471975511965976,0.0,-9.653412818908691,0.031082915142178535,0.7064704298973083,-3.0,32.100927,1.5235748291015625,1.0,600.1200637817383,0.0010471975511965976,0.06440264939859076,,,,,,,
10.599882000000001,-2.7913086,0.0,0.009722212329506874,0.0,-0.11131884157657623,0.0,0.0,1418.0,-0.0012217304763960308,1500.0,0.0,0.0,32.181014999999995,-0.5618101358413696,1500.0,0.0033161255787892262,-14.0,1571.0,0.0,5.0,1605.0,1495.0,5.0,9.93,1500.0,0.0,-0.004204575903713703,0.0,0.012024784460663795,15.0,444.0,197.0,0.0,2.463532239189996,1000.0,-0.06519079953432083,51.4594357,-0.0010471975511965976,0.0,-9.711407661437988,0.011302878148853779,0.007518963888287544,-3.0,32.20089,1.4383116960525513,1.0,600.0600357055664,0.0010471975511965976,0.06440264939859076,,,,,,,
10.699909999999996,-2.7913086,0.0,0.01404572930186987,0.0,-0.11131884157657623,0.0,0.0,1418.0,-0.0012217304763960308,1500.0,0.0,0.0,32.261300999999996,-0.5618101358413696,1500.0,0.0005235987755982988,-14.0,1572.0,0.0,5.0,1605.0,1494.0,5.0,9.93,1500.0,0.0,-0.0002899739774875343,0.0,0.012559542432427406,15.0,444.0,197.0,0.0,2.4637067721151955,1000.0,-0.0649750754237175,51.4594357,-0.0010471975511965976,0.0,-9.653918266296387,0.08477158844470978,0.6516589522361755,-3.0,32.300917999999996,1.5181872844696045,1.0,600.0600357055664,0.0010471975511965976,0.06440264939859076,,,,,,,
