time_index,acceleration_z,servos_1,servos_6,position_y,airspeed_0,axis_rate_roll,acceleration_y,tx_controls_2,position_z,velocity_y,tx_controls_0,servos_2,attitude_pitch,wind_x,mode_0,acceleration_x,wind_y,tx_controls_6,servos_3,time_actual,servos_0,velocity_z,servos_5,tx_controls_3,tx_controls_5,axis_rate_yaw,servos_7,attitude_roll,velocity_x,servos_4,mode_2,altitude_baro,axis_rate_pitch,position_x,time_flight,tx_controls_4,attitude_yaw,tx_controls_1,mode_1,tx_controls_7,current_0,current_1,magnetometer_0,rpm_1,global_position_latitude,airspeed_1,magnetometer_2,battery_1,rpm_0,current_2,magnetometer_1,current_3,battery_0,altitude_gps,gps_sat_count_0,global_position_longitude
0.0,-9.566842079162598,0.0,0.0,,0.0,5.6794498798207794e-05,0.18614068627357483,1490.0,,,1020.0,0.0,,,0.0,2.1482348442077637,,1500.0,0.0,,0.0,,0.0,1603.0,1500.0,-1.5476874515216115e-06,0.0,,,0.0,0.0,0.045085884630680084,-2.5318558619592814e-05,,3.919381,1417.0,,1568.0,0.0,1501.0,,,,,,,,,,,,,,,,
0.1001780000000001,-9.728073120117188,0.0,0.0,,0.0,-0.00010486068380488931,0.1821531355381012,1490.0,,,1019.0,0.0,,,0.0,2.1767635345458984,,1500.0,0.0,,0.0,,0.0,1602.0,1500.0,-9.102900061214621e-06,0.0,,,0.0,0.0,-0.010692709125578403,3.28715965355265e-05,,4.019559,1418.0,,1569.0,0.0,1500.0,,,,,,,,,,,,,,,,
0.20019699999999974,-9.540703773498535,0.0,0.0,,0.0,-9.765287830101736e-05,0.0940178632736206,1491.0,,,1020.0,0.0,,,5.0,2.1663060188293457,,1500.0,0.0,,0.0,,0.0,1602.0,1500.0,1.3234658197271507e-05,0.0,,,0.0,1.0,-0.05346354469656944,1.5651082914552346e-05,,4.119578,1418.0,,1568.0,5.0,1500.0,,,,,,,,,,,,,,,,
0.3002259999999999,-9.540474891662598,0.0,0.0,,0.0,3.454672510500602e-05,0.06977750360965729,1491.0,,,1019.0,0.0,,,5.0,2.1514296531677246,,1500.0,0.0,,0.0,,0.0,1602.0,1500.0,3.1757383774886323e-06,0.0,,,0.0,1.0,-0.10158073902130127,-1.182880541563797e-07,,4.219607,1418.0,,1568.0,5.0,1500.0,,,,,,,,,,,,,,,,
0.40020500000000014,-9.609001159667969,0.0,0.0,,0.0,5.61930850484984e-05,0.15220923721790314,1490.0,,,1020.0,0.0,,,5.0,2.1757450103759766,,1500.0,0.0,,0.0,,0.0,1603.0,1501.0,-2.1058807342584046e-05,0.0,,,0.0,1.0,-0.08019531518220901,1.3953948603048517e-05,,4.319586,1417.0,,1568.0,5.0,1500.0,,,,,,,,,,,,,,,,
0.5001829999999994,-9.584708213806152,0.0,0.0,,0.0,-2.6046971945058587e-05,0.18907709419727325,1491.0,,,1020.0,0.0,,,5.0,2.1671977043151855,,1500.0,0.0,,0.0,,0.0,1602.0,1500.0,1.148213211816076e-05,0.0,,,0.0,1.0,-0.11761979758739471,-2.5910201803588766e-06,,4.419563999999999,1418.0,,1568.0,5.0,1500.0,,,,,,,,,,,,,,,,
0.6001850000000002,-9.550325393676758,0.0,0.0,,0.0,-7.56669019254231e-05,0.12824736535549164,1491.0,,,1020.0,0.0,,,5.0,2.160036087036133,,1500.0,0.0,,0.0,,0.0,1602.0,1500.0,-1.5748526465530866e-06,0.0,,,0.0,1.0,0.024058595299720764,2.0442954388249222e-06,,4.519566,1418.0,,1568.0,5.0,1500.0,,,,,,,,,,,,,,,,
0.7002009999999994,-9.526387214660645,0.0,0.0,,0.0,-6.726821913419237e-06,0.08567552268505096,1491.0,,,1020.0,0.0,,,5.0,2.1632614135742188,,1500.0,0.0,,0.0,,0.0,1602.0,1501.0,-5.779008464930706e-06,0.0,,,0.0,1.0,-0.17108334600925446,-3.8033289636000777e-06,,4.619581999999999,1417.0,,1568.0,5.0,1500.0,,,,,,,,,,,,,,,,
0.800189,-9.585625648498535,0.0,0.0,,0.0,4.887103783361967e-05,0.12200981378555298,1490.0,,,1020.0,0.0,,,5.0,2.1627490520477295,,1501.0,0.0,,0.0,,0.0,1603.0,1500.0,-1.1123321743697004e-06,0.0,,,0.0,1.0,0.11761979758739471,3.6350243022417222e-06,,4.71957,1417.0,,1568.0,5.0,1500.0,,,,,,,,,,,,,,,,
0.900204,-9.588889122009277,0.0,0.0,,0.0,8.089409718289657e-06,0.15345637500286102,1491.0,,,1020.0,0.0,,,5.0,2.1648995876312256,,1500.0,0.0,,0.0,,0.0,1602.0,1500.0,-2.1414494539335867e-06,0.0,,,0.0,1.0,0.17642970383167267,-4.7795001647314035e-06,,4.819585,1418.0,,1568.0,5.0,1500.0,,,,,,,,,,,,,,,,
1.000225,-9.588338851928711,0.0,0.0,0.0,0.0,-3.601628320688852e-05,0.1540629267692566,1490.0,0.0,0.0,1019.0,0.0,-0.05305800926062762,0.0,5.0,2.156923294067383,0.0,1500.0,0.0,4.899907,0.0,0.0,0.0,1603.0,1500.0,6.602903100909647e-06,0.0,0.008028514559173916,0.0,0.0,1.0,-0.010692709125578403,5.8705969148779084e-08,0.0,4.919606,1417.0,0.0,1569.0,5.0,1501.0,,,,,,,,,,,,,,,,
1.100209,-9.549531936645508,0.0,0.0,0.0,0.0,-3.893594260019926e-05,0.11772920191287994,1491.0,0.0,0.0,1019.0,0.0,-0.05305800926062762,0.0,5.0,2.158500909805298,0.0,1500.0,0.0,4.979829,0.0,0.0,0.0,1602.0,1500.0,2.3902808981271025e-06,0.0,0.008028514559173916,0.0,0.0,1.0,0.021385418251156807,1.3970739397690605e-06,0.0,5.01959,1418.0,0.0,1568.0,5.0,1500.0,,,,,,,,,,,,,,,,
1.2002190000000001,-9.546545028686523,0.0,0.0,0.0,0.0,2.1844993741196878e-05,0.10371537506580353,1491.0,0.0,0.0,1019.0,0.0,-0.05305800926062762,0.0,5.0,2.1457338333129883,0.0,1500.0,0.0,5.1006409999999995,0.0,0.0,0.0,1602.0,1500.0,1.3466042057560264e-05,0.0,0.008028514559173916,0.0,0.0,1.0,0.155044287443161,-2.349510437969026e-06,0.0,5.1196,1418.0,0.0,1568.0,5.0,1500.0,,,,,,,,,,,,,,,,
1.300253,-9.56867790222168,0.0,0.0,0.0,0.0,2.1866988308152524e-05,0.12997841835021973,1491.0,0.0,0.0,1020.0,0.0,-0.05305800926062762,0.0,5.0,2.170612335205078,0.0,1500.0,0.0,5.17997,0.0,0.0,0.0,1602.0,1500.0,-1.1549821540871518e-05,0.0,0.008028514559173916,0.0,0.0,1.0,0.17375652492046356,-4.393969375667825e-07,0.0,5.219634,1418.0,0.0,1568.0,5.0,1500.0,,,,,,,,,,,,,,,,
1.4002009999999996,-9.578128814697266,0.0,0.0,0.0,0.0,-2.236730425943123e-05,0.15942484140396118,1491.0,0.0,0.0,1020.0,0.0,-0.05305800926062762,0.0,5.0,2.1531357765197754,0.0,1500.0,0.0,5.299945999999999,0.0,0.0,0.0,1602.0,1500.0,-1.8863463072286458e-05,0.0,0.008028514559173916,0.0,0.0,1.0,0.0374244824051857,-1.3332608690001106e-05,0.0,5.319582,1418.0,0.0,1568.0,5.0,1500.0,,,,,,,,,,,,,,,,
1.5002219999999995,-9.541374206542969,0.0,0.0,0.0,0.0,-3.381263484466042e-05,0.12276481091976166,1491.0,0.0,0.0,1020.0,0.0,-0.05305800926062762,0.0,5.0,2.1692609786987305,0.0,1500.0,0.0,5.3799459999999995,0.0,0.0,0.0,1602.0,1500.0,1.0265790151048246e-06,0.0,0.008028514559173916,0.0,0.0,1.0,0.21652735769748688,-5.497961075639162e-06,0.0,5.4196029999999995,1418.0,0.0,1568.0,5.0,1500.0,,,,,,,,,,,,,,,,
1.6002429999999994,-9.547757148742676,0.0,0.0,0.0,0.0,-2.2490833976368345e-06,0.11499282717704773,1491.0,0.0,0.0,1019.0,0.0,-0.05305800926062762,0.0,5.0,2.1609385013580322,0.0,1500.0,0.0,5.499950999999999,0.0,0.0,0.0,1603.0,1500.0,-4.830346219181599e-06,0.0,0.008028514559173916,0.0,0.0,1.0,0.01336588617414236,1.6752424789862136e-06,0.0,5.519623999999999,1417.0,0.0,1568.0,5.0,1500.0,,,,,,,,,,,,,,,,
1.7002389999999994,-9.551071166992188,0.0,0.0,0.0,0.0,2.311646054416261e-05,0.12141527235507965,1490.0,0.0,0.0,1020.0,0.0,-0.05305800926062762,0.0,5.0,2.159336805343628,0.0,1501.0,0.0,5.580584,0.0,0.0,0.0,1603.0,1500.0,-2.362436436706218e-06,0.0,0.008028514559173916,0.0,0.0,1.0,0.16841016709804535,2.0839701073071307e-06,0.0,5.619619999999999,1417.0,0.0,1568.0,5.0,1500.0,,,,,,,,,,,,,,,,
1.8001729999999996,-9.571196556091309,0.0,0.0,0.0,0.0,2.3111654756680682e-06,0.14561596512794495,1491.0,0.0,0.0,1020.0,0.0,-0.05305800926062762,0.0,5.0,2.179997444152832,0.0,1500.0,0.0,5.7006,0.0,0.0,0.0,1602.0,1500.0,-1.1813002535162346e-05,0.0,0.008028514559173916,0.0,0.0,1.0,0.04544401541352272,-2.8543025122041537e-06,0.0,5.719554,1418.0,0.0,1568.0,5.0,1500.0,,,,,,,,,,,,,,,,
1.9002279999999998,-9.57754135131836,0.0,0.0,0.0,0.0,-2.5727686010597198e-05,0.14958173036575317,1491.0,0.0,0.0,1019.0,0.0,-0.05305800926062762,0.0,5.0,2.170163631439209,0.0,1500.0,0.0,5.779953,0.0,0.0,0.0,1602.0,1500.0,-4.368334339611708e-06,0.0,0.008028514559173916,0.0,0.0,1.0,0.09088803082704544,6.35674275210496e-06,0.0,5.819609,1418.0,0.0,1568.0,5.0,1500.0,,,,,,,,,,,,,,,,
2.0002,-9.556452751159668,0.0,0.0,0.0,0.0,-3.7296104897551396e-05,0.11968139559030533,1490.0,0.0,0.0,1019.0,0.0,-0.05305800926062762,0.0,5.0,2.1553666591644287,0.0,1500.0,0.0,5.899959,0.0,0.0,0.0,1603.0,1500.0,-6.809897881803288e-06,0.0,0.008028514559173916,0.0,0.0,1.0,0.06415625661611557,6.7164793873734186e-06,0.0,5.919581,1417.0,0.0,1569.0,5.0,1501.0,,,,,,,,,,,,,,,,
2.1002379999999996,-9.562711715698242,0.0,0.0,0.0,0.0,6.73636542205579e-06,0.11290793120861053,1491.0,0.0,0.0,1020.0,0.0,-0.05305800926062762,0.0,5.0,2.1511502265930176,0.0,1500.0,0.0,5.979932,0.0,0.0,0.0,1602.0,1500.0,-5.724111448090873e-06,0.0,0.008028514559173916,0.0,0.0,1.0,0.09088803082704544,6.816996971159648e-07,0.0,6.019619,1418.0,0.0,1568.0,5.0,1500.0,,,,,,,,,,,,,,,,
2.2002479999999998,-9.557718276977539,0.0,0.0,0.0,0.0,-2.733520338284659e-06,0.1399005502462387,1491.0,0.0,0.0,1019.0,0.0,-0.05305800926062762,0.0,5.0,2.162147283554077,0.0,1500.0,0.0,6.100222,0.0,0.0,0.0,1602.0,1500.0,-2.8801077775732265e-06,0.0,0.008028514559173916,0.0,0.0,1.0,0.20316147804260254,5.4541344881811166e-06,0.0,6.119629,1418.0,0.0,1568.0,5.0,1500.0,,,,,,,,,,,,,,,,
2.300238,-9.561077117919922,0.0,0.0,0.0,0.0,-1.8221936921575825e-05,0.13847090303897858,1490.0,0.0,0.0,1019.0,0.0,-0.05305800926062762,0.0,5.0,2.155405044555664,0.0,1500.0,0.0,6.17995,0.0,0.0,0.0,1603.0,1500.0,1.2777908759125647e-05,0.0,0.008028514559173916,0.0,0.0,1.0,0.14435157179832458,-7.731578940185577e-06,0.0,6.219619,1417.0,0.0,1569.0,5.0,1500.0,,,,,,,,,,,,,,,,
2.400186,-9.557403564453125,0.0,0.0,0.0,0.0,-2.534729683252775e-05,0.13348853588104248,1491.0,0.0,0.0,1020.0,0.0,-0.05305800926062762,0.0,5.0,2.167203664779663,0.0,1500.0,0.0,6.2999659999999995,0.0,0.0,0.0,1602.0,1500.0,-2.8795707393304123e-08,0.0,0.008028514559173916,0.0,0.0,1.0,0.09356120228767395,5.214696451133728e-06,0.0,6.319567,1418.0,0.0,1568.0,5.0,1500.0,,,,,,,,,,,,,,,,
2.5002029999999995,-9.556364059448242,0.0,0.0,0.0,0.0,-2.0233910506129274e-05,0.1274421364068985,1491.0,0.0,0.0,1020.0,0.0,-0.05305800926062762,0.0,5.0,2.154024362564087,0.0,1500.0,0.0,6.3799079999999995,0.0,0.0,0.0,1602.0,1500.0,-1.5796090605498374e-05,0.0,0.008028514559173916,0.0,0.0,1.0,0.16841016709804535,-1.7768150908455815e-06,0.0,6.4195839999999995,1418.0,0.0,1568.0,5.0,1500.0,,,,,,,,,,,,,,,,
2.6002319999999997,-9.545737266540527,0.0,0.0,0.0,0.0,1.940796321322036e-05,0.13056564331054688,1491.0,0.0,0.0,1019.0,0.0,-0.05305800926062762,0.0,5.0,2.15977144241333,0.0,1500.0,0.0,6.499905,0.0,0.0,0.0,1603.0,1500.0,4.810055342239097e-06,0.0,0.008028514559173916,0.0,0.0,1.0,0.20583465695381165,-7.018947351457566e-06,0.0,6.519613,1417.0,0.0,1568.0,5.0,1500.0,,,,,,,,,,,,,,,,
2.700275,-9.582091331481934,0.0,0.0,0.0,0.0,-1.3429008895932816e-05,0.12930889427661896,1490.0,0.0,0.0,1019.0,0.0,-0.05305800926062762,0.0,5.0,2.16939640045166,0.0,1500.0,0.0,6.580629,0.0,0.0,0.0,1603.0,1500.0,-1.6711064590853357e-05,0.0,0.008028514559173916,0.0,0.0,1.0,0.06950260698795319,2.2296019512357604e-06,0.0,6.619656,1417.0,0.0,1569.0,5.0,1500.0,,,,,,,,,,,,,,,,
2.800227,-9.565911293029785,0.0,0.0,0.0,0.0,-8.871065134518092e-06,0.13198420405387878,1491.0,0.0,0.0,1020.0,0.0,-0.05305800926062762,0.0,5.0,2.1641440391540527,0.0,1500.0,0.0,6.699942,0.0,0.0,0.0,1602.0,1500.0,3.919111056230244e-06,0.0,0.008028514559173916,0.0,0.0,1.0,0.1924687623977661,4.603827577421739e-06,0.0,6.719608,1418.0,0.0,1568.0,5.0,1500.0,,,,,,,,,,,,,,,,
2.900217,-9.568133354187012,0.0,0.0,0.0,0.0,-7.817904313761666e-06,0.12954092025756836,1491.0,0.0,0.0,1019.0,0.0,-0.05305800926062762,0.0,5.0,2.1650149822235107,0.0,1500.0,0.0,6.779958,0.0,0.0,0.0,1602.0,1500.0,5.1214633612520994e-06,0.0,0.008028514559173916,0.0,0.0,1.0,0.16306380927562714,-1.1569924473477446e-05,0.0,6.819598,1418.0,0.0,1568.0,5.0,1500.0,,,,,,,,,,,,,,,,
3.00018,-9.566024780273438,0.0,0.0,0.0,0.0,2.147513960512882e-06,0.1311129629611969,1490.0,0.0,0.0,1019.0,0.0,-0.05305800926062762,0.0,5.0,2.1736764907836914,0.0,1500.0,0.0,6.899997,0.0,0.0,0.0,1603.0,1500.0,-5.9027972402776944e-06,0.0,0.008028514559173916,0.0,0.0,1.0,0.06682943552732468,3.7915296149669886e-06,0.0,6.919561,1417.0,0.0,1569.0,5.0,1500.0,,,,,,,,,,,,,,,,
3.100203,-9.55584716796875,0.0,0.0,0.0,0.0,6.4689180913247665e-06,0.1279493272304535,1491.0,0.0,0.0,1020.0,0.0,-0.05305800926062762,0.0,5.0,2.1671812534332275,0.0,1500.0,0.0,6.979951,0.0,0.0,0.0,1602.0,1500.0,8.6130013057587e-06,0.0,0.008028514559173916,0.0,0.0,1.0,-0.05880989879369736,-1.653547353074915e-06,0.0,7.019584,1418.0,0.0,1568.0,5.0,1500.0,,,,,,,,,,,,,,,,
3.200225,-9.570443153381348,0.0,0.0,0.0,0.0,-1.258384962816486e-05,0.12620003521442413,1491.0,0.0,0.0,1020.0,0.0,-0.05305800926062762,0.0,5.0,2.1583423614501953,0.0,1500.0,0.0,7.099955,0.0,0.0,0.0,1602.0,1500.0,-5.391633853032759e-06,0.0,0.008028514559173916,0.0,0.0,1.0,0.15771746635437012,2.2526995482640232e-06,0.0,7.119606,1418.0,0.0,1568.0,5.0,1500.0,,,,,,,,,,,,,,,,
3.3002249999999997,-9.558713912963867,0.0,0.0,0.0,0.0,-1.8212501099964553e-05,0.12741874158382416,1490.0,0.0,0.0,1019.0,0.0,-0.05305800926062762,0.0,5.0,2.1556644439697266,0.0,1501.0,0.0,7.179905,0.0,0.0,0.0,1603.0,1500.0,4.428498369494569e-06,0.0,0.008028514559173916,0.0,0.0,1.0,0.042770836502313614,-6.066405325052402e-06,0.0,7.219606,1417.0,0.0,1569.0,5.0,1500.0,,,,,,,,,,,,,,,,
3.400216,-9.576593399047852,0.0,0.0,0.0,0.0,-1.959154927301506e-05,0.11483065783977509,1490.0,0.0,0.0,1019.0,0.0,-0.05305800926062762,0.0,5.0,2.1695454120635986,0.0,1501.0,0.0,7.29997,0.0,0.0,0.0,1603.0,1500.0,-6.486563524740593e-06,0.0,0.008028514559173916,0.0,0.0,1.0,0.21118099987506866,-7.65220903093567e-06,0.0,7.319597,1417.0,0.0,1569.0,5.0,1500.0,,,,,,,,,,,,,,,,
3.500207,-9.549612998962402,0.0,0.0,0.0,0.0,3.987749851819527e-06,0.12664557993412018,1491.0,0.0,0.0,1019.0,0.0,-0.05305800926062762,0.0,5.0,2.1634457111358643,0.0,1500.0,0.0,7.379804999999999,0.0,0.0,0.0,1603.0,1500.0,-4.778753657445903e-07,0.0,0.008028514559173916,0.0,0.0,1.0,0.15771746635437012,-7.4962436772098e-07,0.0,7.419588,1417.0,0.0,1568.0,5.0,1500.0,,,,,,,,,,,,,,,,
3.6002109999999994,-9.583642959594727,0.0,0.0,0.0,0.0,4.472864915952011e-06,0.12182912975549698,1491.0,0.0,0.0,1019.0,0.0,-0.05305800926062762,0.0,5.0,2.167325973510742,0.0,1500.0,0.0,7.499886999999999,0.0,0.0,0.0,1602.0,1500.0,5.54828850531195e-06,0.0,0.008028514559173916,0.0,0.0,1.0,0.17910288274288177,-1.1529918743586154e-05,0.0,7.519591999999999,1418.0,0.0,1568.0,5.0,1500.0,,,,,,,,,,,,,,,,
3.7002189999999993,-9.564229965209961,0.0,0.0,0.0,0.0,-4.872602709492765e-06,0.12831051647663116,1491.0,0.0,0.0,1020.0,0.0,-0.05305800926062762,0.0,5.0,2.16233491897583,0.0,1500.0,0.0,7.580589,0.0,0.0,0.0,1602.0,1500.0,4.173533082500293e-06,0.0,0.008028514559173916,0.0,0.0,1.0,0.17108334600925446,2.1233445728084895e-06,0.0,7.619599999999999,1418.0,0.0,1568.0,5.0,1500.0,,,,,,,,,,,,,,,,
3.800201,-9.566656112670898,0.0,0.0,0.0,0.0,-8.572287482880429e-06,0.1195327416062355,1491.0,0.0,0.0,1020.0,0.0,-0.05305800926062762,0.0,5.0,2.1609206199645996,0.0,1500.0,0.0,7.699986999999999,0.0,0.0,0.0,1602.0,1500.0,2.700923932894488e-06,0.0,0.008028514559173916,0.0,0.0,1.0,0.15771746635437012,-1.772246265615037e-06,0.0,7.719582,1418.0,0.0,1568.0,5.0,1500.0,,,,,,,,,,,,,,,,
3.900236,-9.573995590209961,0.0,0.0,0.0,0.0,2.4872009987303843e-06,0.12742170691490173,1490.0,0.0,0.0,1019.0,0.0,-0.05305800926062762,0.0,5.0,2.1639392375946045,0.0,1500.0,0.0,7.779927,0.0,0.0,0.0,1603.0,1500.0,4.994536931399683e-07,0.0,0.008028514559173916,0.0,0.0,1.0,0.08286849409341812,1.0649926786801648e-05,0.0,7.819617,1417.0,0.0,1569.0,5.0,1500.0,,,,,,,,,,,,,,,,
4.000230999999999,-9.555309295654297,0.0,0.0,0.0,0.0,-1.467770090896729e-05,0.13784633576869965,1491.0,0.0,0.0,1019.0,0.0,-0.05305800926062762,0.0,5.0,2.1580748558044434,0.0,1500.0,0.0,7.899865999999999,0.0,0.0,0.0,1603.0,1500.0,-1.5002044069955479e-05,0.0,0.008028514559173916,0.0,0.0,1.0,0.3074153959751129,-1.8242015472213767e-05,0.0,7.919612,1417.0,0.0,1568.0,5.0,1500.0,,,,,,,,,,,,,,,,
4.100210000000001,-9.558042526245117,0.0,0.0,0.0,0.0,7.158631138101925e-06,0.14036403596401215,1491.0,0.0,0.0,1019.0,0.0,-0.05305800926062762,0.0,5.0,2.1625430583953857,0.0,1500.0,0.0,7.979945,0.0,0.0,0.0,1602.0,1500.0,8.702861048777686e-06,0.0,0.008028514559173916,0.0,0.0,1.0,0.20048829913139343,-9.68879875196112e-06,0.0,8.019591,1418.0,0.0,1568.0,5.0,1500.0,,,,,,,,,,,,,,,,
4.200172,-9.566482543945312,0.0,0.0,0.0,0.0,-1.897714399802951e-05,0.126750186085701,1491.0,0.0,0.0,1019.0,0.0,-0.05305800926062762,0.0,5.0,2.1619720458984375,0.0,1500.0,0.0,8.099968,0.0,0.0,0.0,1602.0,1500.0,-1.176632732111106e-05,0.0,0.008028514559173916,0.0,0.0,1.0,0.15771746635437012,-7.310651184632772e-06,0.0,8.119553,1418.0,0.0,1568.0,5.0,1500.0,,,,,,,,,,,,,,,,
4.300238,-9.555398941040039,0.0,0.0,0.0,0.0,-1.0315616988440785e-06,0.11951670050621033,1490.0,0.0,0.0,1020.0,0.0,-0.05305800926062762,0.0,5.0,2.16097354888916,0.0,1500.0,0.0,8.179929999999999,0.0,0.0,0.0,1603.0,1500.0,-1.1028281594417112e-06,0.0,0.008028514559173916,0.0,0.0,1.0,0.28870314359664917,-8.468648880202346e-06,0.0,8.219619,1418.0,0.0,1568.0,5.0,1500.0,,,,,,,,,,,,,,,,
4.400197,-9.56301212310791,0.0,0.0,0.0,0.0,1.6200490942459125e-05,0.1293071210384369,1490.0,0.0,0.0,1020.0,0.0,-0.05305800926062762,0.0,5.0,2.163461685180664,0.0,1500.0,0.0,8.299952,0.0,0.0,0.0,1603.0,1500.0,-5.792688272844853e-06,0.0,0.008028514559173916,0.0,0.0,1.0,0.21652735769748688,-5.477719978547968e-06,0.0,8.319578,1418.0,0.0,1568.0,5.0,1500.0,,,,,,,,,,,,,,,,
4.500218,-9.64311408996582,0.0,0.0,0.0,0.0,-8.460229989839231e-05,0.12895391881465912,1491.0,0.0,0.0,1019.0,0.0,-0.05305800926062762,0.0,5.0,2.186687469482422,0.0,1500.0,0.0,8.379916,0.0,0.0,0.0,1603.0,1500.0,-1.8973350570176742e-05,0.0,0.008028514559173916,0.0,0.0,1.0,0.09088803082704544,-0.0009612144851716905,0.0,8.419599,1418.0,0.0,1568.0,5.0,1500.0,,,,,,,,,,,,,,,,
4.600251,-9.660478591918945,0.0,0.0,0.0,0.0,-7.489954450158884e-05,0.149638831615448,1491.0,0.0,0.0,1020.0,0.0,-0.05305800926062762,0.0,5.0,2.1288063526153564,0.0,1500.0,0.0,8.499910999999999,0.0,0.0,0.0,1617.0,1500.0,-3.0187188592176568e-05,0.0,0.008028514559173916,0.0,0.0,1.0,0.24593231081962585,-0.0014126836830568896,0.0,8.519632,1418.0,0.0,1568.0,5.0,1500.0,,,,,,,,,,,,,,,,
4.700214000000001,-9.790377616882324,0.0,0.0,0.0,0.0,-9.008660097646631e-05,0.12020528316497803,1491.0,0.0,0.0,1019.0,0.0,-0.05305800926062762,0.0,5.0,2.0883593559265137,0.0,1500.0,0.0,8.580613999999999,0.0,0.0,0.0,1631.0,1500.0,-3.882595960626769e-05,0.0,0.008028514559173916,0.0,0.0,1.0,-0.021385418251156807,-0.0026370254409166082,0.0,8.619595,1418.0,0.0,1568.0,5.0,1500.0,,,,,,,,,,,,,,,,
4.800192000000001,-9.668811798095703,0.0,0.0,0.0,0.0,-0.00023899169261408116,0.15689584612846375,1490.0,0.0,0.0,1019.0,0.0,-0.05305800926062762,0.0,5.0,1.7759449481964111,0.0,1500.0,0.0,8.700388,0.0,0.0,0.0,1674.0,1500.0,-7.57212005681319e-05,0.0,0.008028514559173916,0.0,0.0,1.0,0.20850782096385956,-0.0065853752779800705,0.0,8.719573,1418.0,0.0,1569.0,5.0,1500.0,,,,,,,,,,,,,,,,
4.900257,-9.587684631347656,0.0,0.0,0.0,0.0,-0.00017146631991126762,0.1706458330154419,1490.0,0.0,0.0,1019.0,0.0,-0.05305800926062762,0.0,5.0,1.4521855115890503,0.0,1500.0,0.0,8.779986,0.0,0.0,0.0,1718.0,1500.0,-4.285951733442311e-05,0.0,0.008028514559173916,0.0,0.0,1.0,0.06950260698795319,-0.004717311854465648,0.0,8.819638,1418.0,0.0,1569.0,5.0,1500.0,,,,,,,,,,,,,,,,
5.000216,-9.554913520812988,0.0,0.0,0.0,0.0,-0.0001673105597595574,0.1530584692955017,1490.0,0.0,0.0,1019.0,0.0,-0.05305800926062762,0.0,5.0,1.1327400207519531,0.0,1500.0,0.0,8.899975,0.0,0.0,0.0,1776.0,1500.0,-6.683949575233315e-05,0.0,0.008028514559173916,0.0,0.0,1.0,0.20048829913139343,-0.00410930879663433,0.0,8.919597,1417.0,0.0,1569.0,5.0,1501.0,,,,,,,,,,,,,,,,
5.100218,-9.519031524658203,0.0,0.0,0.0,0.0,-0.00015792699683300472,0.19612964987754822,1491.0,0.0,0.0,1020.0,0.0,-0.05305800926062762,0.0,5.0,0.9524620771408081,0.0,1500.0,0.0,8.979922,0.0,0.0,0.0,1796.0,1500.0,-3.3567906936475016e-05,0.0,0.008028514559173916,0.0,0.0,1.0,0.3769179880619049,-0.003685734845777503,0.0,9.019599,1418.0,0.0,1568.0,5.0,1500.0,,,,,,,,,,,,,,,,
5.200225,-10.190887451171875,0.0,0.0,0.0,0.0,-0.00011664014894308446,0.18833976984024048,1491.0,0.0,0.0,1020.0,0.0,-0.05305800926062762,0.0,5.0,0.814173698425293,0.0,1500.0,0.0,9.099948999999999,0.0,0.0,0.0,1854.0,1500.0,-4.751375056699826e-05,0.0,0.008028514559173916,0.0,0.0,1.0,0.20316147804260254,-0.0037353687303708794,0.0,9.119606,1418.0,0.0,1569.0,5.0,1500.0,,,,,,,,,,,,,,,,
5.300236999999999,-9.197240829467773,0.0,0.0,0.0,0.0,-0.0002038258240049773,0.20884504914283752,1491.0,0.0,0.0,1020.0,0.0,-0.05305800926062762,0.0,5.0,-0.08789010345935822,0.0,1500.0,0.0,9.179919,0.0,0.0,0.0,1946.0,1500.0,-7.21476899392927e-05,0.0,0.008028514559173916,0.0,0.0,1.0,0.3288007974624634,-0.0061044999312742316,0.0,9.219617999999999,1418.0,0.0,1568.0,5.0,1500.0,,,,,,,,,,,,,,,,
5.400181999999999,-9.240668296813965,0.0,0.0,0.0,0.0,-0.0001964363159483377,0.2185526192188263,1491.0,0.0,0.0,1020.0,0.0,-0.05305800926062762,0.0,5.0,-0.5734052658081055,0.0,1500.0,0.0,9.299972,0.0,0.0,0.0,2099.0,1500.0,-8.145141004800806e-05,0.0,0.008028514559173916,0.0,0.0,1.0,0.24058595299720764,-0.005530703149065245,0.0,9.319562999999999,1418.0,0.0,1569.0,5.0,1500.0,,,,,,,,,,,,,,,,
5.5002320000000005,-9.806057929992676,0.0,0.0,0.0,0.0,-6.175610331022097e-05,0.2544209659099579,1491.0,0.0,0.0,1019.0,0.0,-0.05305800926062762,0.0,5.0,-0.40892958641052246,0.0,1500.0,0.0,9.379794,0.0,0.0,0.0,2113.0,1500.0,3.924107073858241e-06,0.0,0.008028514559173916,0.0,0.0,1.0,0.23256641626358032,-6.783939619585092e-05,0.0,9.419613,1418.0,0.0,1569.0,5.0,1500.0,,,,,,,,,,,,,,,,
5.600236000000001,-9.746641159057617,0.0,0.0,0.0,0.0,-2.6592114144482835e-05,0.20558243989944458,1492.0,0.0,0.0,1019.0,0.0,-0.05305800926062762,0.0,5.0,-0.35210832953453064,0.0,1500.0,0.0,9.499922999999999,0.0,0.0,0.0,2112.0,1500.0,1.2845162354158624e-05,0.0,0.008028514559173916,0.0,0.0,1.0,0.20316147804260254,-4.0041904604463905e-05,0.0,9.519617,1418.0,0.0,1569.0,5.0,1500.0,,,,,,,,,,,,,,,,
5.700208999999999,-9.76893138885498,0.0,0.0,0.0,0.0,-6.622703290746395e-06,0.17828695476055145,1491.0,0.0,0.0,1020.0,0.0,-0.05305800926062762,0.0,5.0,-0.36887556314468384,0.0,1500.0,0.0,9.580591,0.0,0.0,0.0,2113.0,1500.0,-2.4519467048507114e-06,0.0,0.008028514559173916,0.0,0.0,1.0,0.2218737155199051,-7.7351265165278e-06,0.0,9.619589999999999,1417.0,0.0,1569.0,5.0,1500.0,,,,,,,,,,,,,,,,
5.800233,-9.784170150756836,0.0,0.0,0.0,0.0,2.614976225843376e-05,0.2234758734703064,1491.0,0.0,0.0,1020.0,0.0,-0.05305800926062762,0.0,5.0,-0.3800707459449768,0.0,1500.0,0.0,9.699937,0.0,0.0,0.0,2112.0,1500.0,-1.8171076136353304e-05,0.0,0.008028514559173916,0.0,0.0,1.0,0.15771746635437012,-1.7781037794452692e-05,0.0,9.719614,1418.0,0.0,1569.0,5.0,1500.0,,,,,,,,,,,,,,,,
5.9002099999999995,-9.795487403869629,0.0,0.0,0.0,0.0,4.41494199529336e-06,0.24175360798835754,1491.0,0.0,0.0,1019.0,0.0,-0.05305800926062762,0.0,5.0,-0.36590516567230225,0.0,1500.0,0.0,9.779917,0.0,0.0,0.0,2113.0,1500.0,-2.9612077906349336e-06,0.0,0.008028514559173916,0.0,0.0,1.0,0.16573698818683624,-1.3768972771078513e-05,0.0,9.819590999999999,1418.0,0.0,1569.0,5.0,1500.0,,,,,,,,,,,,,,,,
6.0005880000000005,-9.313616752624512,0.0,0.0,0.0,0.0,0.000136713790678138,0.22357675433158875,1491.0,0.0,0.0,1019.0,0.0,-0.05305800926062762,0.0,5.0,-0.535595178604126,0.0,1500.0,0.0,9.899954,0.0,0.0,0.0,2107.0,1500.0,5.338125897227497e-05,0.0,0.008028514559173916,0.0,0.0,1.0,0.2913763225078583,0.002688852012145771,0.0,9.919969,1417.0,0.0,1570.0,5.0,1501.0,,,,,,,,,,,,,,,,
6.100234,-9.600753784179688,0.0,0.0,0.0,0.0,0.00012715706701493608,0.23929853737354279,1491.0,0.0,0.0,1019.0,0.0,-0.05305800926062762,0.0,5.0,0.26804235577583313,0.0,1500.0,0.0,9.97994,0.0,0.0,0.0,1979.0,1500.0,5.739561996430133e-05,0.0,0.008028514559173916,0.0,0.0,1.0,0.189795583486557,0.004618895568619609,0.0,10.019615,1418.0,0.0,1570.0,5.0,1500.0,,,,,,,,,,,,,,,,
6.200215,-10.497493743896484,0.0,0.0,0.0,0.0,0.00017027971454788336,0.12131654471158981,1492.0,0.0,0.0,1019.0,0.0,-0.05305800926062762,0.0,5.0,1.0531829595565796,0.0,1500.0,0.0,10.099971,0.0,0.0,0.0,1868.0,1500.0,0.00010052500098407459,0.0,0.008028514559173916,0.0,0.0,1.0,0.23791277408599854,0.006725768600211181,0.0,10.119596,1418.0,0.0,1569.0,5.0,1500.0,,,,,,,,,,,,,,,,
6.300231999999999,-10.510809898376465,0.0,0.0,0.0,0.0,0.00019398674089783147,0.08377495408058167,1491.0,0.0,0.0,1020.0,0.0,-0.05305800926062762,0.0,5.0,1.4795241355895996,0.0,1500.0,0.0,10.179938,0.0,0.0,0.0,1829.0,1500.0,7.092335754410868e-05,0.0,0.008028514559173916,0.0,0.0,1.0,0.1496979296207428,0.008460290099517643,0.0,10.219612999999999,1417.0,0.0,1569.0,5.0,1501.0,,,,,,,,,,,,,,,,
6.400214,-9.78698444366455,0.0,0.0,0.0,0.0,0.0003348241725485171,0.1338886171579361,1491.0,0.0,0.0,1019.0,0.0,-0.05305800926062762,0.0,5.0,1.6048119068145752,0.0,1500.0,0.0,10.299953,0.0,0.0,0.0,1731.0,1500.0,8.733596551256956e-05,0.0,0.008028514559173916,0.0,0.0,1.0,0.21118099987506866,0.0085197311268401,0.0,10.319595,1417.0,0.0,1570.0,5.0,1501.0,,,,,,,,,,,,,,,,
6.500235,-9.75822925567627,0.0,0.0,0.0,0.0,0.0001870946249881427,0.13004103302955627,1491.0,0.0,0.0,1019.0,0.0,-0.05305800926062762,0.0,5.0,1.784132957458496,0.0,1500.0,0.0,10.379961,0.0,0.0,0.0,1677.0,1500.0,4.0737213312894265e-05,0.0,0.008028514559173916,0.0,0.0,1.0,0.23791277408599854,0.004363849000271385,0.0,10.419616,1417.0,0.0,1570.0,5.0,1500.0,,,,,,,,,,,,,,,,
6.600210000000001,-9.845609664916992,0.0,0.0,0.0,0.0,4.8424242333904824e-05,0.12660247087478638,1492.0,0.0,0.0,1020.0,0.0,-0.05305800926062762,0.0,5.0,2.0230493545532227,0.0,1500.0,0.0,10.499927,0.0,0.0,0.0,1639.0,1500.0,4.343598020355833e-05,0.0,0.008028514559173916,0.0,0.0,1.0,0.19514194130897522,0.0021218894630544703,0.0,10.519591,1418.0,0.0,1570.0,5.0,1500.0,,,,,,,,,,,,,,,,
6.700213,-9.615506172180176,0.0,0.0,0.0,0.0,9.040201424167897e-05,0.12762512266635895,1491.0,0.0,0.0,1019.0,0.0,-0.05305800926062762,0.0,5.0,2.085223436355591,0.0,1500.0,0.0,10.580613999999999,0.0,0.0,0.0,1619.0,1500.0,3.664035186851989e-05,0.0,0.008028514559173916,0.0,0.0,1.0,0.19514194130897522,0.002572098405778317,0.0,10.619594,1418.0,0.0,1570.0,5.0,1500.0,,,,,,,,,,,,,,,,
6.800217999999999,-9.620734214782715,0.0,0.0,0.0,0.0,6.494062808544437e-05,0.09256599843502045,1491.0,0.0,0.0,1019.0,0.0,-0.05305800926062762,0.0,5.0,2.1503050327301025,0.0,1500.0,0.0,10.699956,0.0,0.0,0.0,1604.0,1500.0,2.677966532182155e-06,0.0,0.008028514559173916,0.0,0.0,1.0,0.3020690381526947,0.000560933376047281,0.0,10.719598999999999,1418.0,0.0,1568.0,5.0,1500.0,,,,,,,,,,,,,,,,
6.900240999999999,-9.558258056640625,0.0,0.0,0.0,0.0,2.2322028976708576e-05,0.13409610092639923,1490.0,0.0,0.0,1019.0,0.0,-0.05305800926062762,0.0,5.0,2.159874439239502,0.0,1500.0,0.0,10.779935,0.0,0.0,0.0,1603.0,1501.0,5.6827164539819425e-06,0.0,0.008028514559173916,0.0,0.0,1.0,0.1844492256641388,7.31601105233722e-05,0.0,10.819621999999999,1417.0,0.0,1569.0,5.0,1500.0,,,,,,,,,,,,,,,,
7.000204999999999,-9.548877716064453,0.0,0.0,0.0,0.0,-4.630669076430293e-06,0.14803959429264069,1491.0,0.0,0.0,1020.0,0.0,-0.05305800926062762,0.0,5.0,2.13655161857605,0.0,1500.0,0.0,10.899913999999999,0.0,0.0,0.0,1602.0,1500.0,1.8706705304600985e-05,0.0,0.008028514559173916,0.0,0.0,1.0,0.2967226803302765,-9.622737841528878e-06,0.0,10.919585999999999,1418.0,0.0,1568.0,5.0,1500.0,,,,,,,,,,,,,,,,
7.100224000000001,-9.555694580078125,0.0,0.0,0.0,0.0,-1.7980990250259193e-05,0.13385123014450073,1491.0,0.0,0.0,1019.0,0.0,-0.05305800926062762,0.0,5.0,2.157698631286621,0.0,1500.0,0.0,10.979948,0.0,0.0,0.0,1603.0,1500.0,1.8663049390918853e-05,0.0,0.008028514559173916,0.0,0.0,1.0,0.16039063036441803,-2.673308179412905e-07,0.0,11.019605,1417.0,0.0,1568.0,5.0,1500.0,,,,,,,,,,,,,,,,
7.200205,-9.472162246704102,0.0,0.0,0.0,0.0,1.6631295934835316e-05,0.10788176953792572,1491.0,0.0,0.0,1020.0,0.0,-0.05305800926062762,0.0,5.0,2.132016181945801,0.0,1500.0,0.0,11.099948,0.0,0.0,0.0,1602.0,1500.0,1.3299810879396204e-05,0.0,0.008028514559173916,0.0,0.0,1.0,0.16841016709804535,0.00039422924459551583,0.0,11.119586,1418.0,0.0,1568.0,5.0,1500.0,,,,,,,,,,,,,,,,
7.3002020000000005,-9.660310745239258,0.0,0.0,0.0,0.0,4.785749974267406e-05,0.09984811395406723,1491.0,0.0,0.0,1020.0,0.0,-0.05305800926062762,0.0,5.0,2.2707080841064453,0.0,1500.0,0.0,11.179902,0.0,0.0,0.0,1597.0,1500.0,5.554751758659379e-06,0.0,0.008028514559173916,0.0,0.0,1.0,0.20850782096385956,0.001764851757223129,0.0,11.219583,1418.0,0.0,1568.0,5.0,1500.0,,,,,,,,,,,,,,,,
7.400226,-9.211655616760254,0.0,0.0,0.0,0.0,0.00022602024182489914,0.11962112039327621,1490.0,0.0,0.0,1019.0,0.0,-0.05305800926062762,0.0,5.0,2.2621421813964844,0.0,1500.0,0.0,11.299985999999999,0.0,0.0,0.0,1564.0,1500.0,5.223903691795116e-05,0.0,0.008028514559173916,0.0,0.0,1.0,0.24593231081962585,0.006482266731158719,0.0,11.319607,1418.0,0.0,1569.0,5.0,1500.0,,,,,,,,,,,,,,,,
7.500199,-9.36041259765625,0.0,0.0,0.0,0.0,0.0002106573751061844,0.10097597539424896,1490.0,0.0,0.0,1019.0,0.0,-0.05305800926062762,0.0,5.0,2.7468886375427246,0.0,1500.0,0.0,11.379947999999999,0.0,0.0,0.0,1525.0,1500.0,7.042432367798001e-05,0.0,0.008028514559173916,0.0,0.0,1.0,0.2673177421092987,0.008628398502288342,0.0,11.41958,1418.0,0.0,1569.0,5.0,1500.0,,,,,,,,,,,,,,,,
7.600225999999999,-8.898224830627441,0.0,0.0,0.0,0.0,0.00030453373851289624,0.110314279794693,1491.0,0.0,0.0,1019.0,0.0,-0.05305800926062762,0.0,5.0,3.064385414123535,0.0,1500.0,0.0,11.4999,0.0,0.0,0.0,1431.0,1500.0,8.853233179047157e-05,0.0,0.008028514559173916,0.0,0.0,1.0,0.3475130498409271,0.010496948264790895,0.0,11.519606999999999,1418.0,0.0,1568.0,5.0,1500.0,,,,,,,,,,,,,,,,
7.700241,-8.476789474487305,0.0,0.0,0.0,0.0,0.00020516024911294882,0.1275712102651596,1491.0,0.0,0.0,1020.0,0.0,-0.05305800926062762,0.0,5.0,3.493283987045288,0.0,1500.0,0.0,11.580623,0.0,0.0,0.0,1334.0,1500.0,4.393693211783538e-05,0.0,0.008028514559173916,0.0,0.0,1.0,0.35820576548576355,0.006623571353825341,0.0,11.619622,1418.0,0.0,1568.0,5.0,1500.0,,,,,,,,,,,,,,,,
7.800178000000001,-7.93812370300293,0.0,0.0,0.0,0.0,0.000227178336540383,0.13145753741264343,1491.0,0.0,0.0,1019.0,0.0,-0.05305800926062762,0.0,5.0,3.869596481323242,0.0,1500.0,0.0,11.699983,0.0,0.0,0.0,1216.0,1500.0,6.513312778636927e-05,0.0,0.008028514559173916,0.0,0.0,1.0,0.4544401466846466,0.0070520776142596435,0.0,11.719559,1418.0,0.0,1568.0,5.0,1500.0,,,,,,,,,,,,,,,,
7.900235,-9.21062183380127,0.0,0.0,0.0,0.0,0.0001753566742141081,-0.00995608139783144,1490.0,0.0,0.0,1019.0,0.0,-0.05305800926062762,0.0,5.0,5.019056797027588,0.0,1500.0,0.0,11.779926999999999,0.0,0.0,0.0,1136.0,1500.0,8.173993000253018e-05,0.0,0.008028514559173916,0.0,0.0,1.0,0.1844492256641388,0.005426471601307667,0.0,11.819616,1417.0,0.0,1569.0,5.0,1500.0,,,,,,,,,,,,,,,,
8.000224,-8.613515853881836,0.0,0.0,0.0,0.0,-3.303822696841636e-06,0.015985602512955666,1490.0,0.0,0.0,1019.0,0.0,-0.05305800926062762,0.0,5.0,4.7854719161987305,0.0,1500.0,0.0,11.899951999999999,0.0,0.0,0.0,1093.0,1500.0,1.944640875113927e-06,0.0,0.008028514559173916,0.0,0.0,1.0,0.2699908912181854,0.00021972072151983085,0.0,11.919604999999999,1418.0,0.0,1569.0,5.0,1500.0,,,,,,,,,,,,,,,,
8.100203,-8.552351951599121,0.0,0.0,0.0,0.0,2.0807797013980454e-05,0.029118359088897705,1491.0,0.0,0.0,1020.0,0.0,-0.05305800926062762,0.0,5.0,4.803333282470703,0.0,1500.0,0.0,11.979959,0.0,0.0,0.0,1093.0,1500.0,2.4747301300622985e-06,0.0,0.008028514559173916,0.0,0.0,1.0,0.2940495014190674,1.9356945977036585e-05,0.0,12.019584,1417.0,0.0,1568.0,5.0,1501.0,,,,,,,,,,,,,,,,
8.200237,-8.614133834838867,0.0,0.0,0.0,0.0,-1.3179904424493604e-05,0.04787418246269226,1492.0,0.0,0.0,1020.0,0.0,-0.05305800926062762,0.0,5.0,4.781553745269775,0.0,1500.0,0.0,12.099917999999999,0.0,0.0,0.0,1092.0,1500.0,-9.786139695491024e-06,0.0,0.008028514559173916,0.0,0.0,1.0,0.3341471552848816,5.6657907965794215e-06,0.0,12.119618,1418.0,0.0,1568.0,5.0,1500.0,,,,,,,,,,,,,,,,
8.300212,-8.56747055053711,0.0,0.0,0.0,0.0,-3.778285025181423e-05,0.03413686156272888,1492.0,0.0,0.0,1019.0,0.0,-0.05305800926062762,0.0,5.0,4.777788162231445,0.0,1500.0,0.0,12.179928,0.0,0.0,0.0,1092.0,1500.0,-1.5575549609556853e-05,0.0,0.008028514559173916,0.0,0.0,1.0,0.39563024044036865,3.632188628568976e-06,0.0,12.219593,1418.0,0.0,1569.0,5.0,1500.0,,,,,,,,,,,,,,,,
8.400168,-8.568188667297363,0.0,0.0,0.0,0.0,6.6838431073064346e-06,0.022606227546930313,1491.0,0.0,0.0,1019.0,0.0,-0.05305800926062762,0.0,5.0,4.781339168548584,0.0,1500.0,0.0,12.299975,0.0,0.0,0.0,1093.0,1500.0,-5.9070879586858785e-06,0.0,0.008028514559173916,0.0,0.0,1.0,0.344839870929718,1.209150556450283e-05,0.0,12.319549,1418.0,0.0,1569.0,5.0,1500.0,,,,,,,,,,,,,,,,
8.500221,-8.580942153930664,0.0,0.0,0.0,0.0,2.8489592039196305e-05,0.04160835221409798,1491.0,0.0,0.0,1019.0,0.0,-0.05305800926062762,0.0,5.0,4.787117004394531,0.0,1500.0,0.0,12.379923999999999,0.0,0.0,0.0,1093.0,1500.0,1.84497559349617e-05,0.0,0.008028514559173916,0.0,0.0,1.0,0.31276175379753113,1.4343338790966787e-05,0.0,12.419602,1418.0,0.0,1569.0,5.0,1500.0,,,,,,,,,,,,,,,,
8.600198,-8.578731536865234,0.0,0.0,0.0,0.0,2.2373222982160264e-05,0.046362072229385376,1491.0,0.0,0.0,1020.0,0.0,-0.05305800926062762,0.0,5.0,4.802915096282959,0.0,1500.0,0.0,12.49996,0.0,0.0,0.0,1092.0,1500.0,3.023430064982097e-06,0.0,0.008028514559173916,0.0,0.0,1.0,0.17108334600925446,1.8653104595725836e-06,0.0,12.519579,1418.0,0.0,1569.0,5.0,1500.0,,,,,,,,,,,,,,,,
8.700229,-8.65358829498291,0.0,0.0,0.0,0.0,-3.466880155505953e-05,0.03756372630596161,1491.0,0.0,0.0,1019.0,0.0,-0.05305800926062762,0.0,5.0,4.8131818771362305,0.0,1500.0,0.0,12.580573999999999,0.0,0.0,0.0,1092.0,1500.0,2.8199358743465362e-06,0.0,0.008028514559173916,0.0,0.0,1.0,0.27533724904060364,-0.00038037931149973386,0.0,12.61961,1418.0,0.0,1569.0,5.0,1500.0,,,,,,,,,,,,,,,,
8.800228,-8.258115768432617,0.0,0.0,0.0,0.0,-0.00014196626800458414,0.03816194087266922,1491.0,0.0,0.0,1020.0,0.0,-0.05305800926062762,0.0,5.0,4.260558605194092,0.0,1500.0,0.0,12.699961,0.0,0.0,0.0,1160.0,1500.0,-2.1973120982972692e-05,0.0,0.008028514559173916,0.0,0.0,1.0,0.379591166973114,-0.005908574498828464,0.0,12.719609,1417.0,0.0,1568.0,5.0,1500.0,,,,,,,,,,,,,,,,
8.900231999999999,-9.619747161865234,0.0,0.0,0.0,0.0,-0.0005131468969136941,0.04054367542266846,1491.0,0.0,0.0,1020.0,0.0,-0.05305800926062762,0.0,5.0,4.521522521972656,0.0,1500.0,0.0,12.77994,0.0,0.0,0.0,1222.0,1500.0,-0.0001633412728990178,0.0,0.008028514559173916,0.0,0.0,1.0,0.4571133255958557,-0.01632580478145812,0.0,12.819612999999999,1418.0,0.0,1568.0,5.0,1500.0,,,,,,,,,,,,,,,,
9.000194,-9.25098991394043,0.0,0.0,0.0,0.0,-0.0005080674177774439,0.11178985983133316,1491.0,0.0,0.0,1020.0,0.0,-0.05305800926062762,0.0,5.0,3.478712558746338,0.0,1500.0,0.0,12.899951,0.0,0.0,0.0,1380.0,1500.0,-0.000137713939004997,0.0,0.008028514559173916,0.0,0.0,1.0,0.4143424928188324,-0.014892182514479133,0.0,12.919575,1418.0,0.0,1568.0,5.0,1500.0,,,,,,,,,,,,,,,,
9.100211,-9.008015632629395,0.0,0.0,0.0,0.0,-0.0004643263622630997,0.07663726061582565,1491.0,0.0,0.0,1020.0,0.0,-0.05305800926062762,0.0,5.0,2.637744903564453,0.0,1500.0,0.0,12.979951999999999,0.0,0.0,0.0,1483.0,1500.0,-0.0001342263016674108,0.0,0.008028514559173916,0.0,0.0,1.0,0.35820576548576355,-0.01219125655178581,0.0,13.019592,1418.0,0.0,1568.0,5.0,1500.0,,,,,,,,,,,,,,,,
9.200208,-9.519492149353027,0.0,0.0,0.0,0.0,-0.00015406685991582375,0.050220128148794174,1491.0,0.0,0.0,1019.0,0.0,-0.05305800926062762,0.0,5.0,2.3052587509155273,0.0,1500.0,0.0,13.099948,0.0,0.0,0.0,1575.0,1500.0,-5.3738466994280024e-05,0.0,0.008028514559173916,0.0,0.0,1.0,0.4865182638168335,-0.005955714530717468,0.0,13.119589,1418.0,0.0,1568.0,5.0,1500.0,,,,,,,,,,,,,,,,
9.300229999999999,-9.473627090454102,0.0,0.0,0.0,0.0,-5.125874465627223e-07,0.12632422149181366,1491.0,0.0,0.0,1019.0,0.0,-0.05305800926062762,0.0,5.0,2.186868667602539,0.0,1500.0,0.0,13.17995,0.0,0.0,0.0,1593.0,1500.0,-2.2443396317859778e-05,0.0,0.008028514559173916,0.0,0.0,1.0,0.3769179880619049,-0.0015135134586408115,0.0,13.219610999999999,1418.0,0.0,1568.0,5.0,1500.0,,,,,,,,,,,,,,,,
9.400218,-9.544580459594727,0.0,0.0,0.0,0.0,1.711881948024309e-05,0.14580360054969788,1491.0,0.0,0.0,1019.0,0.0,-0.05305800926062762,0.0,5.0,2.187363862991333,0.0,1500.0,0.0,13.299921999999999,0.0,0.0,0.0,1602.0,1500.0,5.800112582097134e-06,0.0,0.008028514559173916,0.0,0.0,1.0,0.3688984513282776,3.433313804951768e-06,0.0,13.319599,1418.0,0.0,1568.0,5.0,1500.0,,,,,,,,,,,,,,,,
9.500214999999999,-9.575675010681152,0.0,0.0,0.0,0.0,-1.7418384466263694e-05,0.12818771600723267,1491.0,0.0,0.0,1020.0,0.0,-0.05305800926062762,0.0,5.0,2.179570436477661,0.0,1500.0,0.0,13.379971,0.0,0.0,0.0,1602.0,1500.0,-4.811378064002435e-06,0.0,0.008028514559173916,0.0,0.0,1.0,0.35285940766334534,4.106319616122963e-06,0.0,13.419595999999999,1418.0,0.0,1568.0,5.0,1500.0,,,,,,,,,,,,,,,,
9.600202,-9.542725563049316,0.0,0.0,0.0,0.0,-2.794680269968288e-05,0.11114058643579483,1491.0,0.0,0.0,1020.0,0.0,-0.05305800926062762,0.0,5.0,2.1964468955993652,0.0,1500.0,0.0,13.499977,0.0,0.0,0.0,1602.0,1500.0,-2.6760929303295933e-06,0.0,0.008028514559173916,0.0,0.0,1.0,0.3314739763736725,-6.084902603474804e-06,0.0,13.519582999999999,1418.0,0.0,1568.0,5.0,1500.0,,,,,,,,,,,,,,,,
9.700227,-9.562234878540039,0.0,0.0,0.0,0.0,2.1837136652012813e-05,0.10425111651420593,1490.0,0.0,0.0,1019.0,0.0,-0.05305800926062762,0.0,5.0,2.1783502101898193,0.0,1501.0,0.0,13.580736,0.0,0.0,0.0,1603.0,1500.0,8.231914193855604e-06,0.0,0.008028514559173916,0.0,0.0,1.0,0.3074153959751129,-2.4546027202463183e-07,0.0,13.619608,1417.0,0.0,1569.0,5.0,1500.0,,,,,,,,,,,,,,,,
9.800222999999999,-9.665468215942383,0.0,0.0,0.0,0.0,-4.0592660752017344e-05,0.1468183845281601,1490.0,0.0,0.0,1020.0,0.0,-0.05305800926062762,0.0,5.0,2.2254223823547363,0.0,1500.0,0.0,13.699985999999999,0.0,0.0,0.0,1604.0,1500.0,-1.254013275956276e-05,0.0,0.008028514559173916,0.0,0.0,1.0,0.3688984513282776,-0.0008667192098895767,0.0,13.719603999999999,1418.0,0.0,1568.0,5.0,1500.0,,,,,,,,,,,,,,,,
9.900243,-9.983946800231934,0.0,0.0,0.0,0.0,-0.00022902860281774946,0.14387595653533936,1491.0,0.0,0.0,1019.0,0.0,-0.05305800926062762,0.0,5.0,2.230257749557495,0.0,1500.0,0.0,13.779917999999999,0.0,0.0,0.0,1611.0,1500.0,-6.392392033866035e-05,0.0,0.008028514559173916,0.0,0.0,1.0,0.3475130498409271,-0.006596357176436095,0.0,13.819624,1417.0,0.0,1568.0,5.0,1500.0,,,,,,,,,,,,,,,,
10.000226,-9.844462394714355,0.0,0.0,0.0,0.0,-0.00041653585197747213,0.12380804121494293,1491.0,0.0,0.0,1019.0,0.0,-0.05305800926062762,0.0,5.0,1.6147487163543701,0.0,1500.0,0.0,13.899961999999999,0.0,0.0,0.0,1700.0,1500.0,-0.00010974086473480728,0.0,0.008028514559173916,0.0,0.0,1.0,0.2913763225078583,-0.012579498625340826,0.0,13.919607,1418.0,0.0,1568.0,5.0,1500.0,,,,,,,,,,,,,,,,
10.100218,-10.023500442504883,0.0,0.0,0.0,0.0,-0.00042553383846226595,0.1455625742673874,1491.0,0.0,0.0,1019.0,0.0,-0.05305800926062762,0.0,5.0,1.0213066339492798,0.0,1500.0,0.0,13.979947999999998,0.0,0.0,0.0,1818.0,1500.0,-0.00013447804548688468,0.0,0.008028514559173916,0.0,0.0,1.0,0.28068360686302185,-0.012079309118948108,0.0,14.019599,1418.0,0.0,1568.0,5.0,1500.0,,,,,,,,,,,,,,,,
10.200184,-9.892276763916016,0.0,0.0,0.0,0.0,-0.00024824781912128436,0.18796703219413757,1491.0,0.0,0.0,1020.0,0.0,-0.05305800926062762,0.0,5.0,0.4736201763153076,0.0,1500.0,0.0,14.099905,0.0,0.0,0.0,1945.0,1500.0,-7.581768001545957e-05,0.0,0.008028514559173916,0.0,0.0,1.0,0.32345443964004517,-0.007221637751913626,0.0,14.119565,1417.0,0.0,1568.0,5.0,1500.0,,,,,,,,,,,,,,,,
10.300251,-10.586535453796387,0.0,0.0,0.0,0.0,-0.00023251863771552112,0.17185892164707184,1490.0,0.0,0.0,1019.0,0.0,-0.05305800926062762,0.0,5.0,0.0001641940325498581,0.0,1500.0,0.0,14.179969,0.0,0.0,0.0,2055.0,1501.0,-7.370264994771375e-05,0.0,0.008028514559173916,0.0,0.0,1.0,0.3742448091506958,-0.007260405471125694,0.0,14.219631999999999,1417.0,0.0,1569.0,5.0,1500.0,,,,,,,,,,,,,,,,
10.400245,-9.8727445602417,0.0,0.0,0.0,0.0,-3.1029912710891746e-05,0.24839845299720764,1491.0,0.0,0.0,1019.0,0.0,-0.05305800926062762,0.0,5.0,-0.3864647448062897,0.0,1500.0,0.0,14.29998,0.0,0.0,0.0,2113.0,1501.0,-4.334185615592981e-07,0.0,0.008028514559173916,0.0,0.0,1.0,0.3020690381526947,-6.300779227348728e-05,0.0,14.319626,1417.0,0.0,1568.0,5.0,1500.0,,,,,,,,,,,,,,,,
10.500237,-9.806665420532227,0.0,0.0,0.0,0.0,-1.6178449643398165e-05,0.23303094506263733,1491.0,0.0,0.0,1019.0,0.0,-0.05305800926062762,0.0,5.0,-0.4013931155204773,0.0,1501.0,0.0,14.379945999999999,0.0,0.0,0.0,2113.0,1500.0,-2.1844211486390604e-06,0.0,0.008028514559173916,0.0,0.0,1.0,0.35820576548576355,-3.4654851005709183e-05,0.0,14.419618,1417.0,0.0,1568.0,5.0,1500.0,,,,,,,,,,,,,,,,
10.600217,-9.830881118774414,0.0,0.0,0.0,0.0,-4.7437536598729775e-06,0.193160742521286,1490.0,0.0,0.0,1020.0,0.0,-0.05305800926062762,0.0,5.0,-0.3862066864967346,0.0,1500.0,0.0,14.499908999999999,0.0,0.0,0.0,2113.0,1501.0,1.1802200815386088e-06,0.0,0.008028514559173916,0.0,0.0,1.0,0.3368203341960907,-3.1322664968690425e-05,0.0,14.519598,1417.0,0.0,1568.0,5.0,1500.0,,,,,,,,,,,,,,,,
10.700232999999999,-9.769969940185547,0.0,0.0,0.0,0.0,9.04039993402393e-06,0.19665981829166412,1490.0,0.0,0.0,1019.0,0.0,-0.05305800926062762,0.0,5.0,-0.3771359324455261,0.0,1500.0,0.0,14.580585,0.0,0.0,0.0,2113.0,1500.0,-6.174574910114882e-06,0.0,0.008028514559173916,0.0,0.0,1.0,0.35018622875213623,-1.9264406249369608e-05,0.0,14.619613999999999,1418.0,0.0,1568.0,5.0,1500.0,,,,,,,,,,,,,,,,
10.800174,-9.783636093139648,0.0,0.0,0.0,0.0,1.7970063064939334e-05,0.23067384958267212,1491.0,0.0,0.0,1019.0,0.0,-0.05305800926062762,0.0,5.0,-0.3857325613498688,0.0,1500.0,0.0,14.699924999999999,0.0,0.0,0.0,2112.0,1500.0,-8.10146050596762e-06,0.0,0.008028514559173916,0.0,0.0,1.0,0.4196888208389282,-9.416366832649591e-06,0.0,14.719555,1418.0,0.0,1568.0,5.0,1500.0,,,,,,,,,,,,,,,,
10.900229,-9.79528522491455,0.0,0.0,0.0,0.0,-1.5754390328831928e-05,0.22448940575122833,1490.0,0.0,0.0,1020.0,0.0,-0.05305800926062762,0.0,5.0,-0.36487504839897156,0.0,1500.0,0.0,14.779954,0.0,0.0,0.0,2113.0,1500.0,-6.998509166791804e-06,0.0,0.008028514559173916,0.0,0.0,1.0,0.4918646216392517,-5.217988778748579e-07,0.0,14.819609999999999,1418.0,0.0,1568.0,5.0,1500.0,,,,,,,,,,,,,,,,
11.000236,-10.345989227294922,0.0,0.0,0.0,0.0,0.0003644330493056527,0.1057741716504097,1491.0,0.0,0.0,1019.0,0.0,-0.05305800926062762,0.0,5.0,0.25110507011413574,0.0,1500.0,0.0,14.899942999999999,0.0,0.0,0.0,1961.0,1500.0,0.0001725963103449842,0.0,0.008028514559173916,0.0,0.0,1.0,0.4196888208389282,0.013957320385401548,0.0,14.919616999999999,1418.0,0.0,1568.0,5.0,1500.0,,,,,,,,,,,,,,,,
11.100222,-9.52657699584961,0.0,0.0,0.0,0.0,6.193967514720101e-05,0.13094091415405273,1491.0,0.0,0.0,1020.0,0.0,-0.05305800926062762,0.0,5.0,1.0336674451828003,0.0,1500.0,0.0,14.979854,0.0,0.0,0.0,1868.0,1500.0,1.872115568429508e-05,0.0,0.008028514559173916,0.0,0.0,1.0,0.4116693139076233,0.007951172241540704,0.0,15.019603,1418.0,0.0,1568.0,5.0,1500.0,,,,,,,,,,,,,,,,
11.200231,-9.168795585632324,0.0,0.0,0.0,0.0,0.00017255440586933586,0.1643698662519455,1491.0,0.0,0.0,1020.0,0.0,-0.05305800926062762,0.0,5.0,1.5135986804962158,0.0,1500.0,0.0,15.099986,0.0,0.0,0.0,1704.0,1500.0,3.151723713689429e-05,0.0,0.008028514559173916,0.0,0.0,1.0,0.3047422170639038,0.0053868711241062996,0.0,15.119612,1418.0,0.0,1568.0,5.0,1500.0,,,,,,,,,,,,,,,,
11.30021,-9.745834350585938,0.0,0.0,0.0,0.0,0.0001334975408989012,0.07915123552083969,1491.0,0.0,0.0,1019.0,0.0,-0.05305800926062762,0.0,5.0,1.9741827249526978,0.0,1500.0,0.0,15.17996,0.0,0.0,0.0,1649.0,1500.0,2.746468179201506e-05,0.0,0.008028514559173916,0.0,0.0,1.0,0.2913763225078583,0.002350653700320651,0.0,15.219591,1418.0,0.0,1568.0,5.0,1500.0,,,,,,,,,,,,,,,,
11.400218,-9.7026948928833,0.0,0.0,0.0,0.0,9.313429821100357e-05,0.15343652665615082,1490.0,0.0,0.0,1019.0,0.0,-0.05305800926062762,0.0,5.0,2.2022552490234375,0.0,1500.0,0.0,15.299957,0.0,0.0,0.0,1613.0,1500.0,1.9546672229102873e-05,0.0,0.008028514559173916,0.0,0.0,1.0,0.40097659826278687,0.0027043121304074665,0.0,15.319599,1417.0,0.0,1569.0,5.0,1500.0,,,,,,,,,,,,,,,,
11.500238,-9.50700569152832,0.0,0.0,0.0,0.0,1.864247100993716e-05,0.14746740460395813,1491.0,0.0,0.0,1020.0,0.0,-0.05305800926062762,0.0,5.0,2.140054702758789,0.0,1500.0,0.0,15.379983999999999,0.0,0.0,0.0,1602.0,1500.0,3.117958954870743e-06,0.0,0.008028514559173916,0.0,0.0,1.0,0.3688984513282776,9.659419699634237e-05,0.0,15.419618999999999,1418.0,0.0,1568.0,5.0,1500.0,,,,,,,,,,,,,,,,
11.600216999999999,-9.575937271118164,0.0,0.0,0.0,0.0,-1.5749395073140433e-05,0.09600886702537537,1491.0,0.0,0.0,1020.0,0.0,-0.05305800926062762,0.0,5.0,2.18327260017395,0.0,1500.0,0.0,15.499956999999998,0.0,0.0,0.0,1602.0,1500.0,9.379525679020048e-06,0.0,0.008028514559173916,0.0,0.0,1.0,0.35820576548576355,-3.2837791952826763e-06,0.0,15.519597999999998,1418.0,0.0,1568.0,5.0,1500.0,,,,,,,,,,,,,,,,
11.700229,-9.553845405578613,0.0,0.0,0.0,0.0,1.3756665972736678e-05,0.12300680577754974,1491.0,0.0,0.0,1019.0,0.0,-0.05305800926062762,0.0,5.0,2.1521313190460205,0.0,1500.0,0.0,15.580582,0.0,0.0,0.0,1603.0,1500.0,4.821433593966731e-06,0.0,0.008028514559173916,0.0,0.0,1.0,0.39830341935157776,4.047713492402988e-06,0.0,15.61961,1417.0,0.0,1568.0,5.0,1500.0,,,,,,,,,,,,,,,,
11.800209,-9.458450317382812,0.0,0.0,0.0,0.0,0.00011050423164321421,0.11699327826499939,1491.0,0.0,0.0,1019.0,0.0,-0.05305800926062762,0.0,5.0,2.143712282180786,0.0,1500.0,0.0,15.699962999999999,0.0,0.0,0.0,1600.0,1500.0,2.4652668787370387e-05,0.0,0.008028514559173916,0.0,0.0,1.0,0.3261276185512543,0.0017374529270629876,0.0,15.71959,1418.0,0.0,1568.0,5.0,1500.0,,,,,,,,,,,,,,,,
11.900214,-9.547934532165527,0.0,0.0,0.0,0.0,0.0001709373287338046,0.10082042217254639,1491.0,0.0,0.0,1020.0,0.0,-0.05305800926062762,0.0,5.0,2.374812602996826,0.0,1500.0,0.0,15.779885,0.0,0.0,0.0,1579.0,1500.0,6.631594988105408e-05,0.0,0.008028514559173916,0.0,0.0,1.0,0.40364977717399597,0.005290850122795382,0.0,15.819595,1418.0,0.0,1568.0,5.0,1500.0,,,,,,,,,,,,,,,,
12.000195999999999,-8.442646026611328,0.0,0.0,0.0,0.0,0.00021149042567910042,0.20137949287891388,1491.0,0.0,0.0,1019.0,0.0,-0.05305800926062762,0.0,5.0,2.3712830543518066,0.0,1500.0,0.0,15.899854,0.0,0.0,0.0,1501.0,1500.0,4.012264955511679e-05,0.0,0.008028514559173916,0.0,0.0,1.0,0.4089961349964142,0.007599966832489203,0.0,15.919576999999999,1418.0,0.0,1568.0,5.0,1500.0,,,,,,,,,,,,,,,,
12.100613000000001,-10.318717956542969,0.0,0.0,0.0,0.0,0.0003257896456210322,0.03715026378631592,1491.0,0.0,0.0,1020.0,0.0,-0.05305800926062762,0.0,5.0,4.005228042602539,0.0,1500.0,0.0,15.979961,0.0,0.0,0.0,1419.0,1500.0,0.0001124127220601355,0.0,0.008028514559173916,0.0,0.0,1.0,0.18177606165409088,0.010172652226019504,0.0,16.019994,1418.0,0.0,1568.0,5.0,1500.0,,,,,,,,,,,,,,,,
12.200261,-9.900005340576172,0.0,0.0,0.0,0.0,0.0002545016476183435,0.00414149509742856,1491.0,0.0,0.0,1019.0,0.0,-0.05305800926062762,0.0,5.0,4.401504993438721,0.0,1500.0,0.0,16.099909999999998,0.0,0.0,0.0,1282.0,1500.0,9.248581100843244e-05,0.0,0.008028514559173916,0.0,0.0,1.0,0.43572789430618286,0.008963341983933545,0.0,16.119642,1418.0,0.0,1568.0,5.0,1500.0,,,,,,,,,,,,,,,,
12.300220999999999,-9.048661231994629,0.0,0.0,0.0,0.0,0.0002980523937452204,-0.01537191029638052,1490.0,0.0,0.0,1019.0,0.0,-0.05305800926062762,0.0,5.0,4.535080909729004,0.0,1500.0,0.0,16.179948,0.0,0.0,0.0,1231.0,1500.0,0.00010200432812779752,0.0,0.008028514559173916,0.0,0.0,1.0,0.3475130498409271,0.008567558795244942,0.0,16.219602,1418.0,0.0,1569.0,5.0,1500.0,,,,,,,,,,,,,,,,
12.400203,-9.151888847351074,0.0,0.0,0.0,0.0,0.00012196145656516012,-0.014565235935151577,1491.0,0.0,0.0,1020.0,0.0,-0.05305800926062762,0.0,5.0,4.983998775482178,0.0,1500.0,0.0,16.299962,0.0,0.0,0.0,1108.0,1500.0,4.262640133849189e-05,0.0,0.008028514559173916,0.0,0.0,1.0,0.31543493270874023,0.002987724485256938,0.0,16.319584,1417.0,0.0,1568.0,5.0,1500.0,,,,,,,,,,,,,,,,
12.500229,-8.58409595489502,0.0,0.0,0.0,0.0,1.1455952995949207e-05,0.03306780755519867,1491.0,0.0,0.0,1019.0,0.0,-0.05305800926062762,0.0,5.0,4.7801923751831055,0.0,1500.0,0.0,16.379948,0.0,0.0,0.0,1092.0,1500.0,8.876972682178465e-06,0.0,0.008028514559173916,0.0,0.0,1.0,0.4063229560852051,3.965577753659467e-06,0.0,16.41961,1418.0,0.0,1569.0,5.0,1500.0,,,,,,,,,,,,,,,,
12.600184,-8.534126281738281,0.0,0.0,0.0,0.0,1.9826302924462796e-05,0.016506198793649673,1491.0,0.0,0.0,1019.0,0.0,-0.05305800926062762,0.0,5.0,4.784096717834473,0.0,1500.0,0.0,16.499943,0.0,0.0,0.0,1092.0,1500.0,7.579642706669689e-06,0.0,0.008028514559173916,0.0,0.0,1.0,0.4116693139076233,5.89249230309919e-06,0.0,16.519565,1418.0,0.0,1569.0,5.0,1500.0,,,,,,,,,,,,,,,,
12.700238,-8.588024139404297,0.0,0.0,0.0,0.0,1.72759775185697e-05,0.025761030614376068,1492.0,0.0,0.0,1020.0,0.0,-0.05305800926062762,0.0,5.0,4.7700300216674805,0.0,1500.0,0.0,16.580554,0.0,0.0,0.0,1092.0,1500.0,-5.138843132808393e-06,0.0,0.008028514559173916,0.0,0.0,1.0,0.2566250264644623,9.091921064212788e-06,0.0,16.619619,1418.0,0.0,1568.0,5.0,1500.0,,,,,,,,,,,,,,,,
12.80023,-8.578805923461914,0.0,0.0,0.0,0.0,1.7863416336960758e-05,0.02932094596326351,1491.0,0.0,0.0,1020.0,0.0,-0.05305800926062762,0.0,5.0,4.793014049530029,0.0,1500.0,0.0,16.699941,0.0,0.0,0.0,1093.0,1500.0,1.1951402712783681e-05,0.0,0.008028514559173916,0.0,0.0,1.0,0.40364977717399597,-6.710714575817306e-06,0.0,16.719611,1418.0,0.0,1568.0,5.0,1500.0,,,,,,,,,,,,,,,,
12.900239999999998,-10.159648895263672,0.0,0.0,0.0,0.0,-0.00038759881222091727,-0.030139680951833725,1491.0,0.0,0.0,1019.0,0.0,-0.05305800926062762,0.0,5.0,5.550053596496582,0.0,1500.0,0.0,16.77993,0.0,0.0,0.0,1092.0,1500.0,-6.132059259802313e-05,0.0,0.008028514559173916,0.0,0.0,1.0,0.4116693139076233,-0.006642735190552254,0.0,16.819620999999998,1418.0,0.0,1569.0,5.0,1500.0,,,,,,,,,,,,,,,,
13.000224000000001,-6.537394046783447,0.0,0.0,0.0,0.0,-0.0005078600085030944,0.07319605350494385,1491.0,0.0,0.0,1020.0,0.0,-0.05305800926062762,0.0,5.0,2.3557820320129395,0.0,1500.0,0.0,16.899849,0.0,0.0,0.0,1313.0,1500.0,-0.0002498840929929447,0.0,0.008028514559173916,0.0,0.0,1.0,0.35018622875213623,-0.020468993720510975,0.0,16.919605,1417.0,0.0,1568.0,5.0,1501.0,,,,,,,,,,,,,,,,
13.100222999999998,-9.47031021118164,0.0,0.0,0.0,0.0,-0.0002751720949111568,0.12709695100784302,1491.0,0.0,0.0,1019.0,0.0,-0.05305800926062762,0.0,5.0,2.6157405376434326,0.0,1500.0,0.0,16.979943,0.0,0.0,0.0,1509.0,1500.0,-0.00011797371255485375,0.0,0.008028514559173916,0.0,0.0,1.0,0.42770835757255554,-0.012635486385773238,0.0,17.019603999999998,1418.0,0.0,1568.0,5.0,1500.0,,,,,,,,,,,,,,,,
13.200189,-9.238282203674316,0.0,0.0,0.0,0.0,-0.0001096969284284933,0.26122477650642395,1491.0,0.0,0.0,1020.0,0.0,-0.05305800926062762,0.0,5.0,2.0989067554473877,0.0,1500.0,0.0,17.099932,0.0,0.0,0.0,1594.0,1500.0,-3.9047079673948924e-05,0.0,0.008028514559173916,0.0,0.0,1.0,0.47315236926078796,-0.0030623031386778398,0.0,17.11957,1417.0,0.0,1568.0,5.0,1501.0,,,,,,,,,,,,,,,,
13.300230999999998,-9.42149543762207,0.0,0.0,0.0,0.0,-0.00012062034267063727,0.1468791514635086,1491.0,0.0,0.0,1019.0,0.0,-0.05305800926062762,0.0,5.0,2.228023052215576,0.0,1500.0,0.0,17.179962,0.0,0.0,0.0,1602.0,1500.0,1.0776458025589597e-05,0.0,0.008028514559173916,0.0,0.0,1.0,0.4196888208389282,-8.99991672392621e-05,0.0,17.219611999999998,1418.0,0.0,1568.0,5.0,1500.0,,,,,,,,,,,,,,,,
13.400215000000001,-9.549901962280273,0.0,0.0,0.0,0.0,-4.4837390704914966e-05,0.04210827499628067,1491.0,0.0,0.0,1020.0,0.0,-0.05305800926062762,0.0,5.0,2.167585849761963,0.0,1500.0,0.0,17.299982999999997,0.0,0.0,0.0,1602.0,1500.0,-3.965229040721475e-06,0.0,0.008028514559173916,0.0,0.0,1.0,0.43305471539497375,-6.601551171580491e-07,0.0,17.319596,1418.0,0.0,1568.0,5.0,1500.0,,,,,,,,,,,,,,,,
13.500229,-9.52804183959961,0.0,0.0,0.0,0.0,6.787071889739256e-05,0.08669569343328476,1490.0,0.0,0.0,1019.0,0.0,-0.05305800926062762,0.0,5.0,2.170407772064209,0.0,1500.0,0.0,17.379856,0.0,0.0,0.0,1603.0,1501.0,-1.0654063594036909e-05,0.0,0.008028514559173916,0.0,0.0,1.0,0.5159232020378113,-2.639366575132658e-06,0.0,17.41961,1417.0,0.0,1569.0,5.0,1500.0,,,,,,,,,,,,,,,,
13.600214,-9.57948112487793,0.0,0.0,0.0,0.0,1.9037757570447147e-05,0.18334835767745972,1490.0,0.0,0.0,1019.0,0.0,-0.05305800926062762,0.0,5.0,2.2001476287841797,0.0,1501.0,0.0,17.499962999999997,0.0,0.0,0.0,1603.0,1500.0,-3.769611241661302e-06,0.0,0.008028514559173916,0.0,0.0,1.0,0.4517669677734375,4.078691290689137e-06,0.0,17.519595,1417.0,0.0,1569.0,5.0,1500.0,,,,,,,,,,,,,,,,
13.700239999999999,-9.71124267578125,0.0,0.0,0.0,0.0,-0.000116392200583294,0.14642079174518585,1491.0,0.0,0.0,1019.0,0.0,-0.05305800926062762,0.0,5.0,2.20462703704834,0.0,1500.0,0.0,17.580597,0.0,0.0,0.0,1605.0,1500.0,-7.969838642436306e-07,0.0,0.008028514559173916,0.0,0.0,1.0,0.379591166973114,-0.0013575355725833958,0.0,17.619621,1418.0,0.0,1568.0,5.0,1500.0,,,,,,,,,,,,,,,,
13.800187,-9.114936828613281,0.0,0.0,0.0,0.0,-0.00016868381721521082,0.09853476285934448,1491.0,0.0,0.0,1020.0,0.0,-0.05305800926062762,0.0,5.0,1.7747690677642822,0.0,1500.0,0.0,17.699913,0.0,0.0,0.0,1638.0,1500.0,-3.8502475909651075e-05,0.0,0.008028514559173916,0.0,0.0,1.0,0.4464206099510193,-0.004068960085599353,0.0,17.719568,1418.0,0.0,1568.0,5.0,1500.0,,,,,,,,,,,,,,,,
13.900208000000001,-8.948993682861328,0.0,0.0,0.0,0.0,-0.00011799007285537356,0.10390858352184296,1491.0,0.0,0.0,1019.0,0.0,-0.05305800926062762,0.0,5.0,1.3152059316635132,0.0,1500.0,0.0,17.779909,0.0,0.0,0.0,1687.0,1500.0,-5.378805991716718e-05,0.0,0.008028514559173916,0.0,0.0,1.0,0.4571133255958557,-0.005953722361386413,0.0,17.819589,1418.0,0.0,1568.0,5.0,1500.0,,,,,,,,,,,,,,,,
14.000254,-8.780165672302246,0.0,0.0,0.0,0.0,-0.00019268059887272577,0.2369833141565323,1491.0,0.0,0.0,1019.0,0.0,-0.05305800926062762,0.0,5.0,0.7266850471496582,0.0,1500.0,0.0,17.899953999999997,0.0,0.0,0.0,1781.0,1500.0,-0.00012949814230789667,0.0,0.008028514559173916,0.0,0.0,1.0,0.4170156419277191,-0.00887740406421075,0.0,17.919635,1418.0,0.0,1568.0,5.0,1500.0,,,,,,,,,,,,,,,,
14.100226000000001,-9.382967948913574,0.0,0.0,0.0,0.0,-0.0004579636113877164,0.28819358348846436,1491.0,0.0,0.0,1020.0,0.0,-0.05305800926062762,0.0,5.0,0.49972373247146606,0.0,1500.0,0.0,17.979945999999998,0.0,0.0,0.0,1843.0,1500.0,-0.00018012458430876496,0.0,0.008028514559173916,0.0,0.0,1.0,0.3341471552848816,-0.015112887828630246,0.0,18.019607,1418.0,0.0,1568.0,5.0,1500.0,,,,,,,,,,,,,,,,
14.200223,-9.509391784667969,0.0,0.0,0.0,0.0,-0.00021278699371810958,0.2039923071861267,1491.0,0.0,0.0,1020.0,0.0,-0.05305800926062762,0.0,5.0,0.012637821957468987,0.0,1500.0,0.0,18.099953,0.0,0.0,0.0,1986.0,1501.0,-6.682431797726074e-05,0.0,0.008028514559173916,0.0,0.0,1.0,0.5025573372840881,-0.007122037087590614,0.0,18.119604,1417.0,0.0,1569.0,5.0,1500.0,,,,,,,,,,,,,,,,
14.300247,-9.565362930297852,0.0,0.0,0.0,0.0,-0.00023426292370536735,0.13890790939331055,1491.0,0.0,0.0,1020.0,0.0,-0.05305800926062762,0.0,5.0,-0.28781870007514954,0.0,1500.0,0.0,18.179952,0.0,0.0,0.0,2065.0,1501.0,-9.356801278489297e-05,0.0,0.008028514559173916,0.0,0.0,1.0,0.3822643458843231,-0.007993073856371468,0.0,18.219628,1417.0,0.0,1568.0,5.0,1500.0,,,,,,,,,,,,,,,,
14.400208000000001,-9.802995681762695,0.0,0.0,0.0,0.0,7.197621968575726e-05,0.16073638200759888,1491.0,0.0,0.0,1020.0,0.0,-0.05305800926062762,0.0,5.0,-0.36298444867134094,0.0,1501.0,0.0,18.299951,0.0,0.0,0.0,2113.0,1500.0,-1.662271551393428e-05,0.0,0.008028514559173916,0.0,0.0,1.0,0.5212695598602295,-9.589095602099332e-05,0.0,18.319589,1417.0,0.0,1568.0,5.0,1500.0,,,,,,,,,,,,,,,,
14.500209,-9.788334846496582,0.0,0.0,0.0,0.0,1.8011093853401448e-05,0.2518913745880127,1491.0,0.0,0.0,1020.0,0.0,-0.05305800926062762,0.0,5.0,-0.367893248796463,0.0,1500.0,0.0,18.379963999999998,0.0,0.0,0.0,2113.0,1500.0,-1.91572231180953e-05,0.0,0.008028514559173916,0.0,0.0,1.0,0.3421666920185089,-1.2756271794367153e-05,0.0,18.41959,1418.0,0.0,1568.0,5.0,1500.0,,,,,,,,,,,,,,,,
14.600243999999998,-9.804500579833984,0.0,0.0,0.0,0.0,-5.5899266079600256e-05,0.23915860056877136,1491.0,0.0,0.0,1020.0,0.0,-0.05305800926062762,0.0,5.0,-0.3778117895126343,0.0,1500.0,0.0,18.499955999999997,0.0,0.0,0.0,2113.0,1500.0,2.4214752387664428e-05,0.0,0.008028514559173916,0.0,0.0,1.0,0.39830341935157776,-1.730483967317524e-05,0.0,18.519624999999998,1417.0,0.0,1569.0,5.0,1500.0,,,,,,,,,,,,,,,,
14.700224999999998,-9.918998718261719,0.0,0.0,0.0,0.0,1.7619517415686938e-05,0.15340161323547363,1491.0,0.0,0.0,1020.0,0.0,-0.05305800926062762,0.0,5.0,-0.29252856969833374,0.0,1500.0,0.0,18.580598,0.0,0.0,0.0,2112.0,1500.0,3.471127900695559e-05,0.0,0.008028514559173916,0.0,0.0,1.0,0.4945378005504608,0.0011272981443021025,0.0,18.619605999999997,1418.0,0.0,1569.0,5.0,1500.0,,,,,,,,,,,,,,,,
14.800208,-9.829974174499512,0.0,0.0,0.0,0.0,7.726514805434514e-05,0.18265703320503235,1490.0,0.0,0.0,1019.0,0.0,-0.05305800926062762,0.0,5.0,-0.3214517831802368,0.0,1500.0,0.0,18.699946,0.0,0.0,0.0,2103.0,1500.0,-1.1134566148579537e-05,0.0,0.008028514559173916,0.0,0.0,1.0,0.4116693139076233,0.000724038729024049,0.0,18.719589,1418.0,0.0,1569.0,5.0,1500.0,,,,,,,,,,,,,,,,
14.900229000000001,-9.838943481445312,0.0,0.0,0.0,0.0,-2.8836992414578277e-05,0.22404402494430542,1491.0,0.0,0.0,1020.0,0.0,-0.05305800926062762,0.0,5.0,-0.3189324140548706,0.0,1500.0,0.0,18.779933,0.0,0.0,0.0,2096.0,1500.0,-5.592076284804282e-05,0.0,0.008028514559173916,0.0,0.0,1.0,0.42770835757255554,-0.0013360772301223799,0.0,18.81961,1418.0,0.0,1568.0,5.0,1500.0,,,,,,,,,,,,,,,,
15.000178,-8.263734817504883,0.0,0.0,0.0,0.0,0.0005337179633049891,0.2439655214548111,1491.0,0.0,0.0,1020.0,0.0,-0.05305800926062762,0.0,5.0,-1.0556572675704956,0.0,1500.0,0.0,18.899943999999998,0.0,0.0,0.0,2088.0,1500.0,3.257262484406027e-05,0.0,0.008028514559173916,0.0,0.0,1.0,0.3769179880619049,0.010287893240111578,0.0,18.919559,1417.0,0.0,1568.0,5.0,1500.0,,,,,,,,,,,,,,,,
15.100219000000001,-10.725090980529785,0.0,0.0,0.0,0.0,0.0003275974547648093,0.13277892768383026,1491.0,0.0,0.0,1020.0,0.0,-0.05305800926062762,0.0,5.0,1.7762815952301025,0.0,1500.0,0.0,18.979972,0.0,0.0,0.0,1820.0,1500.0,0.0001247314431843165,0.0,0.008028514559173916,0.0,0.0,1.0,0.39830341935157776,0.0173569817958341,0.0,19.0196,1418.0,0.0,1568.0,5.0,1500.0,,,,,,,,,,,,,,,,
15.200256000000001,-8.895517349243164,0.0,0.0,0.0,0.0,0.00015177280931178897,0.19714894890785217,1491.0,0.0,0.0,1020.0,0.0,-0.05305800926062762,0.0,5.0,1.4453809261322021,0.0,1500.0,0.0,19.099911,0.0,0.0,0.0,1692.0,1500.0,8.753240290132449e-05,0.0,0.008028514559173916,0.0,0.0,1.0,0.5185964107513428,0.008529742948063117,0.0,19.119637,1418.0,0.0,1568.0,5.0,1500.0,,,,,,,,,,,,,,,,
15.300213000000001,-9.889063835144043,0.0,0.0,0.0,0.0,0.00011651303761664146,0.08302567154169083,1491.0,0.0,0.0,1019.0,0.0,-0.05305800926062762,0.0,5.0,2.017063856124878,0.0,1500.0,0.0,19.179859999999998,0.0,0.0,0.0,1646.0,1500.0,3.7816330757522796e-05,0.0,0.008028514559173916,0.0,0.0,1.0,0.39563024044036865,0.003643911513318625,0.0,19.219594,1418.0,0.0,1568.0,5.0,1500.0,,,,,,,,,,,,,,,,
15.400212999999999,-9.651531219482422,0.0,0.0,0.0,0.0,9.849179273723443e-06,0.1365586519241333,1491.0,0.0,0.0,1020.0,0.0,-0.05305800926062762,0.0,5.0,2.174576759338379,0.0,1500.0,0.0,19.299947,0.0,0.0,0.0,1609.0,1500.0,-7.369048029794185e-06,0.0,0.008028514559173916,0.0,0.0,1.0,0.3047422170639038,0.0013916116810059628,0.0,19.319594,1418.0,0.0,1568.0,5.0,1500.0,,,,,,,,,,,,,,,,
15.500262000000001,-9.624683380126953,0.0,0.0,0.0,0.0,-2.3959182631047118e-05,0.1171044185757637,1491.0,0.0,0.0,1020.0,0.0,-0.05305800926062762,0.0,5.0,2.1751322746276855,0.0,1500.0,0.0,19.379939,0.0,0.0,0.0,1602.0,1500.0,-1.4799936857728057e-05,0.0,0.008028514559173916,0.0,0.0,1.0,0.5747331380844116,9.368138284054418e-06,0.0,19.419643,1418.0,0.0,1568.0,5.0,1500.0,,,,,,,,,,,,,,,,
15.600174999999998,-9.614696502685547,0.0,0.0,0.0,0.0,-1.383660835027663e-05,0.09047773480415344,1491.0,0.0,0.0,1020.0,0.0,-0.05305800926062762,0.0,5.0,2.1744096279144287,0.0,1500.0,0.0,19.49995,0.0,0.0,0.0,1602.0,1500.0,-9.127414098195674e-06,0.0,0.008028514559173916,0.0,0.0,1.0,0.5292891263961792,-3.999888770152613e-06,0.0,19.519555999999998,1418.0,0.0,1568.0,5.0,1500.0,,,,,,,,,,,,,,,,
