time_index,acceleration_z,servos_1,servos_6,position_y,airspeed_0,axis_rate_roll,acceleration_y,tx_controls_2,position_z,velocity_y,tx_controls_0,servos_2,attitude_pitch,wind_x,mode_0,acceleration_x,wind_y,tx_controls_6,servos_3,time_actual,servos_0,velocity_z,servos_5,tx_controls_3,tx_controls_5,axis_rate_yaw,servos_7,attitude_roll,velocity_x,servos_4,mode_2,altitude_baro,axis_rate_pitch,position_x,time_flight,tx_controls_4,attitude_yaw,tx_controls_1,mode_1,tx_controls_7,current_0,current_1,magnetometer_0,rpm_1,global_position_latitude,airspeed_1,magnetometer_2,battery_1,rpm_0,current_2,magnetometer_1,current_3,battery_0,altitude_gps,gps_sat_count_0,global_position_longitude
0.0,-9.631811141967773,0.0,0.0,,0.0,-9.318419184482926e-05,0.0666404440999031,1491.0,,,1020.0,0.0,,,0.0,1.9602500200271606,,1500.0,0.0,,0.0,,0.0,1602.0,1500.0,-2.831311268812296e-07,0.0,,,0.0,0.0,0.4558683931827545,4.789667953339977e-06,,7.542542999999999,1418.0,,1568.0,0.0,1500.0,,,,,,,,,,,,,,,,
0.10000500000000034,-9.530001640319824,0.0,0.0,,0.0,-2.0088957674611218e-05,0.018474798649549484,1491.0,,,1019.0,0.0,,,0.0,1.9726173877716064,,1500.0,0.0,,0.0,,0.0,1602.0,1500.0,-1.3496173090416504e-05,0.0,,,0.0,0.0,0.0,-6.809366558084221e-06,,7.642548,1418.0,,1568.0,0.0,1500.0,,,,,,,,,,,,,,,,
0.20002500000000012,-9.653291702270508,0.0,0.0,,0.0,-2.4973866674488153e-05,0.052538178861141205,1490.0,,,1019.0,0.0,,,5.0,1.9786672592163086,,1500.0,0.0,,0.0,,0.0,1603.0,1500.0,1.266058831670275e-06,0.0,,,0.0,1.0,0.07554760575294495,-9.807553158876297e-06,,7.7425679999999995,1417.0,,1569.0,5.0,1500.0,,,,,,,,,,,,,,,,
0.30003400000000013,-9.547866821289062,0.0,0.0,,0.0,-8.786541994742433e-05,0.023658711463212967,1491.0,,,1020.0,0.0,,,5.0,1.980215072631836,,1500.0,0.0,,0.0,,0.0,1602.0,1500.0,2.3634000323994017e-06,0.0,,,0.0,1.0,-0.03237754479050636,9.618772723984864e-06,,7.8425769999999995,1418.0,,1568.0,5.0,1500.0,,,,,,,,,,,,,,,,
0.4000390000000005,-9.610350608825684,0.0,0.0,,0.0,2.1626529276195648e-05,0.06234683841466904,1491.0,,,1020.0,0.0,,,5.0,1.9749538898468018,,1500.0,0.0,,0.0,,0.0,1602.0,1500.0,-2.28718733402508e-06,0.0,,,0.0,1.0,0.13220831751823425,-1.0310713673086908e-05,,7.942582,1418.0,,1568.0,5.0,1500.0,,,,,,,,,,,,,,,,
0.5000120000000008,-9.588183403015137,0.0,0.0,,0.0,-0.00010980706177789412,0.03686439245939255,1491.0,,,1019.0,0.0,,,5.0,1.9775810241699219,,1500.0,0.0,,0.0,,0.0,1602.0,1500.0,-2.041568214113955e-06,0.0,,,0.0,1.0,0.1618877351284027,-2.357793195677544e-06,,8.042555,1418.0,,1568.0,5.0,1500.0,,,,,,,,,,,,,,,,
0.6000260000000006,-9.569549560546875,0.0,0.0,,0.0,3.63594065787193e-05,0.033559974282979965,1490.0,,,1020.0,0.0,,,5.0,1.9688493013381958,,1500.0,0.0,,0.0,,0.0,1603.0,1500.0,-8.623167570494275e-06,0.0,,,0.0,1.0,0.0512644462287426,-7.991422652608077e-06,,8.142569,1417.0,,1568.0,5.0,1501.0,,,,,,,,,,,,,,,,
0.7000420000000007,-9.615216255187988,0.0,0.0,,0.0,-7.485461666191001e-05,0.058939505368471146,1491.0,,,1020.0,0.0,,,5.0,1.9786609411239624,,1500.0,0.0,,0.0,,0.0,1602.0,1500.0,-1.1292572476209051e-05,0.0,,,0.0,1.0,0.1052270233631134,1.0968425132901263e-06,,8.242585,1418.0,,1568.0,5.0,1500.0,,,,,,,,,,,,,,,,
0.7999970000000003,-9.534936904907227,0.0,0.0,,0.0,-2.8865161714926832e-05,0.02011910080909729,1491.0,,,1019.0,0.0,,,5.0,1.9763624668121338,,1500.0,0.0,,0.0,,0.0,1602.0,1500.0,6.021794958915083e-07,0.0,,,0.0,1.0,0.005396257620304823,2.810795938075948e-06,,8.34254,1418.0,,1568.0,5.0,1500.0,,,,,,,,,,,,,,,,
0.900024000000001,-9.621110916137695,0.0,0.0,,0.0,-2.0421503335996634e-05,0.05784216523170471,1491.0,,,1019.0,0.0,,,5.0,1.9768998622894287,,1500.0,0.0,,0.0,,0.0,1602.0,1500.0,-8.192240922256977e-07,0.0,,,0.0,1.0,-0.02158503048121929,5.921173116817823e-06,,8.442567,1418.0,,1568.0,5.0,1500.0,,,,,,,,,,,,,,,,
1.0000729999999995,-9.552825927734375,0.0,0.0,0.0,0.0,-6.819718532142635e-05,0.03335483372211456,1490.0,0.0,0.0,1020.0,0.0,-0.05305800926062762,0.0,5.0,1.977783441543579,0.0,1500.0,0.0,8.523375999999999,0.0,0.0,0.0,1603.0,1501.0,1.1249165461783462e-05,0.0,0.008028514559173916,0.0,0.0,1.0,0.08903825283050537,-2.5925031627659672e-06,0.0,8.542615999999999,1417.0,0.0,1568.0,5.0,1500.0,,,,,,,,,,,,,,,,
1.1001319999999994,-9.60379409790039,0.0,0.0,0.0,0.0,1.3423289292609015e-06,0.049254391342401505,1491.0,0.0,0.0,1020.0,0.0,-0.05305800926062762,0.0,5.0,1.9753059148788452,0.0,1500.0,0.0,8.603417,0.0,0.0,0.0,1602.0,1500.0,5.398008975725066e-07,0.0,0.008028514559173916,0.0,0.0,1.0,0.14569894969463348,-7.09336403851287e-07,0.0,8.642674999999999,1418.0,0.0,1568.0,5.0,1500.0,,,,,,,,,,,,,,,,
1.2000719999999996,-9.587331771850586,0.0,0.0,0.0,0.0,-7.275867767509862e-05,0.04740781709551811,1491.0,0.0,0.0,1019.0,0.0,-0.05305800926062762,0.0,5.0,1.9563008546829224,0.0,1500.0,0.0,8.723495,0.0,0.0,0.0,1602.0,1500.0,4.905952670081058e-06,0.0,0.008028514559173916,0.0,0.0,1.0,0.1510952115058899,1.7921723019636382e-06,0.0,8.742614999999999,1418.0,0.0,1568.0,5.0,1500.0,,,,,,,,,,,,,,,,
1.3000660000000002,-9.57522201538086,0.0,0.0,0.0,0.0,6.8660932384384705e-06,0.05195659399032593,1490.0,0.0,0.0,1019.0,0.0,-0.05305800926062762,0.0,5.0,1.9743216037750244,0.0,1500.0,0.0,8.803105,0.0,0.0,0.0,1603.0,1500.0,-1.4023846625692835e-05,0.0,0.008028514559173916,0.0,0.0,1.0,0.07824573665857315,-5.685115030082741e-06,0.0,8.842609,1417.0,0.0,1569.0,5.0,1500.0,,,,,,,,,,,,,,,,
1.4000390000000005,-9.630943298339844,0.0,0.0,0.0,0.0,-6.420978672233315e-05,0.04508253186941147,1491.0,0.0,0.0,1020.0,0.0,-0.05305800926062762,0.0,5.0,1.9703128337860107,0.0,1500.0,0.0,8.922945,0.0,0.0,0.0,1602.0,1500.0,-1.1400754252255524e-05,0.0,0.008028514559173916,0.0,0.0,1.0,0.04317006096243858,6.4822743302054085e-06,0.0,8.942582,1418.0,0.0,1568.0,5.0,1500.0,,,,,,,,,,,,,,,,
1.5000550000000006,-9.564227104187012,0.0,0.0,0.0,0.0,-3.6665062993075514e-05,0.031034164130687714,1491.0,0.0,0.0,1020.0,0.0,-0.05305800926062762,0.0,5.0,1.973698377609253,0.0,1500.0,0.0,9.00358,0.0,0.0,0.0,1602.0,1500.0,4.739061686655682e-08,0.0,0.008028514559173916,0.0,0.0,1.0,-0.010792515240609646,1.2002888285935889e-05,0.0,9.042598,1418.0,0.0,1568.0,5.0,1500.0,,,,,,,,,,,,,,,,
1.6000590000000008,-9.632356643676758,0.0,0.0,0.0,0.0,-3.24448023768843e-05,0.043145813047885895,1491.0,0.0,0.0,1019.0,0.0,-0.05305800926062762,0.0,5.0,1.9736506938934326,0.0,1500.0,0.0,9.123211,0.0,0.0,0.0,1602.0,1500.0,7.166425240535354e-06,0.0,0.008028514559173916,0.0,0.0,1.0,0.08634012192487717,-4.896908991788255e-06,0.0,9.142602,1418.0,0.0,1568.0,5.0,1500.0,,,,,,,,,,,,,,,,
1.700119,-9.570708274841309,0.0,0.0,0.0,0.0,-6.464296082926548e-05,0.029808763414621353,1490.0,0.0,0.0,1019.0,0.0,-0.05305800926062762,0.0,5.0,1.9699242115020752,0.0,1500.0,0.0,9.20313,0.0,0.0,0.0,1603.0,1500.0,-1.769094388294949e-06,0.0,0.008028514559173916,0.0,0.0,1.0,0.03237754479050636,5.996519493392078e-06,0.0,9.242662,1417.0,0.0,1569.0,5.0,1500.0,,,,,,,,,,,,,,,,
1.8000499999999997,-9.599446296691895,0.0,0.0,0.0,0.0,-3.6662240780280927e-06,0.047137822955846786,1491.0,0.0,0.0,1019.0,0.0,-0.05305800926062762,0.0,5.0,1.9752845764160156,0.0,1500.0,0.0,9.322937999999999,0.0,0.0,0.0,1602.0,1500.0,8.982383041196993e-06,0.0,0.008028514559173916,0.0,0.0,1.0,0.09713263809680939,3.6832231353134106e-06,0.0,9.342592999999999,1418.0,0.0,1568.0,5.0,1500.0,,,,,,,,,,,,,,,,
1.9000560000000002,-9.600422859191895,0.0,0.0,0.0,0.0,-6.264116062085494e-05,0.04330485314130783,1491.0,0.0,0.0,1020.0,0.0,-0.05305800926062762,0.0,5.0,1.9863007068634033,0.0,1500.0,0.0,9.403101999999999,0.0,0.0,0.0,1602.0,1500.0,8.254497483746624e-06,0.0,0.008028514559173916,0.0,0.0,1.0,0.1510952115058899,-1.6098496598747219e-06,0.0,9.442599,1418.0,0.0,1568.0,5.0,1500.0,,,,,,,,,,,,,,,,
2.000052000000001,-9.570146560668945,0.0,0.0,0.0,0.0,6.410159072347201e-06,0.032202769070863724,1490.0,0.0,0.0,1020.0,0.0,-0.05305800926062762,0.0,5.0,1.967118740081787,0.0,1500.0,0.0,9.523316,0.0,0.0,0.0,1603.0,1501.0,4.511569258301956e-06,0.0,0.008028514559173916,0.0,0.0,1.0,0.1052270233631134,3.3767674495690947e-06,0.0,9.542595,1417.0,0.0,1568.0,5.0,1500.0,,,,,,,,,,,,,,,,
2.1000640000000006,-9.606849670410156,0.0,0.0,0.0,0.0,-4.0214394836993495e-05,0.05121355131268501,1491.0,0.0,0.0,1020.0,0.0,-0.05305800926062762,0.0,5.0,1.9737739562988281,0.0,1500.0,0.0,9.603572999999999,0.0,0.0,0.0,1602.0,1500.0,1.9296599336372646e-06,0.0,0.008028514559173916,0.0,0.0,1.0,0.0512644462287426,3.674625697830551e-06,0.0,9.642607,1418.0,0.0,1568.0,5.0,1500.0,,,,,,,,,,,,,,,,
2.1999839999999997,-9.562572479248047,0.0,0.0,0.0,0.0,-2.921510391047153e-05,0.02784467488527298,1491.0,0.0,0.0,1020.0,0.0,-0.05305800926062762,0.0,5.0,1.9591749906539917,0.0,1500.0,0.0,9.722913,0.0,0.0,0.0,1602.0,1500.0,-9.321690635037687e-06,0.0,0.008028514559173916,0.0,0.0,1.0,0.23743534088134766,-4.236317665984175e-06,0.0,9.742526999999999,1418.0,0.0,1568.0,5.0,1500.0,,,,,,,,,,,,,,,,
2.3000820000000006,-9.61640739440918,0.0,0.0,0.0,0.0,-2.664384658506092e-05,0.05807659029960632,1491.0,0.0,0.0,1019.0,0.0,-0.05305800926062762,0.0,5.0,1.9640411138534546,0.0,1500.0,0.0,9.803087999999999,0.0,0.0,0.0,1603.0,1500.0,4.804426663337583e-06,0.0,0.008028514559173916,0.0,0.0,1.0,0.08634012192487717,9.355714655449308e-06,0.0,9.842625,1417.0,0.0,1568.0,5.0,1500.0,,,,,,,,,,,,,,,,
2.400094,-9.588441848754883,0.0,0.0,0.0,0.0,-4.933954141216631e-05,0.02928279899060726,1491.0,0.0,0.0,1019.0,0.0,-0.05305800926062762,0.0,5.0,1.9698280096054077,0.0,1500.0,0.0,9.923036999999999,0.0,0.0,0.0,1602.0,1500.0,3.817293735765082e-06,0.0,0.008028514559173916,0.0,0.0,1.0,0.08634012192487717,2.8541986348613724e-06,0.0,9.942637,1418.0,0.0,1568.0,5.0,1500.0,,,,,,,,,,,,,,,,
2.500058,-9.589277267456055,0.0,0.0,0.0,0.0,-1.079257755417552e-05,0.057830117642879486,1491.0,0.0,0.0,1020.0,0.0,-0.05305800926062762,0.0,5.0,1.9695461988449097,0.0,1500.0,0.0,10.003568,0.0,0.0,0.0,1602.0,1500.0,4.5187015553907576e-07,0.0,0.008028514559173916,0.0,0.0,1.0,0.2077559232711792,-1.6151259685430452e-05,0.0,10.042601,1418.0,0.0,1568.0,5.0,1500.0,,,,,,,,,,,,,,,,
2.6000249999999996,-9.606694221496582,0.0,0.0,0.0,0.0,-6.89593737680472e-05,0.04029937833547592,1491.0,0.0,0.0,1020.0,0.0,-0.05305800926062762,0.0,5.0,1.9716218709945679,0.0,1500.0,0.0,10.122912999999999,0.0,0.0,0.0,1602.0,1500.0,8.777520666586952e-06,0.0,0.008028514559173916,0.0,0.0,1.0,0.14300082623958588,2.3085856856697774e-07,0.0,10.142567999999999,1418.0,0.0,1568.0,5.0,1500.0,,,,,,,,,,,,,,,,
2.7000520000000003,-9.585868835449219,0.0,0.0,0.0,0.0,-1.0915441338611972e-05,0.03976104408502579,1490.0,0.0,0.0,1019.0,0.0,-0.05305800926062762,0.0,5.0,1.9775513410568237,0.0,1501.0,0.0,10.203097999999999,0.0,0.0,0.0,1603.0,1500.0,-1.2718462473425427e-05,0.0,0.008028514559173916,0.0,0.0,1.0,0.12141579389572144,-7.477881515526666e-06,0.0,10.242595,1417.0,0.0,1569.0,5.0,1500.0,,,,,,,,,,,,,,,,
2.800052,-9.611149787902832,0.0,0.0,0.0,0.0,-4.643006961781312e-05,0.052532076835632324,1491.0,0.0,0.0,1020.0,0.0,-0.05305800926062762,0.0,5.0,1.9726263284683228,0.0,1500.0,0.0,10.322949,0.0,0.0,0.0,1602.0,1500.0,1.0497359669864075e-05,0.0,0.008028514559173916,0.0,0.0,1.0,0.19156715273857117,-4.6849981965990775e-06,0.0,10.342595,1418.0,0.0,1568.0,5.0,1500.0,,,,,,,,,,,,,,,,
2.9000060000000003,-9.576715469360352,0.0,0.0,0.0,0.0,-4.7212535734477154e-05,0.04556678235530853,1491.0,0.0,0.0,1019.0,0.0,-0.05305800926062762,0.0,5.0,1.9667561054229736,0.0,1500.0,0.0,10.4031,0.0,0.0,0.0,1602.0,1500.0,-3.9812863444932645e-06,0.0,0.008028514559173916,0.0,0.0,1.0,0.03777380287647247,-2.144762353833927e-07,0.0,10.442549,1418.0,0.0,1568.0,5.0,1500.0,,,,,,,,,,,,,,,,
3.000063,-9.604740142822266,0.0,0.0,0.0,0.0,-2.2684812342060174e-05,0.05471381917595863,1490.0,0.0,0.0,1019.0,0.0,-0.05305800926062762,0.0,5.0,1.9652470350265503,0.0,1500.0,0.0,10.523579999999999,0.0,0.0,0.0,1603.0,1500.0,-8.576422258285025e-06,0.0,0.008028514559173916,0.0,0.0,1.0,0.06475508958101273,-1.961199152134215e-06,0.0,10.542606,1417.0,0.0,1569.0,5.0,1500.0,,,,,,,,,,,,,,,,
3.100123000000001,-9.590607643127441,0.0,0.0,0.0,0.0,-5.661966383309004e-05,0.026588773354887962,1491.0,0.0,0.0,1020.0,0.0,-0.05305800926062762,0.0,5.0,1.9710110425949097,0.0,1500.0,0.0,10.603334,0.0,0.0,0.0,1602.0,1500.0,-2.941227783784276e-06,0.0,0.008028514559173916,0.0,0.0,1.0,0.17807650566101074,-5.803490500578775e-06,0.0,10.642666,1418.0,0.0,1568.0,5.0,1500.0,,,,,,,,,,,,,,,,
3.2000280000000005,-9.600680351257324,0.0,0.0,0.0,0.0,3.092068606592546e-06,0.03662438690662384,1492.0,0.0,0.0,1020.0,0.0,-0.05305800926062762,0.0,5.0,1.9794570207595825,0.0,1500.0,0.0,10.722947999999999,0.0,0.0,0.0,1602.0,1500.0,-2.911044177309563e-06,0.0,0.008028514559173916,0.0,0.0,1.0,0.16728398203849792,-1.6172126586366667e-05,0.0,10.742571,1418.0,0.0,1569.0,5.0,1500.0,,,,,,,,,,,,,,,,
3.3000490000000005,-9.447853088378906,0.0,0.0,0.0,0.0,-5.390940490818106e-05,0.03778139874339104,1493.0,0.0,0.0,1020.0,0.0,-0.05305800926062762,0.0,5.0,1.9021660089492798,0.0,1501.0,0.0,10.80298,0.0,0.0,0.0,1603.0,1500.0,8.862586305150339e-07,0.0,0.008028514559173916,0.0,0.0,1.0,0.09173637628555298,0.0004108566089380131,0.0,10.842592,1417.0,0.0,1570.0,5.0,1500.0,,,,,,,,,,,,,,,,
3.400061,-9.49010181427002,0.0,0.0,0.0,0.0,-1.5063005085416942e-05,0.024923570454120636,1498.0,0.0,0.0,1020.0,0.0,-0.05305800926062762,0.0,5.0,1.9894541501998901,0.0,1500.0,0.0,10.923036,0.0,0.0,0.0,1603.0,1500.0,-1.6891305241457064e-05,0.0,0.008028514559173916,0.0,0.0,1.0,0.1510952115058899,0.0007490437700764402,0.0,10.942604,1417.0,0.0,1577.0,5.0,1500.0,,,,,,,,,,,,,,,,
3.500122,-9.575021743774414,0.0,0.0,0.0,0.0,-5.1691852728707934e-05,0.00971442274749279,1505.0,0.0,0.0,1019.0,0.0,-0.05305800926062762,0.0,5.0,2.1472270488739014,0.0,1500.0,0.0,11.003518999999999,0.0,0.0,0.0,1602.0,1500.0,-6.270532684919147e-06,0.0,0.008028514559173916,0.0,0.0,1.0,0.2644166350364685,0.0008030816882742235,0.0,11.042665,1418.0,0.0,1584.0,5.0,1500.0,,,,,,,,,,,,,,,,
3.600041,-9.456809043884277,0.0,0.0,0.0,0.0,-4.653231133690857e-05,0.009780784137547016,1526.0,0.0,0.0,1020.0,0.0,-0.05305800926062762,0.0,5.0,2.2283878326416016,0.0,1500.0,0.0,11.122919,0.0,0.0,0.0,1603.0,1500.0,-3.235817730828502e-05,0.0,0.008028514559173916,0.0,0.0,1.0,0.16728398203849792,0.0017057966801992724,0.0,11.142584,1418.0,0.0,1608.0,5.0,1500.0,,,,,,,,,,,,,,,,
3.7000470000000005,-9.568597793579102,0.0,0.0,0.0,0.0,7.149195316490652e-05,0.043036457151174545,1548.0,0.0,0.0,1020.0,0.0,-0.05305800926062762,0.0,5.0,2.5533406734466553,0.0,1500.0,0.0,11.202945999999999,0.0,0.0,0.0,1603.0,1500.0,-9.412757082289e-05,0.0,0.008028514559173916,0.0,0.0,1.0,0.17807650566101074,0.007363373057662785,0.0,11.24259,1418.0,0.0,1633.0,5.0,1500.0,,,,,,,,,,,,,,,,
3.8000309999999997,-9.210515975952148,0.0,0.0,0.0,0.0,6.405044649787163e-05,0.0779486894607544,1596.0,0.0,0.0,1020.0,0.0,-0.05305800926062762,0.0,5.0,2.665303945541382,0.0,1500.0,0.0,11.322939,0.0,0.0,0.0,1603.0,1501.0,-4.465160010884804e-05,0.0,0.008028514559173916,0.0,0.0,1.0,0.14030270278453827,0.0051775071311286405,0.0,11.342573999999999,1417.0,0.0,1684.0,5.0,1500.0,,,,,,,,,,,,,,,,
3.900017000000001,-8.962634086608887,0.0,0.0,0.0,0.0,0.00013703446232111338,0.013170698657631874,1622.0,0.0,0.0,1019.0,0.0,-0.05305800926062762,0.0,5.0,3.0414276123046875,0.0,1500.0,0.0,11.402973,0.0,0.0,0.0,1603.0,1500.0,-9.596328106536775e-05,0.0,0.008028514559173916,0.0,0.0,1.0,0.08634012192487717,0.008928212184382419,0.0,11.44256,1418.0,0.0,1714.0,5.0,1500.0,,,,,,,,,,,,,,,,
4.000125,-8.729907989501953,0.0,0.0,0.0,0.0,0.00013278565245223914,-0.003284797305241227,1671.0,0.0,0.0,1020.0,0.0,-0.05305800926062762,0.0,5.0,3.287907123565674,0.0,1500.0,0.0,11.52356,0.0,0.0,0.0,1603.0,1500.0,-8.699324444321057e-05,0.0,0.008028514559173916,0.0,0.0,1.0,0.24013346433639526,0.005631891827217947,0.0,11.542667999999999,1418.0,0.0,1769.0,5.0,1500.0,,,,,,,,,,,,,,,,
4.100127,-8.746846199035645,0.0,0.0,0.0,0.0,2.195847351570403e-05,0.04157430678606033,1699.0,0.0,0.0,1019.0,0.0,-0.05305800926062762,0.0,5.0,3.5414066314697266,0.0,1500.0,0.0,11.603377,0.0,0.0,0.0,1603.0,1500.0,-0.0001060086031123996,0.0,0.008028514559173916,0.0,0.0,1.0,0.14839708805084229,0.0072760447805974545,0.0,11.642669999999999,1418.0,0.0,1801.0,5.0,1500.0,,,,,,,,,,,,,,,,
4.200114999999999,-9.157033920288086,0.0,0.0,0.0,0.0,9.032252902603879e-05,0.03583556413650513,1756.0,0.0,0.0,1020.0,0.0,-0.05305800926062762,0.0,5.0,4.058457851409912,0.0,1501.0,0.0,11.722937,0.0,0.0,0.0,1603.0,1500.0,-1.3827530130862512e-05,0.0,0.008028514559173916,0.0,0.0,1.0,0.22394469380378723,0.004216288289712003,0.0,11.742657999999999,1417.0,0.0,1864.0,5.0,1500.0,,,,,,,,,,,,,,,,
4.300038,-8.903054237365723,0.0,0.0,0.0,0.0,-6.058827612584865e-06,-0.009939327836036682,1767.0,0.0,0.0,1019.0,0.0,-0.05305800926062762,0.0,5.0,4.131507396697998,0.0,1500.0,0.0,11.802926999999999,0.0,0.0,0.0,1603.0,1500.0,4.69772212977657e-05,0.0,0.008028514559173916,0.0,0.0,1.0,0.3696436583995819,-1.0222136015217946e-05,0.0,11.842581,1418.0,0.0,1877.0,5.0,1500.0,,,,,,,,,,,,,,,,
4.400041000000001,-8.943044662475586,0.0,0.0,0.0,0.0,-7.649081738766636e-05,-0.01972905732691288,1767.0,0.0,0.0,1019.0,0.0,-0.05305800926062762,0.0,5.0,4.1702680587768555,0.0,1500.0,0.0,11.922982,0.0,0.0,0.0,1603.0,1500.0,-2.0137542809488215e-05,0.0,0.008028514559173916,0.0,0.0,1.0,0.09983076900243759,-4.1819000595899016e-05,0.0,11.942584,1418.0,0.0,1877.0,5.0,1500.0,,,,,,,,,,,,,,,,
4.500025,-8.962394714355469,0.0,0.0,0.0,0.0,-4.8238228236464675e-05,0.0302655678242445,1768.0,0.0,0.0,1020.0,0.0,-0.05305800926062762,0.0,5.0,4.101605415344238,0.0,1500.0,0.0,12.003343,0.0,0.0,0.0,1603.0,1500.0,-2.0753988042462075e-05,0.0,0.008028514559173916,0.0,0.0,1.0,0.22934095561504364,6.147215903835788e-05,0.0,12.042568,1418.0,0.0,1876.0,5.0,1500.0,,,,,,,,,,,,,,,,
4.600063,-8.854421615600586,0.0,0.0,0.0,0.0,-4.3529090875642355e-05,0.044750336557626724,1767.0,0.0,0.0,1020.0,0.0,-0.05305800926062762,0.0,5.0,4.052873134613037,0.0,1500.0,0.0,12.122943999999999,0.0,0.0,0.0,1604.0,1500.0,3.6197591584507028e-06,0.0,0.008028514559173916,0.0,0.0,1.0,0.10792515426874161,-4.8747864195006706e-05,0.0,12.142605999999999,1418.0,0.0,1876.0,5.0,1500.0,,,,,,,,,,,,,,,,
4.700063000000001,-8.896345138549805,0.0,0.0,0.0,0.0,4.350896660881443e-06,0.00841209851205349,1767.0,0.0,0.0,1019.0,0.0,-0.05305800926062762,0.0,5.0,4.097683906555176,0.0,1500.0,0.0,12.203123,0.0,0.0,0.0,1604.0,1500.0,1.2170449297270618e-05,0.0,0.008028514559173916,0.0,0.0,1.0,0.23203907907009125,-2.3406872133034464e-05,0.0,12.242606,1417.0,0.0,1877.0,5.0,1500.0,,,,,,,,,,,,,,,,
4.800059999999999,-8.948527336120605,0.0,0.0,0.0,0.0,-3.3783195650145836e-05,-0.01613357663154602,1767.0,0.0,0.0,1020.0,0.0,-0.05305800926062762,0.0,5.0,4.146650314331055,0.0,1500.0,0.0,12.323334,0.0,0.0,0.0,1604.0,1500.0,3.888216563001387e-06,0.0,0.008028514559173916,0.0,0.0,1.0,0.06475508958101273,-1.1506015271720128e-05,0.0,12.342602999999999,1418.0,0.0,1876.0,5.0,1500.0,,,,,,,,,,,,,,,,
4.900042999999999,-8.907120704650879,0.0,0.0,0.0,0.0,-5.873698986948804e-05,0.0010857884772121906,1768.0,0.0,0.0,1020.0,0.0,-0.05305800926062762,0.0,5.0,4.103324890136719,0.0,1500.0,0.0,12.402985,0.0,0.0,0.0,1603.0,1500.0,-9.867570388993564e-06,0.0,0.008028514559173916,0.0,0.0,1.0,0.12681205570697784,1.4661536680106721e-05,0.0,12.442585999999999,1418.0,0.0,1876.0,5.0,1500.0,,,,,,,,,,,,,,,,
5.00003,-8.891072273254395,0.0,0.0,0.0,0.0,-4.337311536276316e-05,0.03077206015586853,1767.0,0.0,0.0,1019.0,0.0,-0.05305800926062762,0.0,5.0,4.079106330871582,0.0,1500.0,0.0,12.523358,0.0,0.0,0.0,1604.0,1500.0,-1.400632411803228e-05,0.0,0.008028514559173916,0.0,0.0,1.0,0.09443450719118118,9.343509829609006e-07,0.0,12.542572999999999,1417.0,0.0,1877.0,5.0,1501.0,,,,,,,,,,,,,,,,
5.100116000000001,-8.889577865600586,0.0,0.0,0.0,0.0,-2.0429917146783084e-05,0.014973162673413754,1767.0,0.0,0.0,1020.0,0.0,-0.05305800926062762,0.0,5.0,4.087678909301758,0.0,1500.0,0.0,12.603551,0.0,0.0,0.0,1604.0,1500.0,5.267007963451523e-06,0.0,0.008028514559173916,0.0,0.0,1.0,0.2023596614599228,-1.6443127080974245e-05,0.0,12.642659,1418.0,0.0,1876.0,5.0,1500.0,,,,,,,,,,,,,,,,
5.200043,-8.910287857055664,0.0,0.0,0.0,0.0,-2.2290411659720413e-05,5.9560101362876594e-05,1767.0,0.0,0.0,1019.0,0.0,-0.05305800926062762,0.0,5.0,4.118268013000488,0.0,1500.0,0.0,12.722945,0.0,0.0,0.0,1604.0,1500.0,8.461826119816514e-07,0.0,0.008028514559173916,0.0,0.0,1.0,0.09983076900243759,-1.1595861807839786e-05,0.0,12.742586,1417.0,0.0,1877.0,5.0,1500.0,,,,,,,,,,,,,,,,
5.300121,-9.05510425567627,0.0,0.0,0.0,0.0,-4.660060522924236e-05,-0.001228166394867003,1767.0,0.0,0.0,1019.0,0.0,-0.05305800926062762,0.0,5.0,4.179332256317139,0.0,1500.0,0.0,12.803065,0.0,0.0,0.0,1603.0,1500.0,-2.658361144110476e-06,0.0,0.008028514559173916,0.0,0.0,1.0,0.39932307600975037,-0.00021909215438510572,0.0,12.842664,1418.0,0.0,1877.0,5.0,1500.0,,,,,,,,,,,,,,,,
5.400041000000001,-8.719902038574219,0.0,0.0,0.0,0.0,-0.00015805844814974953,0.055820342153310776,1701.0,0.0,0.0,1020.0,0.0,-0.05305800926062762,0.0,5.0,3.3616483211517334,0.0,1500.0,0.0,12.922948,0.0,0.0,0.0,1603.0,1500.0,9.404711845585297e-05,0.0,0.008028514559173916,0.0,0.0,1.0,0.3237754702568054,-0.01068245824066093,0.0,12.942584,1418.0,0.0,1802.0,5.0,1500.0,,,,,,,,,,,,,,,,
5.500115,-9.499500274658203,0.0,0.0,0.0,0.0,-0.00026858540378712836,0.01529858447611332,1657.0,0.0,0.0,1020.0,0.0,-0.05305800926062762,0.0,5.0,3.3634262084960938,0.0,1500.0,0.0,13.003342,0.0,0.0,0.0,1603.0,1500.0,3.960944976558721e-05,0.0,0.008028514559173916,0.0,0.0,1.0,0.39662492275238037,-0.00502606117022505,0.0,13.042658,1418.0,0.0,1753.0,5.0,1500.0,,,,,,,,,,,,,,,,
5.600033000000001,-9.4586820602417,0.0,0.0,0.0,0.0,-6.663329744906043e-05,0.014142416417598724,1588.0,0.0,0.0,1020.0,0.0,-0.05305800926062762,0.0,5.0,2.8687524795532227,0.0,1500.0,0.0,13.122943999999999,0.0,0.0,0.0,1603.0,1500.0,0.00014396230594122692,0.0,0.008028514559173916,0.0,0.0,1.0,0.22664281725883484,-0.010715723827449002,0.0,13.142576,1418.0,0.0,1676.0,5.0,1500.0,,,,,,,,,,,,,,,,
5.700061000000001,-9.7749605178833,0.0,0.0,0.0,0.0,-0.0003033802763713301,0.06019412726163864,1552.0,0.0,0.0,1020.0,0.0,-0.05305800926062762,0.0,5.0,2.4259564876556396,0.0,1500.0,0.0,13.203087,0.0,0.0,0.0,1603.0,1500.0,0.00012439972650984268,0.0,0.008028514559173916,0.0,0.0,1.0,0.19156715273857117,-0.008579630405123566,0.0,13.242604,1418.0,0.0,1638.0,5.0,1500.0,,,,,,,,,,,,,,,,
5.8000739999999995,-9.65951156616211,0.0,0.0,0.0,0.0,2.636727785851413e-05,-0.04633713886141777,1507.0,0.0,0.0,1020.0,0.0,-0.05305800926062762,0.0,5.0,2.1885976791381836,0.0,1500.0,0.0,13.322963999999999,0.0,0.0,0.0,1603.0,1500.0,4.5386269440933346e-05,0.0,0.008028514559173916,0.0,0.0,1.0,0.22664281725883484,-0.001992054118129303,0.0,13.342616999999999,1418.0,0.0,1585.0,5.0,1500.0,,,,,,,,,,,,,,,,
5.900144,-9.770875930786133,0.0,0.0,0.0,0.0,-4.623113307733945e-05,0.06798908114433289,1497.0,0.0,0.0,1020.0,0.0,-0.05305800926062762,0.0,5.0,2.0091283321380615,0.0,1500.0,0.0,13.403013,0.0,0.0,0.0,1603.0,1500.0,-1.0403955398248865e-05,0.0,0.008028514559173916,0.0,0.0,1.0,0.21854843199253082,-0.0008409869360053364,0.0,13.442687,1418.0,0.0,1575.0,5.0,1500.0,,,,,,,,,,,,,,,,
6.000564,-9.43619155883789,0.0,0.0,0.0,0.0,-0.00019456062740568264,0.013355394825339317,1492.0,0.0,0.0,1020.0,0.0,-0.05305800926062762,0.0,5.0,1.9812180995941162,0.0,1500.0,0.0,13.523354,0.0,0.0,0.0,1603.0,1500.0,-1.1215895250548795e-05,0.0,0.008028514559173916,0.0,0.0,1.0,0.21315217018127441,-8.263513833916973e-05,0.0,13.543107,1418.0,0.0,1569.0,5.0,1500.0,,,,,,,,,,,,,,,,
6.100116000000001,-9.611978530883789,0.0,0.0,0.0,0.0,0.00016508646914900222,0.09600058943033218,1491.0,0.0,0.0,1020.0,0.0,-0.05305800926062762,0.0,5.0,1.9056789875030518,0.0,1500.0,0.0,13.603537,0.0,0.0,0.0,1602.0,1500.0,-3.5622888280728252e-06,0.0,0.008028514559173916,0.0,0.0,1.0,0.21585030853748322,-4.820927464947918e-05,0.0,13.642659,1418.0,0.0,1568.0,5.0,1500.0,,,,,,,,,,,,,,,,
6.200024999999999,-9.628127098083496,0.0,0.0,0.0,0.0,-0.00019433839389479664,0.03407517075538635,1491.0,0.0,0.0,1019.0,0.0,-0.05305800926062762,0.0,5.0,1.972663164138794,0.0,1500.0,0.0,13.722982,0.0,0.0,0.0,1603.0,1500.0,1.2585424296930737e-05,0.0,0.008028514559173916,0.0,0.0,1.0,0.2536241114139557,2.6180830981142197e-05,0.0,13.742567999999999,1417.0,0.0,1568.0,5.0,1500.0,,,,,,,,,,,,,,,,
6.3000549999999995,-9.566913604736328,0.0,0.0,0.0,0.0,0.00010725596021268675,-0.0031895372085273266,1490.0,0.0,0.0,1019.0,0.0,-0.05305800926062762,0.0,5.0,1.974795937538147,0.0,1500.0,0.0,13.802947,0.0,0.0,0.0,1603.0,1500.0,-7.697065248583533e-06,0.0,0.008028514559173916,0.0,0.0,1.0,0.2509259879589081,4.203750366568289e-05,0.0,13.842597999999999,1417.0,0.0,1569.0,5.0,1501.0,,,,,,,,,,,,,,,,
6.400128,-9.67595100402832,0.0,0.0,0.0,0.0,-0.00016020755608141962,0.08264698088169098,1491.0,0.0,0.0,1020.0,0.0,-0.05305800926062762,0.0,5.0,1.9351154565811157,0.0,1500.0,0.0,13.922939999999999,0.0,0.0,0.0,1602.0,1500.0,6.1068931067691204e-06,0.0,0.008028514559173916,0.0,0.0,1.0,0.23203907907009125,1.419702463290275e-05,0.0,13.942670999999999,1418.0,0.0,1568.0,5.0,1500.0,,,,,,,,,,,,,,,,
6.500056,-9.350931167602539,0.0,0.0,0.0,0.0,5.498378108883286e-06,0.01727355271577835,1491.0,0.0,0.0,1020.0,0.0,-0.05305800926062762,0.0,5.0,1.916365146636963,0.0,1500.0,0.0,14.003534,0.0,0.0,0.0,1602.0,1500.0,3.5526823326856378e-06,0.0,0.008028514559173916,0.0,0.0,1.0,0.29679417610168457,0.00012879407234563602,0.0,14.042599,1418.0,0.0,1568.0,5.0,1500.0,,,,,,,,,,,,,,,,
6.600115,-9.770269393920898,0.0,0.0,0.0,0.0,2.5911003868744033e-05,0.07895252853631973,1491.0,0.0,0.0,1019.0,0.0,-0.05305800926062762,0.0,5.0,1.98529052734375,0.0,1500.0,0.0,14.123037,0.0,0.0,0.0,1603.0,1500.0,1.2979012247004238e-05,0.0,0.008028514559173916,0.0,0.0,1.0,0.22664281725883484,-0.00011825339810964164,0.0,14.142657999999999,1417.0,0.0,1568.0,5.0,1500.0,,,,,,,,,,,,,,,,
6.700062,-9.565290451049805,0.0,0.0,0.0,0.0,-0.00013031883122304288,-0.01224175002425909,1491.0,0.0,0.0,1020.0,0.0,-0.05305800926062762,0.0,5.0,1.9908299446105957,0.0,1500.0,0.0,14.203073,0.0,0.0,0.0,1602.0,1500.0,-2.0202452941827198e-06,0.0,0.008028514559173916,0.0,0.0,1.0,0.22124655544757843,4.918321642441262e-05,0.0,14.242605,1418.0,0.0,1568.0,5.0,1500.0,,,,,,,,,,,,,,,,
6.800014999999999,-9.556411743164062,0.0,0.0,0.0,0.0,8.02293045392336e-05,0.05272911116480827,1490.0,0.0,0.0,1020.0,0.0,-0.05305800926062762,0.0,5.0,1.9505279064178467,0.0,1500.0,0.0,14.32294,0.0,0.0,0.0,1603.0,1500.0,-1.581916001087615e-05,0.0,0.008028514559173916,0.0,0.0,1.0,0.2509259879589081,-7.181100747067202e-05,0.0,14.342557999999999,1417.0,0.0,1568.0,5.0,1500.0,,,,,,,,,,,,,,,,
6.900053000000001,-9.606117248535156,0.0,0.0,0.0,0.0,-0.00017847064163763616,0.03927344083786011,1489.0,0.0,0.0,1019.0,0.0,-0.05305800926062762,0.0,5.0,1.920596957206726,0.0,1500.0,0.0,14.402972,0.0,0.0,0.0,1603.0,1500.0,6.391737987574763e-06,0.0,0.008028514559173916,0.0,0.0,1.0,0.17807650566101074,-0.00030273577968418624,0.0,14.442596,1417.0,0.0,1568.0,5.0,1500.0,,,,,,,,,,,,,,,,
7.000058999999999,-9.601597785949707,0.0,0.0,0.0,0.0,7.458764223976642e-05,0.046534307301044464,1482.0,0.0,0.0,1020.0,0.0,-0.05305800926062762,0.0,5.0,1.9119908809661865,0.0,1500.0,0.0,14.523315,0.0,0.0,0.0,1603.0,1500.0,7.517032860623052e-06,0.0,0.008028514559173916,0.0,0.0,1.0,0.29139789938926697,-0.0013484762735764353,0.0,14.542601999999999,1417.0,0.0,1560.0,5.0,1500.0,,,,,,,,,,,,,,,,
7.1000559999999995,-9.787019729614258,0.0,0.0,0.0,0.0,-0.0001633398424902292,0.08006656914949417,1473.0,0.0,0.0,1020.0,0.0,-0.05305800926062762,0.0,5.0,1.7716273069381714,0.0,1500.0,0.0,14.603534,0.0,0.0,0.0,1602.0,1500.0,6.061168281511693e-05,0.0,0.008028514559173916,0.0,0.0,1.0,0.3210773169994354,-0.003919209289147436,0.0,14.642598999999999,1418.0,0.0,1549.0,5.0,1500.0,,,,,,,,,,,,,,,,
7.2000839999999995,-9.73498249053955,0.0,0.0,0.0,0.0,-0.0001453723314046059,0.02151454985141754,1447.0,0.0,0.0,1020.0,0.0,-0.05305800926062762,0.0,5.0,1.5846034288406372,0.0,1500.0,0.0,14.722923,0.0,0.0,0.0,1602.0,1501.0,6.082052249825498e-05,0.0,0.008028514559173916,0.0,0.0,1.0,0.14030270278453827,-0.004934010983711333,0.0,14.742626999999999,1417.0,0.0,1520.0,5.0,1500.0,,,,,,,,,,,,,,,,
7.300071999999999,-10.121075630187988,0.0,0.0,0.0,0.0,-0.00010004516385407496,0.08644892275333405,1422.0,0.0,0.0,1020.0,0.0,-0.05305800926062762,0.0,5.0,1.4463038444519043,0.0,1500.0,0.0,14.803047999999999,0.0,0.0,0.0,1603.0,1500.0,3.478113740890192e-05,0.0,0.008028514559173916,0.0,0.0,1.0,0.34266236424446106,-0.004445993475886768,0.0,14.842614999999999,1417.0,0.0,1494.0,5.0,1500.0,,,,,,,,,,,,,,,,
7.400011,-9.830376625061035,0.0,0.0,0.0,0.0,-0.0002701138118324107,0.022133221849799156,1379.0,0.0,0.0,1019.0,0.0,-0.05305800926062762,0.0,5.0,1.1186106204986572,0.0,1500.0,0.0,14.922977,0.0,0.0,0.0,1602.0,1500.0,7.444243136575383e-05,0.0,0.008028514559173916,0.0,0.0,1.0,0.22124655544757843,-0.00745700917741159,0.0,14.942554,1418.0,0.0,1447.0,5.0,1500.0,,,,,,,,,,,,,,,,
7.500134999999999,-10.134135246276855,0.0,0.0,0.0,0.0,-0.0002438070662730876,0.08781711757183075,1355.0,0.0,0.0,1020.0,0.0,-0.05305800926062762,0.0,5.0,0.7654101848602295,0.0,1500.0,0.0,15.00334,0.0,0.0,0.0,1602.0,1500.0,0.00017077379074718785,0.0,0.008028514559173916,0.0,0.0,1.0,0.3723417818546295,-0.01520835279103388,0.0,15.042677999999999,1418.0,0.0,1420.0,5.0,1500.0,,,,,,,,,,,,,,,,
7.600046,-9.827339172363281,0.0,0.0,0.0,0.0,-0.00023720285264139862,-0.012789364904165268,1246.0,0.0,0.0,1019.0,0.0,-0.05305800926062762,0.0,5.0,0.02967097982764244,0.0,1500.0,0.0,15.122931,0.0,0.0,0.0,1604.0,1500.0,4.548617861842463e-05,0.0,0.008028514559173916,0.0,0.0,1.0,0.3183791935443878,-0.0060859587124818555,0.0,15.142589,1418.0,0.0,1302.0,5.0,1500.0,,,,,,,,,,,,,,,,
7.699981999999999,-9.807908058166504,0.0,0.0,0.0,0.0,-4.069850693871365e-05,0.11187467724084854,1199.0,0.0,0.0,1020.0,0.0,-0.05305800926062762,0.0,5.0,-0.4523967206478119,0.0,1500.0,0.0,15.202976,0.0,0.0,0.0,1605.0,1500.0,-4.682298096827497e-05,0.0,0.008028514559173916,0.0,0.0,1.0,0.4074174463748932,-0.001487103431065092,0.0,15.242524999999999,1418.0,0.0,1251.0,5.0,1500.0,,,,,,,,,,,,,,,,
7.800063000000001,-9.614113807678223,0.0,0.0,0.0,0.0,-0.00015581046321056633,0.14741641283035278,1193.0,0.0,0.0,1019.0,0.0,-0.05305800926062762,0.0,5.0,-0.5366000533103943,0.0,1500.0,0.0,15.323087,0.0,0.0,0.0,1604.0,1500.0,3.1041843620560436e-05,0.0,0.008028514559173916,0.0,0.0,1.0,0.4694744050502777,-1.603633019974336e-05,0.0,15.342606,1418.0,0.0,1245.0,5.0,1500.0,,,,,,,,,,,,,,,,
7.900009999999999,-9.722000122070312,0.0,0.0,0.0,0.0,0.00010810698029600977,0.054872311651706696,1193.0,0.0,0.0,1020.0,0.0,-0.05305800926062762,0.0,5.0,-0.47423022985458374,0.0,1500.0,0.0,15.403037999999999,0.0,0.0,0.0,1605.0,1500.0,-1.9084664413194315e-05,0.0,0.008028514559173916,0.0,0.0,1.0,0.33726608753204346,-3.2910949031858784e-05,0.0,15.442552999999998,1418.0,0.0,1244.0,5.0,1500.0,,,,,,,,,,,,,,,,
8.000032000000001,-9.922900199890137,0.0,0.0,0.0,0.0,-0.00010077904483586198,0.05867466703057289,1193.0,0.0,0.0,1020.0,0.0,-0.05305800926062762,0.0,5.0,-0.45726045966148376,0.0,1500.0,0.0,15.523342,0.0,0.0,0.0,1604.0,1500.0,8.493292446388334e-06,0.0,0.008028514559173916,0.0,0.0,1.0,0.43170061707496643,-2.4981977742505424e-06,0.0,15.542575,1417.0,0.0,1244.0,5.0,1501.0,,,,,,,,,,,,,,,,
8.100086999999998,-9.70222282409668,0.0,0.0,0.0,0.0,-8.228811791612224e-05,0.05451512709259987,1193.0,0.0,0.0,1019.0,0.0,-0.05305800926062762,0.0,5.0,-0.44184476137161255,0.0,1500.0,0.0,15.603546,0.0,0.0,0.0,1603.0,1500.0,-2.441592241799732e-06,0.0,0.008028514559173916,0.0,0.0,1.0,0.33456796407699585,-6.565845760497278e-05,0.0,15.642629999999999,1418.0,0.0,1245.0,5.0,1500.0,,,,,,,,,,,,,,,,
8.200047000000001,-9.768160820007324,0.0,0.0,0.0,0.0,-2.7145460876134973e-05,0.12447786331176758,1193.0,0.0,0.0,1019.0,0.0,-0.05305800926062762,0.0,5.0,-0.5326036214828491,0.0,1500.0,0.0,15.722983999999999,0.0,0.0,0.0,1604.0,1500.0,-3.719007736996818e-06,0.0,0.008028514559173916,0.0,0.0,1.0,0.3615492582321167,-7.358341399693082e-05,0.0,15.74259,1418.0,0.0,1245.0,5.0,1500.0,,,,,,,,,,,,,,,,
8.30012,-9.716644287109375,0.0,0.0,0.0,0.0,-6.728846937452156e-05,0.08636999130249023,1193.0,0.0,0.0,1019.0,0.0,-0.05305800926062762,0.0,5.0,-0.47845402359962463,0.0,1500.0,0.0,15.803104,0.0,0.0,0.0,1604.0,1500.0,2.238862425860588e-05,0.0,0.008028514559173916,0.0,0.0,1.0,0.39122867584228516,4.9134200541434506e-05,0.0,15.842663,1418.0,0.0,1245.0,5.0,1500.0,,,,,,,,,,,,,,,,
8.400043,-9.882311820983887,0.0,0.0,0.0,0.0,5.4761944800841986e-05,0.07119552791118622,1194.0,0.0,0.0,1020.0,0.0,-0.05305800926062762,0.0,5.0,-0.4587184488773346,0.0,1500.0,0.0,15.922941,0.0,0.0,0.0,1603.0,1500.0,-2.7512846337944266e-05,0.0,0.008028514559173916,0.0,0.0,1.0,0.22664281725883484,-7.970742476910036e-05,0.0,15.942585999999999,1418.0,0.0,1244.0,5.0,1500.0,,,,,,,,,,,,,,,,
8.500116000000002,-9.806157112121582,0.0,0.0,0.0,0.0,-0.00011521324303053525,0.06602014601230621,1194.0,0.0,0.0,1020.0,0.0,-0.05305800926062762,0.0,5.0,-0.4645104706287384,0.0,1500.0,0.0,16.003343,0.0,0.0,0.0,1603.0,1500.0,1.939201131066435e-05,0.0,0.008028514559173916,0.0,0.0,1.0,0.3237754702568054,2.532751289733633e-05,0.0,16.042659,1418.0,0.0,1244.0,5.0,1500.0,,,,,,,,,,,,,,,,
8.600038000000001,-9.700033187866211,0.0,0.0,0.0,0.0,1.7116367568587321e-06,0.07715320587158203,1193.0,0.0,0.0,1019.0,0.0,-0.05305800926062762,0.0,5.0,-0.47178852558135986,0.0,1500.0,0.0,16.122942,0.0,0.0,0.0,1604.0,1500.0,-1.8852174221108113e-05,0.0,0.008028514559173916,0.0,0.0,1.0,0.42630434036254883,-6.415289952735631e-06,0.0,16.142581,1417.0,0.0,1245.0,5.0,1500.0,,,,,,,,,,,,,,,,
8.700012000000001,-9.802701950073242,0.0,0.0,0.0,0.0,-6.296745637111281e-05,0.10958046466112137,1193.0,0.0,0.0,1020.0,0.0,-0.05305800926062762,0.0,5.0,-0.5077389478683472,0.0,1500.0,0.0,16.20308,0.0,0.0,0.0,1604.0,1500.0,2.5069656315304834e-06,0.0,0.008028514559173916,0.0,0.0,1.0,0.307586669921875,-5.146674214559937e-05,0.0,16.242555,1418.0,0.0,1244.0,5.0,1500.0,,,,,,,,,,,,,,,,
8.800092,-9.71476936340332,0.0,0.0,0.0,0.0,-1.3521069111562698e-05,0.0627562403678894,1193.0,0.0,0.0,1019.0,0.0,-0.05305800926062762,0.0,5.0,-0.4513661563396454,0.0,1500.0,0.0,16.322941,0.0,0.0,0.0,1603.0,1500.0,4.008621832332404e-06,0.0,0.008028514559173916,0.0,0.0,1.0,0.27790728211402893,0.0001622358594890329,0.0,16.342634999999998,1418.0,0.0,1245.0,5.0,1500.0,,,,,,,,,,,,,,,,
8.900056,-8.375133514404297,0.0,0.0,0.0,0.0,0.00040576718195882395,0.17203757166862488,1196.0,0.0,0.0,1019.0,0.0,-0.05305800926062762,0.0,5.0,-0.886055588722229,0.0,1500.0,0.0,16.403055,0.0,0.0,0.0,1604.0,1500.0,-0.00019457107914262674,0.0,0.008028514559173916,0.0,0.0,1.0,0.33186984062194824,0.017450734428880597,0.0,16.442598999999998,1418.0,0.0,1248.0,5.0,1500.0,,,,,,,,,,,,,,,,
9.000056,-10.004905700683594,0.0,0.0,0.0,0.0,0.000235981738665989,-0.02918180823326111,1321.0,0.0,0.0,1020.0,0.0,-0.05305800926062762,0.0,5.0,0.7292708158493042,0.0,1500.0,0.0,16.52358,0.0,0.0,0.0,1606.0,1500.0,-0.00015659640782132993,0.0,0.008028514559173916,0.0,0.0,1.0,0.3615492582321167,0.01664233708147355,0.0,16.542599,1417.0,0.0,1384.0,5.0,1500.0,,,,,,,,,,,,,,,,
9.100088,-10.214424133300781,0.0,0.0,0.0,0.0,0.00010776366593209642,-0.08593105524778366,1411.0,0.0,0.0,1019.0,0.0,-0.05305800926062762,0.0,5.0,1.652352213859558,0.0,1500.0,0.0,16.603355999999998,0.0,0.0,0.0,1604.0,1500.0,-0.00015582611643401447,0.0,0.008028514559173916,0.0,0.0,1.0,0.28600165247917175,0.010230461547025638,0.0,16.642630999999998,1418.0,0.0,1481.0,5.0,1500.0,,,,,,,,,,,,,,,,
9.200054000000002,-9.621685028076172,0.0,0.0,0.0,0.0,-7.854049565388225e-05,0.18667910993099213,1479.0,0.0,0.0,1020.0,0.0,-0.05305800926062762,0.0,5.0,1.6640812158584595,0.0,1500.0,0.0,16.722948,0.0,0.0,0.0,1603.0,1500.0,-0.0001377453754890559,0.0,0.008028514559173916,0.0,0.0,1.0,0.3723417818546295,0.007512907472276132,0.0,16.742597,1417.0,0.0,1556.0,5.0,1500.0,,,,,,,,,,,,,,,,
9.300032999999999,-9.361952781677246,0.0,0.0,0.0,0.0,0.00010928466185911048,0.09294910728931427,1489.0,0.0,0.0,1019.0,0.0,-0.05305800926062762,0.0,5.0,1.8039581775665283,0.0,1500.0,0.0,16.803076,0.0,0.0,0.0,1602.0,1500.0,1.396900243645031e-05,0.0,0.008028514559173916,0.0,0.0,1.0,0.2077559232711792,0.00023735117627999097,0.0,16.842575999999998,1418.0,0.0,1566.0,5.0,1500.0,,,,,,,,,,,,,,,,
9.400046,-9.799659729003906,0.0,0.0,0.0,0.0,5.210655343122819e-05,-0.03574792668223381,1491.0,0.0,0.0,1020.0,0.0,-0.05305800926062762,0.0,5.0,2.073300361633301,0.0,1500.0,0.0,16.92288,0.0,0.0,0.0,1602.0,1500.0,2.223340661856497e-05,0.0,0.008028514559173916,0.0,0.0,1.0,0.24283158779144287,2.7248330430906108e-05,0.0,16.942588999999998,1418.0,0.0,1568.0,5.0,1500.0,,,,,,,,,,,,,,,,
9.500062,-9.675168991088867,0.0,0.0,0.0,0.0,-0.00010932545289155405,-0.04963696748018265,1491.0,0.0,0.0,1020.0,0.0,-0.05305800926062762,0.0,5.0,2.092543840408325,0.0,1500.0,0.0,17.003353,0.0,0.0,0.0,1602.0,1500.0,-3.034866833432901e-05,0.0,0.008028514559173916,0.0,0.0,1.0,0.33456796407699585,8.570190227267346e-05,0.0,17.042605,1418.0,0.0,1568.0,5.0,1500.0,,,,,,,,,,,,,,,,
9.600047,-9.508295059204102,0.0,0.0,0.0,0.0,-4.2257152687962194e-05,0.08854787051677704,1491.0,0.0,0.0,1019.0,0.0,-0.05305800926062762,0.0,5.0,1.889818549156189,0.0,1500.0,0.0,17.12295,0.0,0.0,0.0,1602.0,1500.0,-3.548075766200478e-05,0.0,0.008028514559173916,0.0,0.0,1.0,0.34266236424446106,4.9903163111494634e-05,0.0,17.14259,1418.0,0.0,1568.0,5.0,1500.0,,,,,,,,,,,,,,,,
9.700119,-9.489855766296387,0.0,0.0,0.0,0.0,-7.056373977093418e-05,0.09580009430646896,1491.0,0.0,0.0,1020.0,0.0,-0.05305800926062762,0.0,5.0,1.8782105445861816,0.0,1500.0,0.0,17.203336999999998,0.0,0.0,0.0,1602.0,1500.0,1.772936021330258e-05,0.0,0.008028514559173916,0.0,0.0,1.0,0.27520912885665894,-4.0021568011331424e-06,0.0,17.242662,1418.0,0.0,1568.0,5.0,1500.0,,,,,,,,,,,,,,,,
9.799976000000001,-9.620038986206055,0.0,0.0,0.0,0.0,9.035534715495035e-05,0.032404206693172455,1492.0,0.0,0.0,1019.0,0.0,-0.05305800926062762,0.0,5.0,1.988418698310852,0.0,1500.0,0.0,17.322944,0.0,0.0,0.0,1603.0,1500.0,-2.2179609584051753e-07,0.0,0.008028514559173916,0.0,0.0,1.0,0.19696339964866638,0.0004181666155243672,0.0,17.342519,1418.0,0.0,1570.0,5.0,1500.0,,,,,,,,,,,,,,,,
9.900045000000002,-9.501455307006836,0.0,0.0,0.0,0.0,1.5698051728134818e-05,-0.020533259958028793,1502.0,0.0,0.0,1019.0,0.0,-0.05305800926062762,0.0,5.0,2.154726028442383,0.0,1501.0,0.0,17.402957,0.0,0.0,0.0,1603.0,1500.0,-8.300231452242047e-05,0.0,0.008028514559173916,0.0,0.0,1.0,0.34536048769950867,0.006131142985445333,0.0,17.442588,1417.0,0.0,1580.0,5.0,1500.0,,,,,,,,,,,,,,,,
10.000041,-9.682795524597168,0.0,0.0,0.0,0.0,0.00019212368221459408,0.035387072712183,1552.0,0.0,0.0,1019.0,0.0,-0.05305800926062762,0.0,5.0,2.6191067695617676,0.0,1500.0,0.0,17.523360999999998,0.0,0.0,0.0,1603.0,1500.0,-0.00017618767670171312,0.0,0.008028514559173916,0.0,0.0,1.0,0.23203907907009125,0.011684576630533324,0.0,17.542583999999998,1417.0,0.0,1637.0,5.0,1501.0,,,,,,,,,,,,,,,,
10.100061,-9.345146179199219,0.0,0.0,0.0,0.0,0.00013853190526705124,0.11408581584692001,1595.0,0.0,0.0,1020.0,0.0,-0.05305800926062762,0.0,5.0,2.8412418365478516,0.0,1500.0,0.0,17.603493,0.0,0.0,0.0,1603.0,1500.0,-0.00010463155832438543,0.0,0.008028514559173916,0.0,0.0,1.0,0.2994922995567322,0.009388807975506225,0.0,17.642604,1418.0,0.0,1685.0,5.0,1500.0,,,,,,,,,,,,,,,,
10.200042,-8.817777633666992,0.0,0.0,0.0,0.0,0.00018616737874556718,0.02064751461148262,1668.0,0.0,0.0,1020.0,0.0,-0.05305800926062762,0.0,5.0,3.2166872024536133,0.0,1500.0,0.0,17.722946,0.0,0.0,0.0,1603.0,1500.0,-2.7594437038111726e-06,0.0,0.008028514559173916,0.0,0.0,1.0,0.38853055238723755,0.007820475530450463,0.0,17.742585,1418.0,0.0,1765.0,5.0,1500.0,,,,,,,,,,,,,,,,
10.300067000000002,-9.951156616210938,0.0,0.0,0.0,0.0,9.217264088427464e-05,-0.14495664834976196,1743.0,0.0,0.0,1020.0,0.0,-0.05305800926062762,0.0,5.0,4.616480827331543,0.0,1500.0,0.0,17.803083,0.0,0.0,0.0,1603.0,1500.0,-7.056980275364047e-05,0.0,0.008028514559173916,0.0,0.0,1.0,0.2104540467262268,0.007394471705173265,0.0,17.84261,1417.0,0.0,1849.0,5.0,1501.0,,,,,,,,,,,,,,,,
10.399983000000002,-9.01941967010498,0.0,0.0,0.0,0.0,-6.877568002122723e-05,-0.007172420620918274,1767.0,0.0,0.0,1019.0,0.0,-0.05305800926062762,0.0,5.0,4.158665657043457,0.0,1500.0,0.0,17.922943999999998,0.0,0.0,0.0,1603.0,1500.0,-6.785131897819694e-05,0.0,0.008028514559173916,0.0,0.0,1.0,0.18077462911605835,0.0001654060517307408,0.0,17.942526,1417.0,0.0,1877.0,5.0,1500.0,,,,,,,,,,,,,,,,
10.500130000000002,-8.8146333694458,0.0,0.0,0.0,0.0,-8.82660481907543e-05,0.1258770227432251,1767.0,0.0,0.0,1020.0,0.0,-0.05305800926062762,0.0,5.0,3.94555401802063,0.0,1500.0,0.0,18.003359,0.0,0.0,0.0,1603.0,1501.0,-2.797826966120178e-05,0.0,0.008028514559173916,0.0,0.0,1.0,0.2671147584915161,4.865847177304082e-05,0.0,18.042673,1417.0,0.0,1876.0,5.0,1500.0,,,,,,,,,,,,,,,,
10.600067,-8.837687492370605,0.0,0.0,0.0,0.0,5.547292705102716e-05,0.04998938366770744,1767.0,0.0,0.0,1020.0,0.0,-0.05305800926062762,0.0,5.0,4.048201560974121,0.0,1500.0,0.0,18.122930999999998,0.0,0.0,0.0,1602.0,1500.0,5.200792430705627e-05,0.0,0.008028514559173916,0.0,0.0,1.0,0.22394469380378723,4.242591247938965e-05,0.0,18.142609999999998,1418.0,0.0,1876.0,5.0,1500.0,,,,,,,,,,,,,,,,
10.700043,-9.03091049194336,0.0,0.0,0.0,0.0,-2.2945412911405628e-06,-0.04601890221238136,1768.0,0.0,0.0,1020.0,0.0,-0.05305800926062762,0.0,5.0,4.19939661026001,0.0,1500.0,0.0,18.20293,0.0,0.0,0.0,1602.0,1500.0,2.2253068643916454e-05,0.0,0.008028514559173916,0.0,0.0,1.0,0.3021904230117798,-0.00015269600814767848,0.0,18.242586,1417.0,0.0,1876.0,5.0,1501.0,,,,,,,,,,,,,,,,
10.800122000000002,-8.955452919006348,0.0,0.0,0.0,0.0,-7.585158720560793e-05,-0.0511225163936615,1767.0,0.0,0.0,1020.0,0.0,-0.05305800926062762,0.0,5.0,4.157634258270264,0.0,1500.0,0.0,18.322937,0.0,0.0,0.0,1603.0,1500.0,-4.1373363239663586e-05,0.0,0.008028514559173916,0.0,0.0,1.0,0.29679417610168457,4.22112942698385e-05,0.0,18.342665,1418.0,0.0,1876.0,5.0,1500.0,,,,,,,,,,,,,,,,
10.900038000000002,-8.881357192993164,0.0,0.0,0.0,0.0,-3.915225535652557e-05,0.044246379286050797,1767.0,0.0,0.0,1020.0,0.0,-0.05305800926062762,0.0,5.0,4.054567337036133,0.0,1500.0,0.0,18.403052,0.0,0.0,0.0,1603.0,1500.0,-1.593682942021587e-05,0.0,0.008028514559173916,0.0,0.0,1.0,0.33726608753204346,2.592919281686292e-05,0.0,18.442581,1418.0,0.0,1877.0,5.0,1500.0,,,,,,,,,,,,,,,,
11.000021,-8.829297065734863,0.0,0.0,0.0,0.0,-5.461164215918128e-05,0.045669667422771454,1767.0,0.0,0.0,1020.0,0.0,-0.05305800926062762,0.0,5.0,4.036338806152344,0.0,1500.0,0.0,18.523556,0.0,0.0,0.0,1604.0,1500.0,1.6352973738424072e-05,0.0,0.008028514559173916,0.0,0.0,1.0,0.39662492275238037,-2.0760544760020125e-05,0.0,18.542564,1418.0,0.0,1876.0,5.0,1500.0,,,,,,,,,,,,,,,,
11.100038000000001,-8.925724029541016,0.0,0.0,0.0,0.0,3.11158469570647e-05,-0.011321764439344406,1767.0,0.0,0.0,1019.0,0.0,-0.05305800926062762,0.0,5.0,4.121423721313477,0.0,1500.0,0.0,18.603504,0.0,0.0,0.0,1603.0,1500.0,1.993123681919023e-05,0.0,0.008028514559173916,0.0,0.0,1.0,0.12411392480134964,-2.054818797799984e-05,0.0,18.642581,1418.0,0.0,1877.0,5.0,1500.0,,,,,,,,,,,,,,,,
11.200054999999999,-8.975273132324219,0.0,0.0,0.0,0.0,-4.8086450485740704e-05,-0.016889607533812523,1767.0,0.0,0.0,1020.0,0.0,-0.05305800926062762,0.0,5.0,4.1669440269470215,0.0,1500.0,0.0,18.722982,0.0,0.0,0.0,1603.0,1500.0,-1.9546487332512302e-05,0.0,0.008028514559173916,0.0,0.0,1.0,0.33726608753204346,2.2325780752032695e-06,0.0,18.742597999999997,1418.0,0.0,1877.0,5.0,1500.0,,,,,,,,,,,,,,,,
11.300039000000002,-9.144192695617676,0.0,0.0,0.0,0.0,-0.00027693201786980587,-0.00931239128112793,1767.0,0.0,0.0,1020.0,0.0,-0.05305800926062762,0.0,5.0,4.046029567718506,0.0,1500.0,0.0,18.802948999999998,0.0,0.0,0.0,1603.0,1500.0,0.00011303321876345666,0.0,0.008028514559173916,0.0,0.0,1.0,0.3210773169994354,-0.011166861235513822,0.0,18.842582,1418.0,0.0,1876.0,5.0,1500.0,,,,,,,,,,,,,,,,
11.400123,-9.234153747558594,0.0,0.0,0.0,0.0,-0.000297880874727749,0.007705628871917725,1681.0,0.0,0.0,1019.0,0.0,-0.05305800926062762,0.0,5.0,3.449680805206299,0.0,1500.0,0.0,18.923023,0.0,0.0,0.0,1603.0,1500.0,0.00010064726842621066,0.0,0.008028514559173916,0.0,0.0,1.0,0.3156810700893402,-0.012219969797585528,0.0,18.942666,1418.0,0.0,1780.0,5.0,1500.0,,,,,,,,,,,,,,,,
11.500046000000001,-9.930209159851074,0.0,0.0,0.0,0.0,-0.0003369545063648366,0.018368147313594818,1585.0,0.0,0.0,1019.0,0.0,-0.05305800926062762,0.0,5.0,2.911891460418701,0.0,1500.0,0.0,19.003559,0.0,0.0,0.0,1603.0,1500.0,0.00013130499242759952,0.0,0.008028514559173916,0.0,0.0,1.0,0.3210773169994354,-0.015398286111026968,0.0,19.042589,1418.0,0.0,1674.0,5.0,1500.0,,,,,,,,,,,,,,,,
11.60002,-8.972702026367188,0.0,0.0,0.0,0.0,-0.0002522178374408636,0.11574972420930862,1514.0,0.0,0.0,1020.0,0.0,-0.05305800926062762,0.0,5.0,1.8956109285354614,0.0,1500.0,0.0,19.122926,0.0,0.0,0.0,1602.0,1500.0,5.691655492995465e-05,0.0,0.008028514559173916,0.0,0.0,1.0,0.24822784960269928,-0.005782186699158189,0.0,19.142563,1418.0,0.0,1593.0,5.0,1500.0,,,,,,,,,,,,,,,,
11.700061000000002,-9.454183578491211,0.0,0.0,0.0,0.0,8.786437152280086e-05,0.026663539931178093,1498.0,0.0,0.0,1019.0,0.0,-0.05305800926062762,0.0,5.0,1.9367454051971436,0.0,1500.0,0.0,19.203089,0.0,0.0,0.0,1602.0,1500.0,5.799341299176454e-05,0.0,0.008028514559173916,0.0,0.0,1.0,0.13220831751823425,-0.0018956619907563204,0.0,19.242604,1418.0,0.0,1578.0,5.0,1500.0,,,,,,,,,,,,,,,,
11.800063999999999,-9.751823425292969,0.0,0.0,0.0,0.0,-0.00011642803394891339,-0.03767607361078262,1492.0,0.0,0.0,1020.0,0.0,-0.05305800926062762,0.0,5.0,2.062908411026001,0.0,1500.0,0.0,19.32291,0.0,0.0,0.0,1602.0,1500.0,1.7008957380236127e-05,0.0,0.008028514559173916,0.0,0.0,1.0,0.3048885464668274,-0.00043299185984895124,0.0,19.342606999999997,1418.0,0.0,1568.0,5.0,1500.0,,,,,,,,,,,,,,,,
11.900064,-9.637038230895996,0.0,0.0,0.0,0.0,-4.495253861239862e-05,-0.009993528015911579,1491.0,0.0,0.0,1019.0,0.0,-0.05305800926062762,0.0,5.0,2.0181949138641357,0.0,1500.0,0.0,19.403112999999998,0.0,0.0,0.0,1603.0,1500.0,-3.3371361860694806e-05,0.0,0.008028514559173916,0.0,0.0,1.0,0.3237754702568054,2.0184600007704642e-05,0.0,19.442607,1417.0,0.0,1568.0,5.0,1500.0,,,,,,,,,,,,,,,,
12.000012000000002,-9.518813133239746,0.0,0.0,0.0,0.0,-7.812671740248421e-05,0.12277917563915253,1490.0,0.0,0.0,1020.0,0.0,-0.05305800926062762,0.0,5.0,1.866551160812378,0.0,1500.0,0.0,19.523367,0.0,0.0,0.0,1603.0,1501.0,-7.6164940194525615e-06,0.0,0.008028514559173916,0.0,0.0,1.0,0.38043615221977234,1.199657640397305e-05,0.0,19.542555,1417.0,0.0,1568.0,5.0,1500.0,,,,,,,,,,,,,,,,
12.100513,-9.500320434570312,0.0,0.0,0.0,0.0,-1.5816885376445955e-05,0.04819978028535843,1491.0,0.0,0.0,1020.0,0.0,-0.05305800926062762,0.0,5.0,1.939068078994751,0.0,1500.0,0.0,19.603344,0.0,0.0,0.0,1602.0,1500.0,1.449043114017577e-05,0.0,0.008028514559173916,0.0,0.0,1.0,0.22394469380378723,-2.3091162220544617e-05,0.0,19.643055999999998,1418.0,0.0,1568.0,5.0,1500.0,,,,,,,,,,,,,,,,
12.200030000000002,-9.690604209899902,0.0,0.0,0.0,0.0,4.960663368048851e-05,-0.007898529060184956,1490.0,0.0,0.0,1020.0,0.0,-0.05305800926062762,0.0,5.0,2.002483606338501,0.0,1500.0,0.0,19.722929,0.0,0.0,0.0,1602.0,1500.0,1.1922518208040817e-05,0.0,0.008028514559173916,0.0,0.0,1.0,0.3696436583995819,-0.00017336076631462792,0.0,19.742573,1418.0,0.0,1568.0,5.0,1500.0,,,,,,,,,,,,,,,,
12.300049000000001,-9.775206565856934,0.0,0.0,0.0,0.0,-0.0001713892728924262,-0.014522929675877094,1488.0,0.0,0.0,1019.0,0.0,-0.05305800926062762,0.0,5.0,2.033531427383423,0.0,1500.0,0.0,19.803075,0.0,0.0,0.0,1603.0,1500.0,-1.6144840116442337e-06,0.0,0.008028514559173916,0.0,0.0,1.0,0.3129829466342926,-0.0014733755378464118,0.0,19.842592,1417.0,0.0,1566.0,5.0,1501.0,,,,,,,,,,,,,,,,
12.400078,-9.875597953796387,0.0,0.0,0.0,0.0,-0.00021282072210715934,0.06405170261859894,1462.0,0.0,0.0,1020.0,0.0,-0.05305800926062762,0.0,5.0,1.7519869804382324,0.0,1501.0,0.0,19.922947,0.0,0.0,0.0,1602.0,1500.0,8.673299131690894e-05,0.0,0.008028514559173916,0.0,0.0,1.0,0.21315217018127441,-0.009488943872790504,0.0,19.942621,1417.0,0.0,1536.0,5.0,1500.0,,,,,,,,,,,,,,,,
12.500074999999999,-9.78719711303711,0.0,0.0,0.0,0.0,-0.00029519830559115144,0.0701480358839035,1416.0,0.0,0.0,1020.0,0.0,-0.05305800926062762,0.0,5.0,1.2292473316192627,0.0,1500.0,0.0,20.003318,0.0,0.0,0.0,1602.0,1500.0,0.00014148901536319123,0.0,0.008028514559173916,0.0,0.0,1.0,0.22124655544757843,-0.010704613452276327,0.0,20.042617999999997,1418.0,0.0,1487.0,5.0,1500.0,,,,,,,,,,,,,,,,
12.600065,-10.28602409362793,0.0,0.0,0.0,0.0,-9.950546086534265e-05,-0.017702892422676086,1353.0,0.0,0.0,1020.0,0.0,-0.05305800926062762,0.0,5.0,1.0215328931808472,0.0,1500.0,0.0,20.122944999999998,0.0,0.0,0.0,1602.0,1500.0,0.00011693349652726818,0.0,0.008028514559173916,0.0,0.0,1.0,0.29139789938926697,-0.00849413773264552,0.0,20.142608,1418.0,0.0,1419.0,5.0,1500.0,,,,,,,,,,,,,,,,
12.700065000000002,-10.55053424835205,0.0,0.0,0.0,0.0,-0.00029159055455193475,0.02063295617699623,1283.0,0.0,0.0,1020.0,0.0,-0.05305800926062762,0.0,5.0,0.564115583896637,0.0,1500.0,0.0,20.203135,0.0,0.0,0.0,1603.0,1500.0,0.00010334687243110899,0.0,0.008028514559173916,0.0,0.0,1.0,0.32917171716690063,-0.012176631012033692,0.0,20.242608,1417.0,0.0,1343.0,5.0,1500.0,,,,,,,,,,,,,,,,
12.799994000000002,-9.450575828552246,0.0,0.0,0.0,0.0,-0.00014203973900145402,0.055359430611133575,1198.0,0.0,0.0,1020.0,0.0,-0.05305800926062762,0.0,5.0,-0.4612363576889038,0.0,1500.0,0.0,20.322938999999998,0.0,0.0,0.0,1603.0,1500.0,8.198608425584288e-06,0.0,0.008028514559173916,0.0,0.0,1.0,0.2104540467262268,-0.0020828673911523544,0.0,20.342537,1417.0,0.0,1250.0,5.0,1500.0,,,,,,,,,,,,,,,,
12.900009,-9.685179710388184,0.0,0.0,0.0,0.0,3.0226595947936827e-05,0.15711915493011475,1194.0,0.0,0.0,1020.0,0.0,-0.05305800926062762,0.0,5.0,-0.5681008696556091,0.0,1500.0,0.0,20.403102,0.0,0.0,0.0,1602.0,1500.0,-2.0315153255295242e-05,0.0,0.008028514559173916,0.0,0.0,1.0,0.3156810700893402,-0.00020070333914729883,0.0,20.442552,1418.0,0.0,1246.0,5.0,1500.0,,,,,,,,,,,,,,,,
13.000092000000002,-9.724701881408691,0.0,0.0,0.0,0.0,-6.106093276627588e-05,0.05560547858476639,1193.0,0.0,0.0,1019.0,0.0,-0.05305800926062762,0.0,5.0,-0.4567912220954895,0.0,1500.0,0.0,20.523342,0.0,0.0,0.0,1602.0,1500.0,4.978112729805443e-05,0.0,0.008028514559173916,0.0,0.0,1.0,0.23743534088134766,-8.530537019996543e-05,0.0,20.542635,1417.0,0.0,1245.0,5.0,1500.0,,,,,,,,,,,,,,,,
13.100064,-9.930469512939453,0.0,0.0,0.0,0.0,6.823014161482317e-05,0.06293095648288727,1193.0,0.0,0.0,1019.0,0.0,-0.05305800926062762,0.0,5.0,-0.43860650062561035,0.0,1500.0,0.0,20.603572,0.0,0.0,0.0,1602.0,1500.0,-3.118158277459043e-05,0.0,0.008028514559173916,0.0,0.0,1.0,0.18347275257110596,5.328814220469895e-06,0.0,20.642606999999998,1418.0,0.0,1245.0,5.0,1500.0,,,,,,,,,,,,,,,,
13.200059,-9.858482360839844,0.0,0.0,0.0,0.0,-0.00017560364729517902,0.07775717228651047,1194.0,0.0,0.0,1020.0,0.0,-0.05305800926062762,0.0,5.0,-0.46154290437698364,0.0,1500.0,0.0,20.722981,0.0,0.0,0.0,1602.0,1500.0,1.4826270399070198e-05,0.0,0.008028514559173916,0.0,0.0,1.0,0.3129829466342926,6.26739137311852e-05,0.0,20.742601999999998,1418.0,0.0,1244.0,5.0,1500.0,,,,,,,,,,,,,,,,
13.300112000000002,-9.673741340637207,0.0,0.0,0.0,0.0,6.074333731492831e-05,0.07774192094802856,1193.0,0.0,0.0,1019.0,0.0,-0.05305800926062762,0.0,5.0,-0.49232912063598633,0.0,1500.0,0.0,20.803092,0.0,0.0,0.0,1602.0,1500.0,-2.672008290346673e-05,0.0,0.008028514559173916,0.0,0.0,1.0,0.3480586111545563,-7.888970232672599e-05,0.0,20.842655,1418.0,0.0,1245.0,5.0,1500.0,,,,,,,,,,,,,,,,
13.400024000000002,-9.805257797241211,0.0,0.0,0.0,0.0,-3.033490674523057e-05,0.11264539510011673,1193.0,0.0,0.0,1020.0,0.0,-0.05305800926062762,0.0,5.0,-0.49924391508102417,0.0,1500.0,0.0,20.922947,0.0,0.0,0.0,1603.0,1500.0,1.81322275340261e-05,0.0,0.008028514559173916,0.0,0.0,1.0,0.27520912885665894,2.9137715544078297e-05,0.0,20.942567,1418.0,0.0,1244.0,5.0,1500.0,,,,,,,,,,,,,,,,
13.500040000000002,-9.733518600463867,0.0,0.0,0.0,0.0,-9.05427632155498e-06,0.03256557136774063,1193.0,0.0,0.0,1019.0,0.0,-0.05305800926062762,0.0,5.0,-0.42589476704597473,0.0,1500.0,0.0,21.003362,0.0,0.0,0.0,1603.0,1500.0,6.895980451614832e-06,0.0,0.008028514559173916,0.0,0.0,1.0,0.39122867584228516,2.6991092541312303e-05,0.0,21.042583,1418.0,0.0,1245.0,5.0,1500.0,,,,,,,,,,,,,,,,
13.600065,-7.699326515197754,0.0,0.0,0.0,0.0,0.0006701026949431639,0.12598437070846558,1234.0,0.0,0.0,1019.0,0.0,-0.05305800926062762,0.0,5.0,-1.016752004623413,0.0,1500.0,0.0,21.122944,0.0,0.0,0.0,1602.0,1500.0,-0.00028035180019048204,0.0,0.008028514559173916,0.0,0.0,1.0,0.2590203583240509,0.02616536837591977,0.0,21.142608,1418.0,0.0,1290.0,5.0,1500.0,,,,,,,,,,,,,,,,
13.700066,-10.864286422729492,0.0,0.0,0.0,0.0,-0.0001715984051591801,-0.0949782133102417,1399.0,0.0,0.0,1019.0,0.0,-0.05305800926062762,0.0,5.0,1.9894893169403076,0.0,1500.0,0.0,21.203086,0.0,0.0,0.0,1602.0,1500.0,-0.00011380383524367863,0.0,0.008028514559173916,0.0,0.0,1.0,0.27251100540161133,0.009833614134198303,0.0,21.242608999999998,1417.0,0.0,1469.0,5.0,1500.0,,,,,,,,,,,,,,,,
13.800029000000002,-9.611604690551758,0.0,0.0,0.0,0.0,-4.523556449680084e-05,-0.013261853717267513,1476.0,0.0,0.0,1019.0,0.0,-0.05305800926062762,0.0,5.0,1.9284487962722778,0.0,1500.0,0.0,21.32294,0.0,0.0,0.0,1603.0,1500.0,-0.00014579940595587997,0.0,0.008028514559173916,0.0,0.0,1.0,0.39122867584228516,0.0033037290944665306,0.0,21.342572,1417.0,0.0,1554.0,5.0,1500.0,,,,,,,,,,,,,,,,
13.900129,-9.54245662689209,0.0,0.0,0.0,0.0,7.023386799870475e-05,0.23241327702999115,1490.0,0.0,0.0,1019.0,0.0,-0.05305800926062762,0.0,5.0,1.7525086402893066,0.0,1500.0,0.0,21.403,0.0,0.0,0.0,1602.0,1500.0,2.9555923186327464e-05,0.0,0.008028514559173916,0.0,0.0,1.0,0.29679417610168457,0.000223798004243911,0.0,21.442671999999998,1418.0,0.0,1568.0,5.0,1500.0,,,,,,,,,,,,,,,,
14.000043999999999,-9.462934494018555,0.0,0.0,0.0,0.0,-5.9790815098872134e-05,-0.0583660788834095,1491.0,0.0,0.0,1020.0,0.0,-0.05305800926062762,0.0,5.0,2.028731346130371,0.0,1500.0,0.0,21.523587,0.0,0.0,0.0,1602.0,1500.0,5.318239964136658e-05,0.0,0.008028514559173916,0.0,0.0,1.0,0.3507567346096039,-4.826856753196414e-05,0.0,21.542586999999997,1418.0,0.0,1568.0,5.0,1500.0,,,,,,,,,,,,,,,,
14.100135000000002,-9.883929252624512,0.0,0.0,0.0,0.0,0.00016604224229412344,-0.019654005765914917,1490.0,0.0,0.0,1020.0,0.0,-0.05305800926062762,0.0,5.0,2.098142147064209,0.0,1500.0,0.0,21.603346,0.0,0.0,0.0,1603.0,1500.0,-1.4650326054409004e-05,0.0,0.008028514559173916,0.0,0.0,1.0,0.402021199464798,5.7954767572503897e-05,0.0,21.642678,1417.0,0.0,1568.0,5.0,1500.0,,,,,,,,,,,,,,,,
14.200049,-9.583901405334473,0.0,0.0,0.0,0.0,-0.00034626022579492695,0.028162553906440735,1491.0,0.0,0.0,1019.0,0.0,-0.05305800926062762,0.0,5.0,1.9405914545059204,0.0,1500.0,0.0,21.722915,0.0,0.0,0.0,1602.0,1500.0,-2.7646603782494595e-05,0.0,0.008028514559173916,0.0,0.0,1.0,0.28060540556907654,9.018226769152772e-05,0.0,21.742592,1418.0,0.0,1568.0,5.0,1500.0,,,,,,,,,,,,,,,,
14.300065,-9.414620399475098,0.0,0.0,0.0,0.0,0.00017612457616856075,0.09529243409633636,1491.0,0.0,0.0,1019.0,0.0,-0.05305800926062762,0.0,5.0,1.8541889190673828,0.0,1500.0,0.0,21.802903,0.0,0.0,0.0,1602.0,1500.0,-2.815746290309735e-05,0.0,0.008028514559173916,0.0,0.0,1.0,0.23203907907009125,1.5282914689979113e-06,0.0,21.842608,1418.0,0.0,1568.0,5.0,1500.0,,,,,,,,,,,,,,,,
14.400058000000001,-9.70320987701416,0.0,0.0,0.0,0.0,-0.00010699054623649437,0.09597148001194,1491.0,0.0,0.0,1020.0,0.0,-0.05305800926062762,0.0,5.0,1.941565990447998,0.0,1500.0,0.0,21.922939,0.0,0.0,0.0,1602.0,1501.0,4.594025619924516e-05,0.0,0.008028514559173916,0.0,0.0,1.0,0.2698128819465637,-1.5950804351534205e-05,0.0,21.942601,1417.0,0.0,1568.0,5.0,1500.0,,,,,,,,,,,,,,,,
14.499982,-9.524499893188477,0.0,0.0,0.0,0.0,5.037741677082506e-05,-0.06933622062206268,1490.0,0.0,0.0,1019.0,0.0,-0.05305800926062762,0.0,5.0,2.0465612411499023,0.0,1500.0,0.0,22.003377,0.0,0.0,0.0,1603.0,1500.0,-2.6497012278346473e-06,0.0,0.008028514559173916,0.0,0.0,1.0,0.4047193229198456,-6.385275242185e-06,0.0,22.042524999999998,1417.0,0.0,1569.0,5.0,1500.0,,,,,,,,,,,,,,,,
14.600035000000002,-9.793388366699219,0.0,0.0,0.0,0.0,-5.0860447938631084e-05,0.07205051183700562,1491.0,0.0,0.0,1019.0,0.0,-0.05305800926062762,0.0,5.0,1.9865533113479614,0.0,1500.0,0.0,22.122940999999997,0.0,0.0,0.0,1602.0,1500.0,-2.1261449942191868e-05,0.0,0.008028514559173916,0.0,0.0,1.0,0.4667762815952301,2.5229619295865368e-05,0.0,22.142578,1418.0,0.0,1568.0,5.0,1500.0,,,,,,,,,,,,,,,,
14.700018,-9.410785675048828,0.0,0.0,0.0,0.0,-0.00015293096904585413,0.034233953803777695,1491.0,0.0,0.0,1020.0,0.0,-0.05305800926062762,0.0,5.0,1.9088982343673706,0.0,1500.0,0.0,22.202963999999998,0.0,0.0,0.0,1602.0,1500.0,-2.483252389810529e-06,0.0,0.008028514559173916,0.0,0.0,1.0,0.3561530113220215,2.4962080024796725e-05,0.0,22.242561,1418.0,0.0,1568.0,5.0,1500.0,,,,,,,,,,,,,,,,
14.800055,-9.63023567199707,0.0,0.0,0.0,0.0,0.00014155078301542696,0.09984428435564041,1491.0,0.0,0.0,1019.0,0.0,-0.05305800926062762,0.0,5.0,1.9270750284194946,0.0,1500.0,0.0,22.32304,0.0,0.0,0.0,1602.0,1500.0,3.5226602567488436e-06,0.0,0.008028514559173916,0.0,0.0,1.0,0.4586819112300873,-5.5910290792792066e-05,0.0,22.342598,1418.0,0.0,1568.0,5.0,1500.0,,,,,,,,,,,,,,,,
14.900081,-9.627241134643555,0.0,0.0,0.0,0.0,-0.00018081121303659166,0.023256484419107437,1490.0,0.0,0.0,1019.0,0.0,-0.05305800926062762,0.0,5.0,1.9946315288543701,0.0,1500.0,0.0,22.403084999999997,0.0,0.0,0.0,1603.0,1500.0,1.2821223325255949e-05,0.0,0.008028514559173916,0.0,0.0,1.0,0.4074174463748932,4.6426656142294834e-05,0.0,22.442624,1417.0,0.0,1569.0,5.0,1501.0,,,,,,,,,,,,,,,,
15.000038,-9.578965187072754,0.0,0.0,0.0,0.0,9.51156338209497e-05,0.016833949834108353,1491.0,0.0,0.0,1020.0,0.0,-0.05305800926062762,0.0,5.0,2.004852771759033,0.0,1500.0,0.0,22.52336,0.0,0.0,0.0,1602.0,1500.0,-1.5163051411478157e-05,0.0,0.008028514559173916,0.0,0.0,1.0,0.38583242893218994,-1.1136528897002554e-05,0.0,22.542581,1418.0,0.0,1568.0,5.0,1500.0,,,,,,,,,,,,,,,,
15.100121000000001,-9.661895751953125,0.0,0.0,0.0,0.0,-0.00015357141832631196,0.0772823914885521,1491.0,0.0,0.0,1068.0,0.0,-0.05305800926062762,0.0,5.0,1.936423420906067,0.0,1500.0,0.0,22.60354,0.0,0.0,0.0,1602.0,1500.0,-1.6335145440248338e-05,0.0,0.008028514559173916,0.0,0.0,1.0,0.326473593711853,1.5765532888202348e-05,0.0,22.642664,1418.0,0.0,1568.0,5.0,1500.0,,,,,,,,,,,,,,,,
15.199978999999999,-9.44921875,0.0,0.0,0.0,0.0,1.572048618642958e-05,0.0220014750957489,1492.0,0.0,0.0,1068.0,0.0,-0.05305800926062762,0.0,5.0,1.944753646850586,0.0,1500.0,0.0,22.722970999999998,0.0,0.0,0.0,1602.0,1500.0,-1.2723600973178853e-05,0.0,0.008028514559173916,0.0,0.0,1.0,0.38313430547714233,8.56223804840813e-06,0.0,22.742521999999997,1418.0,0.0,1569.0,5.0,1500.0,,,,,,,,,,,,,,,,
15.300061,-9.707275390625,0.0,0.0,0.0,0.0,-8.044596677043439e-07,0.06920937448740005,1492.0,0.0,0.0,1067.0,0.0,-0.05305800926062762,0.0,5.0,1.9631621837615967,0.0,1500.0,0.0,22.802993,0.0,0.0,0.0,1602.0,1500.0,2.5391025892113846e-06,0.0,0.008028514559173916,0.0,0.0,1.0,0.44788938760757446,-2.735201678160483e-05,0.0,22.842603999999998,1418.0,0.0,1570.0,5.0,1500.0,,,,,,,,,,,,,,,,
15.400134999999999,-9.533535957336426,0.0,0.0,0.0,0.0,-0.00011265980079640105,-0.008591586723923683,1492.0,0.0,0.0,1067.0,0.0,-0.05305800926062762,0.0,5.0,1.9879262447357178,0.0,1500.0,0.0,22.922919,0.0,0.0,0.0,1602.0,1500.0,4.2648750459898686e-06,0.0,0.008028514559173916,0.0,0.0,1.0,0.5126444697380066,1.4998574719093884e-05,0.0,22.942677999999997,1418.0,0.0,1570.0,5.0,1500.0,,,,,,,,,,,,,,,,
15.500048,-9.647378921508789,0.0,0.0,0.0,0.0,6.238640156467323e-05,0.06626122444868088,1491.0,0.0,0.0,1067.0,0.0,-0.05305800926062762,0.0,5.0,1.9449965953826904,0.0,1500.0,0.0,23.003376,0.0,0.0,0.0,1603.0,1501.0,-1.8752480417667388e-05,0.0,0.008028514559173916,0.0,0.0,1.0,0.5666070580482483,-5.313962935187585e-07,0.0,23.042590999999998,1417.0,0.0,1570.0,5.0,1500.0,,,,,,,,,,,,,,,,
