time_index,acceleration_z,servos_1,servos_6,position_y,airspeed_0,axis_rate_roll,acceleration_y,tx_controls_2,position_z,velocity_y,tx_controls_0,servos_2,attitude_pitch,wind_x,mode_0,acceleration_x,wind_y,tx_controls_6,servos_3,time_actual,servos_0,velocity_z,servos_5,tx_controls_3,tx_controls_5,axis_rate_yaw,servos_7,attitude_roll,velocity_x,servos_4,mode_2,altitude_baro,axis_rate_pitch,position_x,time_flight,tx_controls_4,attitude_yaw,tx_controls_1,mode_1,tx_controls_7,current_0,current_1,magnetometer_0,rpm_1,global_position_latitude,airspeed_1,magnetometer_2,battery_1,rpm_0,current_2,magnetometer_1,current_3,battery_0,altitude_gps,gps_sat_count_0,global_position_longitude
0.0,-9.66003131866455,0.0,0.0,,0.0,8.542290550848122e-06,-0.07858548313379288,1492.0,,,1067.0,0.0,,,0.0,1.3137743473052979,,1500.0,0.0,,0.0,,0.0,1602.0,1500.0,-3.995459379301497e-06,0.0,,,0.0,0.0,-52.68035125732422,-4.321006399959083e-06,,4.961923,1418.0,,1570.0,0.0,1500.0,,,,,,,,,,,,,,,,
0.09992200000000029,-9.693004608154297,0.0,0.0,,0.0,1.4425703110660194e-05,-0.07548624277114868,1492.0,,,1067.0,0.0,,,0.0,1.3162375688552856,,1500.0,0.0,,0.0,,0.0,1602.0,1500.0,-1.9026962708099387e-06,0.0,,,0.0,0.0,-0.07435224205255508,-4.824605789593475e-06,,5.061845,1418.0,,1570.0,0.0,1500.0,,,,,,,,,,,,,,,,
0.2000510000000002,-9.704865455627441,0.0,0.0,,0.0,1.3211408974879822e-05,-0.06807708740234375,1492.0,,,1067.0,0.0,,,5.0,1.321496605873108,,1500.0,0.0,,0.0,,0.0,1602.0,1500.0,1.644276135145443e-05,0.0,,,0.0,1.0,-0.03186524659395218,-4.282225356001511e-06,,5.161974,1418.0,,1570.0,5.0,1500.0,,,,,,,,,,,,,,,,
0.29999299999999973,-9.73055648803711,0.0,0.0,,0.0,1.2686256941459559e-05,-0.0798162892460823,1492.0,,,1067.0,0.0,,,5.0,1.3226609230041504,,1500.0,0.0,,0.0,,0.0,1602.0,1500.0,5.426162529385962e-07,0.0,,,0.0,1.0,-0.12215010821819305,-1.2749070986488093e-05,,5.261915999999999,1418.0,,1570.0,5.0,1500.0,,,,,,,,,,,,,,,,
0.39993500000000015,-9.731179237365723,0.0,0.0,,0.0,-3.1372989350617217e-06,-0.08495469391345978,1492.0,,,1068.0,0.0,,,5.0,1.3200558423995972,,1500.0,0.0,,0.0,,0.0,1602.0,1500.0,6.591821496459199e-06,0.0,,,0.0,1.0,0.08231855183839798,-1.4506962114471488e-05,,5.361858,1418.0,,1569.0,5.0,1500.0,,,,,,,,,,,,,,,,
0.5,-9.729808807373047,0.0,0.0,,0.0,-2.1747602001900332e-05,-0.09552726149559021,1491.0,,,1067.0,0.0,,,5.0,1.324181318283081,,1500.0,0.0,,0.0,,0.0,1603.0,1501.0,-1.1206232879818303e-05,0.0,,,0.0,1.0,0.03717612102627754,-6.321952731532388e-06,,5.461923,1417.0,,1570.0,5.0,1500.0,,,,,,,,,,,,,,,,
0.6000139999999998,-9.716079711914062,0.0,0.0,,0.0,-2.3423858237399286e-05,-0.08493001759052277,1492.0,,,1068.0,0.0,,,5.0,1.323057770729065,,1500.0,0.0,,0.0,,0.0,1602.0,1500.0,-2.72104134229391e-06,0.0,,,0.0,1.0,-0.1009066104888916,1.092015924941761e-05,,5.5619369999999995,1418.0,,1569.0,5.0,1500.0,,,,,,,,,,,,,,,,
0.7000630000000001,-9.713838577270508,0.0,0.0,,0.0,-1.2807479006718167e-05,-0.07798397541046143,1492.0,,,1068.0,0.0,,,5.0,1.3117420673370361,,1500.0,0.0,,0.0,,0.0,1602.0,1500.0,-6.133404941252173e-06,0.0,,,0.0,1.0,0.01593262329697609,1.2216216790972024e-06,,5.661986,1418.0,,1569.0,5.0,1500.0,,,,,,,,,,,,,,,,
0.8000300000000005,-9.69355297088623,0.0,0.0,,0.0,-1.3780848821319231e-05,-0.0804935023188591,1492.0,,,1067.0,0.0,,,5.0,1.3226181268692017,,1500.0,0.0,,0.0,,0.0,1602.0,1500.0,-6.770311216986785e-06,0.0,,,0.0,1.0,-0.1009066104888916,1.3745101808503137e-05,,5.761953,1418.0,,1570.0,5.0,1500.0,,,,,,,,,,,,,,,,
0.9000510000000004,-9.70767879486084,0.0,0.0,,0.0,-2.2306674432368266e-05,-0.07168220728635788,1492.0,,,1067.0,0.0,,,5.0,1.3173155784606934,,1500.0,0.0,,0.0,,0.0,1602.0,1500.0,2.6493400381864744e-07,0.0,,,0.0,1.0,-0.005310874432325363,1.954712405744715e-06,,5.861974,1418.0,,1570.0,5.0,1500.0,,,,,,,,,,,,,,,,
1.0000530000000003,-9.693778991699219,0.0,0.0,0.0,0.0,-1.379486540516621e-05,-0.07776108384132385,1492.0,0.0,0.0,1067.0,0.0,-0.05305800926062762,0.0,5.0,1.3207544088363647,0.0,1500.0,0.0,5.942404,0.0,0.0,0.0,1603.0,1500.0,1.022205817070557e-06,0.0,0.008028514559173916,0.0,0.0,1.0,0.013277186080813408,-4.4737233644082475e-06,0.0,5.961976,1417.0,0.0,1569.0,5.0,1500.0,,,,,,,,,,,,,,,,
1.099996,-9.691804885864258,0.0,0.0,0.0,0.0,2.9337763495926082e-05,-0.08258142322301865,1492.0,0.0,0.0,1067.0,0.0,-0.05305800926062762,0.0,5.0,1.3281186819076538,0.0,1500.0,0.0,6.022816,0.0,0.0,0.0,1602.0,1500.0,-1.6026271368054232e-06,0.0,0.008028514559173916,0.0,0.0,1.0,-0.026554372161626816,-5.865067668689595e-06,0.0,6.061919,1418.0,0.0,1570.0,5.0,1500.0,,,,,,,,,,,,,,,,
1.200044,-9.710604667663574,0.0,0.0,0.0,0.0,1.1345338102680619e-05,-0.07440792769193649,1490.0,0.0,0.0,1020.0,0.0,-0.05305800926062762,0.0,5.0,1.3130197525024414,0.0,1500.0,0.0,6.142427,0.0,0.0,0.0,1603.0,1500.0,-1.244604884058989e-05,0.0,0.008028514559173916,0.0,0.0,1.0,0.1593262255191803,-1.6808560461471515e-06,0.0,6.161967,1417.0,0.0,1568.0,5.0,1501.0,,,,,,,,,,,,,,,,
1.3000730000000003,-9.724257469177246,0.0,0.0,0.0,0.0,9.449644155291589e-06,-0.08364981412887573,1491.0,0.0,0.0,1020.0,0.0,-0.05305800926062762,0.0,5.0,1.3150200843811035,0.0,1500.0,0.0,6.222445,0.0,0.0,0.0,1602.0,1500.0,-2.579079619494525e-06,0.0,0.008028514559173916,0.0,0.0,1.0,-0.021243497729301453,8.072641019806058e-06,0.0,6.261996,1418.0,0.0,1568.0,5.0,1500.0,,,,,,,,,,,,,,,,
1.4000190000000003,-9.71674919128418,0.0,0.0,0.0,0.0,-2.029583206953792e-06,-0.06905427575111389,1491.0,0.0,0.0,1019.0,0.0,-0.05305800926062762,0.0,5.0,1.3253117799758911,0.0,1500.0,0.0,6.342344,0.0,0.0,0.0,1602.0,1500.0,-1.1733905399179301e-05,0.0,0.008028514559173916,0.0,0.0,1.0,-0.1433936059474945,-1.2060363949869264e-06,0.0,6.361942,1418.0,0.0,1568.0,5.0,1500.0,,,,,,,,,,,,,,,,
1.5000739999999997,-9.72091293334961,0.0,0.0,0.0,0.0,-1.0031985110542535e-05,-0.0732654482126236,1490.0,0.0,0.0,1019.0,0.0,-0.05305800926062762,0.0,5.0,1.3156256675720215,0.0,1500.0,0.0,6.422426,0.0,0.0,0.0,1603.0,1500.0,-9.501336975171694e-06,0.0,0.008028514559173916,0.0,0.0,1.0,0.0,4.013226214599597e-06,0.0,6.461996999999999,1417.0,0.0,1569.0,5.0,1500.0,,,,,,,,,,,,,,,,
1.6000769999999997,-9.705352783203125,0.0,0.0,0.0,0.0,-5.5473213539151014e-06,-0.0920678973197937,1491.0,0.0,0.0,1020.0,0.0,-0.05305800926062762,0.0,5.0,1.3163470029830933,0.0,1500.0,0.0,6.542857,0.0,0.0,0.0,1602.0,1500.0,-7.56265863413553e-06,0.0,0.008028514559173916,0.0,0.0,1.0,-0.12215010821819305,2.1236631892547467e-06,0.0,6.561999999999999,1418.0,0.0,1568.0,5.0,1500.0,,,,,,,,,,,,,,,,
1.7000099999999998,-9.709692001342773,0.0,0.0,0.0,0.0,-2.6426593091136418e-05,-0.06768892705440521,1491.0,0.0,0.0,1020.0,0.0,-0.05305800926062762,0.0,5.0,1.3168712854385376,0.0,1500.0,0.0,6.622821999999999,0.0,0.0,0.0,1602.0,1500.0,-3.968481747638345e-06,0.0,0.008028514559173916,0.0,0.0,1.0,-0.03186524659395218,1.8604420917061558e-05,0.0,6.661932999999999,1418.0,0.0,1568.0,5.0,1500.0,,,,,,,,,,,,,,,,
1.7999840000000003,-9.702600479125977,0.0,0.0,0.0,0.0,-1.0504311578486593e-05,-0.0828944593667984,1490.0,0.0,0.0,1019.0,0.0,-0.05305800926062762,0.0,5.0,1.3156955242156982,0.0,1500.0,0.0,6.742833999999999,0.0,0.0,0.0,1603.0,1500.0,-8.771097033937503e-06,0.0,0.008028514559173916,0.0,0.0,1.0,-0.13808274269104004,2.370065452898063e-06,0.0,6.761907,1417.0,0.0,1569.0,5.0,1500.0,,,,,,,,,,,,,,,,
1.9000770000000005,-9.700661659240723,0.0,0.0,0.0,0.0,-2.055111127437004e-06,-0.08448169380426407,1491.0,0.0,0.0,1020.0,0.0,-0.05305800926062762,0.0,5.0,1.3253889083862305,0.0,1500.0,0.0,6.822464,0.0,0.0,0.0,1602.0,1501.0,-9.582577692506996e-06,0.0,0.008028514559173916,0.0,0.0,1.0,-0.026554372161626816,4.0186072641387356e-06,0.0,6.862,1417.0,0.0,1568.0,5.0,1500.0,,,,,,,,,,,,,,,,
2.000039,-9.695549011230469,0.0,0.0,0.0,0.0,-9.435393910918061e-06,-0.06393743306398392,1490.0,0.0,0.0,1020.0,0.0,-0.05305800926062762,0.0,5.0,1.3236453533172607,0.0,1500.0,0.0,6.942406999999999,0.0,0.0,0.0,1603.0,1501.0,-2.331769305328847e-05,0.0,0.008028514559173916,0.0,0.0,1.0,-0.01593262329697609,4.177013100472883e-06,0.0,6.961962,1417.0,0.0,1568.0,5.0,1500.0,,,,,,,,,,,,,,,,
2.100021,-9.701416015625,0.0,0.0,0.0,0.0,4.013896718719261e-06,-0.08751610666513443,1491.0,0.0,0.0,1019.0,0.0,-0.05305800926062762,0.0,5.0,1.3253850936889648,0.0,1500.0,0.0,7.022811,0.0,0.0,0.0,1602.0,1500.0,-9.310596839603245e-06,0.0,0.008028514559173916,0.0,0.0,1.0,-0.11152836680412292,-4.596349424656819e-06,0.0,7.0619439999999996,1418.0,0.0,1568.0,5.0,1500.0,,,,,,,,,,,,,,,,
2.200062,-9.711858749389648,0.0,0.0,0.0,0.0,2.927896879292245e-07,-0.07803592830896378,1491.0,0.0,0.0,1019.0,0.0,-0.05305800926062762,0.0,5.0,1.3261981010437012,0.0,1500.0,0.0,7.142386999999999,0.0,0.0,0.0,1602.0,1500.0,1.971261285548175e-06,0.0,0.008028514559173916,0.0,0.0,1.0,0.03717612102627754,1.1307924988718694e-06,0.0,7.161985,1418.0,0.0,1568.0,5.0,1500.0,,,,,,,,,,,,,,,,
2.300071,-9.720199584960938,0.0,0.0,0.0,0.0,7.863189755637648e-06,-0.07524082809686661,1491.0,0.0,0.0,1020.0,0.0,-0.05305800926062762,0.0,5.0,1.318422555923462,0.0,1500.0,0.0,7.222453,0.0,0.0,0.0,1602.0,1500.0,-6.734781102094251e-06,0.0,0.008028514559173916,0.0,0.0,1.0,-0.05310874432325363,-2.5281573713943677e-07,0.0,7.261994,1418.0,0.0,1568.0,5.0,1500.0,,,,,,,,,,,,,,,,
2.400029,-9.713829040527344,0.0,0.0,0.0,0.0,-2.3688707364666614e-06,-0.08953070640563965,1491.0,0.0,0.0,1020.0,0.0,-0.05305800926062762,0.0,5.0,1.3238914012908936,0.0,1500.0,0.0,7.34237,0.0,0.0,0.0,1602.0,1500.0,-7.949397283035128e-06,0.0,0.008028514559173916,0.0,0.0,1.0,0.0,6.860623042328877e-06,0.0,7.361952,1418.0,0.0,1568.0,5.0,1500.0,,,,,,,,,,,,,,,,
2.5000540000000004,-9.708795547485352,0.0,0.0,0.0,0.0,-1.1393010945588737e-05,-0.0664181038737297,1490.0,0.0,0.0,1020.0,0.0,-0.05305800926062762,0.0,5.0,1.3232301473617554,0.0,1500.0,0.0,7.422434999999999,0.0,0.0,0.0,1603.0,1500.0,-1.412860476706769e-05,0.0,0.008028514559173916,0.0,0.0,1.0,-0.10621748864650726,-7.873200077369632e-06,0.0,7.461977,1418.0,0.0,1568.0,5.0,1500.0,,,,,,,,,,,,,,,,
2.600067,-9.720785140991211,0.0,0.0,0.0,0.0,-1.2553482902951406e-05,-0.08607713133096695,1490.0,0.0,0.0,1020.0,0.0,-0.05305800926062762,0.0,5.0,1.3157179355621338,0.0,1500.0,0.0,7.5429059999999994,0.0,0.0,0.0,1603.0,1500.0,-2.8466089853886745e-06,0.0,0.008028514559173916,0.0,0.0,1.0,-0.03186524659395218,5.479809208429922e-06,0.0,7.56199,1418.0,0.0,1568.0,5.0,1500.0,,,,,,,,,,,,,,,,
2.7000650000000004,-9.707261085510254,0.0,0.0,0.0,0.0,-2.706018240330936e-06,-0.07498843222856522,1491.0,0.0,0.0,1019.0,0.0,-0.05305800926062762,0.0,5.0,1.3180230855941772,0.0,1500.0,0.0,7.622789999999999,0.0,0.0,0.0,1602.0,1500.0,6.851087153057321e-06,0.0,0.008028514559173916,0.0,0.0,1.0,-0.042486995458602905,3.004613281187523e-06,0.0,7.661988,1418.0,0.0,1568.0,5.0,1500.0,,,,,,,,,,,,,,,,
2.8000619999999996,-9.711265563964844,0.0,0.0,0.0,0.0,-1.1547313245914774e-05,-0.08454357087612152,1491.0,0.0,0.0,1019.0,0.0,-0.05305800926062762,0.0,5.0,1.315824270248413,0.0,1500.0,0.0,7.742398,0.0,0.0,0.0,1602.0,1500.0,-6.045409910826587e-06,0.0,0.008028514559173916,0.0,0.0,1.0,-0.09028486907482147,9.259275844734953e-06,0.0,7.761984999999999,1418.0,0.0,1568.0,5.0,1500.0,,,,,,,,,,,,,,,,
2.900081,-9.70693588256836,0.0,0.0,0.0,0.0,-1.0907010257264863e-05,-0.06419885158538818,1491.0,0.0,0.0,1020.0,0.0,-0.05305800926062762,0.0,5.0,1.3182610273361206,0.0,1500.0,0.0,7.822419,0.0,0.0,0.0,1602.0,1500.0,9.70765071182409e-07,0.0,0.008028514559173916,0.0,0.0,1.0,-0.1433936059474945,-1.228358366056461e-05,0.0,7.862004,1418.0,0.0,1568.0,5.0,1500.0,,,,,,,,,,,,,,,,
3.0000020000000003,-9.719452857971191,0.0,0.0,0.0,0.0,-5.414597603215922e-06,-0.07175633311271667,1491.0,0.0,0.0,1020.0,0.0,-0.05305800926062762,0.0,5.0,1.3252499103546143,0.0,1500.0,0.0,7.942247999999999,0.0,0.0,0.0,1602.0,1500.0,-5.438341068417028e-06,0.0,0.008028514559173916,0.0,0.0,1.0,-0.06904137134552002,-7.101377197689939e-06,0.0,7.961925,1418.0,0.0,1568.0,5.0,1500.0,,,,,,,,,,,,,,,,
3.100022,-9.71462631225586,0.0,0.0,0.0,0.0,-1.467520785274054e-05,-0.08231153339147568,1490.0,0.0,0.0,1020.0,0.0,-0.05305800926062762,0.0,5.0,1.3113036155700684,0.0,1500.0,0.0,8.022836,0.0,0.0,0.0,1603.0,1500.0,-1.5791307676111434e-05,0.0,0.008028514559173916,0.0,0.0,1.0,-0.010621748864650726,-4.08620855619437e-06,0.0,8.061945,1418.0,0.0,1568.0,5.0,1500.0,,,,,,,,,,,,,,,,
3.200024,-9.711474418640137,0.0,0.0,0.0,0.0,1.7102570168473399e-06,-0.07929708063602448,1490.0,0.0,0.0,1020.0,0.0,-0.05305800926062762,0.0,5.0,1.3247747421264648,0.0,1500.0,0.0,8.142394,0.0,0.0,0.0,1603.0,1500.0,-3.9230121711082895e-06,0.0,0.008028514559173916,0.0,0.0,1.0,-0.09028486907482147,-1.2721515299000565e-06,0.0,8.161947,1418.0,0.0,1568.0,5.0,1500.0,,,,,,,,,,,,,,,,
3.300047,-9.714530944824219,0.0,0.0,0.0,0.0,1.2768404871187075e-05,-0.07651115953922272,1491.0,0.0,0.0,1019.0,0.0,-0.05305800926062762,0.0,5.0,1.3245761394500732,0.0,1500.0,0.0,8.222467,0.0,0.0,0.0,1602.0,1500.0,5.412921977863845e-07,0.0,0.008028514559173916,0.0,0.0,1.0,-0.09028486907482147,-8.594848930591793e-06,0.0,8.26197,1418.0,0.0,1568.0,5.0,1500.0,,,,,,,,,,,,,,,,
3.4000580000000005,-9.707469940185547,0.0,0.0,0.0,0.0,-6.543599043356022e-06,-0.07914577424526215,1491.0,0.0,0.0,1019.0,0.0,-0.05305800926062762,0.0,5.0,1.3239431381225586,0.0,1500.0,0.0,8.342398,0.0,0.0,0.0,1602.0,1500.0,-1.7874024524866111e-06,0.0,0.008028514559173916,0.0,0.0,1.0,-0.010621748864650726,5.497899485772109e-07,0.0,8.361981,1418.0,0.0,1568.0,5.0,1500.0,,,,,,,,,,,,,,,,
3.5000539999999996,-9.706716537475586,0.0,0.0,0.0,0.0,8.090296612375212e-06,-0.0892539769411087,1491.0,0.0,0.0,1020.0,0.0,-0.05305800926062762,0.0,5.0,1.3170068264007568,0.0,1500.0,0.0,8.422448,0.0,0.0,0.0,1602.0,1500.0,8.828092931854951e-06,0.0,0.008028514559173916,0.0,0.0,1.0,-0.03186524659395218,2.8732273004975483e-07,0.0,8.461977,1418.0,0.0,1568.0,5.0,1500.0,,,,,,,,,,,,,,,,
3.600022,-9.710250854492188,0.0,0.0,0.0,0.0,-9.303582960145425e-06,-0.0715334564447403,1491.0,0.0,0.0,1020.0,0.0,-0.05305800926062762,0.0,5.0,1.3192983865737915,0.0,1500.0,0.0,8.542931,0.0,0.0,0.0,1602.0,1500.0,-9.485916396334752e-06,0.0,0.008028514559173916,0.0,0.0,1.0,-0.042486995458602905,1.139855479555996e-06,0.0,8.561945,1418.0,0.0,1568.0,5.0,1500.0,,,,,,,,,,,,,,,,
3.7000140000000004,-9.70850658416748,0.0,0.0,0.0,0.0,-1.7785845105807617e-05,-0.07849955558776855,1490.0,0.0,0.0,1020.0,0.0,-0.05305800926062762,0.0,5.0,1.3244794607162476,0.0,1500.0,0.0,8.622767999999999,0.0,0.0,0.0,1603.0,1500.0,-6.334587670526725e-06,0.0,0.008028514559173916,0.0,0.0,1.0,0.04779786989092827,-3.800735331755377e-06,0.0,8.661937,1418.0,0.0,1568.0,5.0,1500.0,,,,,,,,,,,,,,,,
3.800014,-9.705751419067383,0.0,0.0,0.0,0.0,3.341648018449854e-06,-0.0845164805650711,1490.0,0.0,0.0,1020.0,0.0,-0.05305800926062762,0.0,5.0,1.320831060409546,0.0,1500.0,0.0,8.742407,0.0,0.0,0.0,1603.0,1500.0,2.9913345058510083e-06,0.0,0.008028514559173916,0.0,0.0,1.0,0.026554372161626816,-4.30336756999292e-06,0.0,8.761937,1418.0,0.0,1568.0,5.0,1500.0,,,,,,,,,,,,,,,,
3.900075,-9.72050666809082,0.0,0.0,0.0,0.0,-1.2108593260400937e-05,-0.08132905513048172,1491.0,0.0,0.0,1019.0,0.0,-0.05305800926062762,0.0,5.0,1.320212960243225,0.0,1500.0,0.0,8.822434,0.0,0.0,0.0,1602.0,1500.0,-1.142598857320755e-05,0.0,0.008028514559173916,0.0,0.0,1.0,0.06107505410909653,6.210799022169153e-07,0.0,8.861998,1418.0,0.0,1568.0,5.0,1500.0,,,,,,,,,,,,,,,,
4.000069000000001,-9.719746589660645,0.0,0.0,0.0,0.0,-1.5956039363244246e-05,-0.08540471643209457,1491.0,0.0,0.0,1019.0,0.0,-0.05305800926062762,0.0,5.0,1.3280727863311768,0.0,1500.0,0.0,8.942373,0.0,0.0,0.0,1602.0,1500.0,8.89729708432695e-06,0.0,0.008028514559173916,0.0,0.0,1.0,0.07169680297374725,1.0412656713074506e-05,0.0,8.961992,1418.0,0.0,1568.0,5.0,1500.0,,,,,,,,,,,,,,,,
4.100060999999999,-9.717480659484863,0.0,0.0,0.0,0.0,-1.7251957216440397e-05,-0.07392770051956177,1491.0,0.0,0.0,1020.0,0.0,-0.05305800926062762,0.0,5.0,1.3334928750991821,0.0,1500.0,0.0,9.022929,0.0,0.0,0.0,1602.0,1500.0,-4.904693950983688e-06,0.0,0.008028514559173916,0.0,0.0,1.0,0.14073817431926727,3.5382570968960307e-06,0.0,9.061983999999999,1418.0,0.0,1568.0,5.0,1500.0,,,,,,,,,,,,,,,,
4.200024,-9.704665184020996,0.0,0.0,0.0,0.0,-3.6174179815662087e-06,-0.08029672503471375,1491.0,0.0,0.0,1020.0,0.0,-0.05305800926062762,0.0,5.0,1.3201217651367188,0.0,1500.0,0.0,9.142439,0.0,0.0,0.0,1602.0,1500.0,-1.107094851452274e-05,0.0,0.008028514559173916,0.0,0.0,1.0,0.058419618755578995,-5.65683194721691e-06,0.0,9.161947,1418.0,0.0,1568.0,5.0,1500.0,,,,,,,,,,,,,,,,
4.300043,-9.697433471679688,0.0,0.0,0.0,0.0,-2.4346926528168546e-06,-0.08295375853776932,1490.0,0.0,0.0,1019.0,0.0,-0.05305800926062762,0.0,5.0,1.3073562383651733,0.0,1500.0,0.0,9.222407,0.0,0.0,0.0,1603.0,1500.0,-4.928622820733035e-06,0.0,0.008028514559173916,0.0,0.0,1.0,0.03452068567276001,1.8118862659865128e-06,0.0,9.261966,1418.0,0.0,1569.0,5.0,1500.0,,,,,,,,,,,,,,,,
4.400181000000001,-9.707846641540527,0.0,0.0,0.0,0.0,8.467545596150899e-06,-0.07508058100938797,1491.0,0.0,0.0,1020.0,0.0,-0.05305800926062762,0.0,5.0,1.3248255252838135,0.0,1500.0,0.0,9.342366,0.0,0.0,0.0,1602.0,1500.0,3.823026799967043e-06,0.0,0.008028514559173916,0.0,0.0,1.0,0.15401536226272583,-1.1952792484958985e-06,0.0,9.362104,1418.0,0.0,1568.0,5.0,1500.0,,,,,,,,,,,,,,,,
4.500025,-9.704936981201172,0.0,0.0,0.0,0.0,4.4831195653215405e-06,-0.0809316337108612,1490.0,0.0,0.0,1020.0,0.0,-0.05305800926062762,0.0,5.0,1.3256527185440063,0.0,1500.0,0.0,9.422424,0.0,0.0,0.0,1603.0,1500.0,-4.856702110661063e-06,0.0,0.008028514559173916,0.0,0.0,1.0,0.029209809377789497,-1.0216345297820847e-05,0.0,9.461948,1418.0,0.0,1568.0,5.0,1500.0,,,,,,,,,,,,,,,,
4.599989999999999,-9.717702865600586,0.0,0.0,0.0,0.0,1.1960084217260332e-06,-0.08043710887432098,1490.0,0.0,0.0,1020.0,0.0,-0.05305800926062762,0.0,5.0,1.3218047618865967,0.0,1500.0,0.0,9.542736999999999,0.0,0.0,0.0,1603.0,1500.0,-3.959539406899992e-06,0.0,0.008028514559173916,0.0,0.0,1.0,0.14073817431926727,-3.7054310444889524e-06,0.0,9.561912999999999,1418.0,0.0,1568.0,5.0,1500.0,,,,,,,,,,,,,,,,
4.700054000000001,-9.702034950256348,0.0,0.0,0.0,0.0,-2.741102622371194e-06,-0.0827823132276535,1490.0,0.0,0.0,1019.0,0.0,-0.05305800926062762,0.0,5.0,1.3179497718811035,0.0,1501.0,0.0,9.622855,0.0,0.0,0.0,1603.0,1500.0,-1.1562484925495174e-05,0.0,0.008028514559173916,0.0,0.0,1.0,-0.05310874432325363,-6.234643824924708e-07,0.0,9.661977,1417.0,0.0,1569.0,5.0,1500.0,,,,,,,,,,,,,,,,
4.800057999999999,-9.702043533325195,0.0,0.0,0.0,0.0,4.151443273482192e-06,-0.07528164982795715,1490.0,0.0,0.0,1019.0,0.0,-0.05305800926062762,0.0,5.0,1.3148701190948486,0.0,1501.0,0.0,9.742806999999999,0.0,0.0,0.0,1603.0,1500.0,-1.2072206220925165e-05,0.0,0.008028514559173916,0.0,0.0,1.0,0.03717612102627754,-4.653406277494236e-06,0.0,9.761980999999999,1417.0,0.0,1569.0,5.0,1500.0,,,,,,,,,,,,,,,,
4.900023999999999,-9.718144416809082,0.0,0.0,0.0,0.0,8.757529484667632e-06,-0.0836322158575058,1491.0,0.0,0.0,1020.0,0.0,-0.05305800926062762,0.0,5.0,1.3232073783874512,0.0,1500.0,0.0,9.822434,0.0,0.0,0.0,1602.0,1500.0,2.6332952428722203e-07,0.0,0.008028514559173916,0.0,0.0,1.0,0.01858806051313877,8.838741756373616e-06,0.0,9.861946999999999,1418.0,0.0,1568.0,5.0,1500.0,,,,,,,,,,,,,,,,
5.000072,-9.71627140045166,0.0,0.0,0.0,0.0,-1.1073105302774325e-05,-0.07013826072216034,1491.0,0.0,0.0,1020.0,0.0,-0.05305800926062762,0.0,5.0,1.314186692237854,0.0,1500.0,0.0,9.942392,0.0,0.0,0.0,1602.0,1500.0,-1.793082231929366e-05,0.0,0.008028514559173916,0.0,0.0,1.0,0.23367847502231598,-7.131862277039668e-06,0.0,9.961995,1418.0,0.0,1568.0,5.0,1500.0,,,,,,,,,,,,,,,,
5.100067,-9.706522941589355,0.0,0.0,0.0,0.0,-3.3740267639799676e-06,-0.07541689276695251,1491.0,0.0,0.0,1019.0,0.0,-0.05305800926062762,0.0,5.0,1.324189305305481,0.0,1500.0,0.0,10.022805,0.0,0.0,0.0,1602.0,1500.0,-1.587434351583984e-05,0.0,0.008028514559173916,0.0,0.0,1.0,0.2761654853820801,-5.070078871675506e-06,0.0,10.06199,1419.0,0.0,1568.0,5.0,1500.0,,,,,,,,,,,,,,,,
5.199986999999999,-9.703855514526367,0.0,0.0,0.0,0.0,-2.4609695568791917e-06,-0.08059092611074448,1491.0,0.0,0.0,1020.0,0.0,-0.05305800926062762,0.0,5.0,1.3310534954071045,0.0,1500.0,0.0,10.142382999999999,0.0,0.0,0.0,1602.0,1500.0,7.996813099364042e-06,0.0,0.008028514559173916,0.0,0.0,1.0,0.0929403007030487,-1.3521001299214233e-06,0.0,10.161909999999999,1419.0,0.0,1568.0,5.0,1501.0,,,,,,,,,,,,,,,,
5.299999000000001,-9.722413063049316,0.0,0.0,0.0,0.0,5.686964503946148e-06,-0.07900632917881012,1491.0,0.0,0.0,1020.0,0.0,-0.05305800926062762,0.0,5.0,1.3221545219421387,0.0,1500.0,0.0,10.222408999999999,0.0,0.0,0.0,1602.0,1500.0,5.4283464933727014e-06,0.0,0.008028514559173916,0.0,0.0,1.0,0.1513599157333374,3.86431690081786e-06,0.0,10.261922,1421.0,0.0,1568.0,5.0,1500.0,,,,,,,,,,,,,,,,
5.400028999999999,-9.623465538024902,0.0,0.0,0.0,0.0,6.893119634037598e-06,-0.06740207970142365,1490.0,0.0,0.0,1020.0,0.0,-0.05305800926062762,0.0,5.0,1.2430176734924316,0.0,1500.0,0.0,10.34241,0.0,0.0,0.0,1602.0,1500.0,-2.998077389893797e-06,0.0,0.008028514559173916,0.0,0.0,1.0,0.3292742073535919,-0.00019885695773016508,0.0,10.361951999999999,1423.0,0.0,1568.0,5.0,1500.0,,,,,,,,,,,,,,,,
5.5000919999999995,-9.787559509277344,0.0,0.0,0.0,0.0,-1.672566938967804e-06,-0.06495721638202667,1490.0,0.0,0.0,1020.0,0.0,-0.05305800926062762,0.0,5.0,1.323028564453125,0.0,1500.0,0.0,10.422429,0.0,0.0,0.0,1602.0,1500.0,3.316402268450334e-07,0.0,0.008028514559173916,0.0,0.0,1.0,0.23367847502231598,-0.00012334414171510214,0.0,10.462015,1424.0,0.0,1568.0,5.0,1500.0,,,,,,,,,,,,,,,,
5.600077,-9.91122055053711,0.0,0.0,0.0,0.0,-1.8486196817950113e-05,-0.08402912318706512,1490.0,0.0,0.0,1019.0,0.0,-0.05305800926062762,0.0,5.0,1.3561468124389648,0.0,1500.0,0.0,10.542783,0.0,0.0,0.0,1602.0,1501.0,5.9576343181128906e-06,0.0,0.008028514559173916,0.0,0.0,1.0,0.1513599157333374,-0.0004436903748183759,0.0,10.562,1426.0,0.0,1568.0,5.0,1500.0,,,,,,,,,,,,,,,,
5.700073000000001,-9.722347259521484,0.0,0.0,0.0,0.0,-1.3264115678262085e-05,-0.030661452561616898,1490.0,0.0,0.0,1020.0,0.0,-0.05305800926062762,0.0,5.0,1.2319282293319702,0.0,1500.0,0.0,10.622833,0.0,0.0,0.0,1602.0,1501.0,-7.127991131663941e-06,0.0,0.008028514559173916,0.0,0.0,1.0,0.14604905247688293,-5.108843153030088e-05,0.0,10.661996,1429.0,0.0,1567.0,5.0,1500.0,,,,,,,,,,,,,,,,
5.8000680000000004,-9.651217460632324,0.0,0.0,0.0,0.0,-2.540836756684516e-05,-0.08134984970092773,1490.0,0.0,0.0,1019.0,0.0,-0.05305800926062762,0.0,5.0,1.1971946954727173,0.0,1500.0,0.0,10.742379999999999,0.0,0.0,0.0,1601.0,1500.0,-1.3420477746925423e-06,0.0,0.008028514559173916,0.0,0.0,1.0,0.17260341346263885,-0.00014042440111297253,0.0,10.761991,1435.0,0.0,1567.0,5.0,1500.0,,,,,,,,,,,,,,,,
5.899996000000001,-9.931290626525879,0.0,0.0,0.0,0.0,-3.905719412700253e-05,-0.07039514183998108,1490.0,0.0,0.0,1019.0,0.0,-0.05305800926062762,0.0,5.0,1.2807646989822388,0.0,1500.0,0.0,10.822417,0.0,0.0,0.0,1601.0,1500.0,-4.312439185957375e-06,0.0,0.008028514559173916,0.0,0.0,1.0,0.284131795167923,-0.0010329679511979113,0.0,10.861919,1436.0,0.0,1567.0,5.0,1500.0,,,,,,,,,,,,,,,,
6.000476999999999,-9.849438667297363,0.0,0.0,0.0,0.0,-3.3936199610676524e-06,-0.10044267773628235,1490.0,0.0,0.0,1020.0,0.0,-0.05305800926062762,0.0,5.0,1.1876187324523926,0.0,1500.0,0.0,10.942451,0.0,0.0,0.0,1600.0,1500.0,3.5845945190991516e-06,0.0,0.008028514559173916,0.0,0.0,1.0,0.19650235772132874,-0.0007909791295508996,0.0,10.962399999999999,1442.0,0.0,1566.0,5.0,1500.0,,,,,,,,,,,,,,,,
6.100082,-9.483284950256348,0.0,0.0,0.0,0.0,-4.178104193540336e-06,-0.025228461250662804,1488.0,0.0,0.0,1019.0,0.0,-0.05305800926062762,0.0,5.0,0.92674720287323,0.0,1500.0,0.0,11.022834999999999,0.0,0.0,0.0,1601.0,1500.0,6.618659947721754e-06,0.0,0.008028514559173916,0.0,0.0,1.0,0.2788209021091461,-0.0015853090567077154,0.0,11.062005,1446.0,0.0,1567.0,5.0,1500.0,,,,,,,,,,,,,,,,
6.200019,-9.796993255615234,0.0,0.0,0.0,0.0,-7.962364832709433e-05,-0.06198354810476303,1488.0,0.0,0.0,1019.0,0.0,-0.05305800926062762,0.0,5.0,1.0062240362167358,0.0,1500.0,0.0,11.142377999999999,0.0,0.0,0.0,1599.0,1500.0,-1.293551176836803e-05,0.0,0.008028514559173916,0.0,0.0,1.0,0.22836759686470032,-0.0013738571870473262,0.0,11.161942,1458.0,0.0,1566.0,5.0,1500.0,,,,,,,,,,,,,,,,
6.3000739999999995,-9.93847942352295,0.0,0.0,0.0,0.0,-0.00011386185620016689,-0.03803721070289612,1488.0,0.0,0.0,1020.0,0.0,-0.05305800926062762,0.0,5.0,0.9911622405052185,0.0,1500.0,0.0,11.222437,0.0,0.0,0.0,1599.0,1500.0,3.2610138025682474e-06,0.0,0.008028514559173916,0.0,0.0,1.0,0.17525885999202728,-0.0016442295452682794,0.0,11.261997,1467.0,0.0,1564.0,5.0,1500.0,,,,,,,,,,,,,,,,
6.4000639999999995,-9.73556137084961,0.0,0.0,0.0,0.0,-0.00014476421261369986,-0.019759835675358772,1486.0,0.0,0.0,1020.0,0.0,-0.05305800926062762,0.0,5.0,0.7500704526901245,0.0,1500.0,0.0,11.342395999999999,0.0,0.0,0.0,1598.0,1500.0,1.5101023684917229e-05,0.0,0.008028514559173916,0.0,0.0,1.0,0.2018132209777832,-0.0025383150110087657,0.0,11.361987,1485.0,0.0,1563.0,5.0,1500.0,,,,,,,,,,,,,,,,
6.500027,-9.487310409545898,0.0,0.0,0.0,0.0,-2.841689720164072e-05,-0.15242892503738403,1485.0,0.0,0.0,1019.0,0.0,-0.05305800926062762,0.0,5.0,0.6402072310447693,0.0,1500.0,0.0,11.422435,0.0,0.0,0.0,1597.0,1500.0,-4.069650660142332e-06,0.0,0.008028514559173916,0.0,0.0,1.0,0.22305673360824585,-0.0005840633462335395,0.0,11.46195,1495.0,0.0,1563.0,5.0,1501.0,,,,,,,,,,,,,,,,
6.5999989999999995,-9.93185806274414,0.0,0.0,0.0,0.0,-8.037936742487576e-05,0.009194619953632355,1485.0,0.0,0.0,1020.0,0.0,-0.05305800926062762,0.0,5.0,0.6058797240257263,0.0,1500.0,0.0,11.542786999999999,0.0,0.0,0.0,1596.0,1501.0,1.6673585442394796e-05,0.0,0.008028514559173916,0.0,0.0,1.0,0.39831557869911194,-0.003071720169919117,0.0,11.561922,1509.0,0.0,1562.0,5.0,1500.0,,,,,,,,,,,,,,,,
6.700038,-9.685332298278809,0.0,0.0,0.0,0.0,-5.6546034353428255e-05,-0.11502666771411896,1485.0,0.0,0.0,1020.0,0.0,-0.05305800926062762,0.0,5.0,0.3275195360183716,0.0,1500.0,0.0,11.622947,0.0,0.0,0.0,1595.0,1501.0,9.747465830601064e-06,0.0,0.008028514559173916,0.0,0.0,1.0,0.0929403007030487,-0.003013690565959536,0.0,11.661961,1520.0,0.0,1562.0,5.0,1500.0,,,,,,,,,,,,,,,,
6.800052999999999,-10.227136611938477,0.0,0.0,0.0,0.0,-0.00011320257591309982,-0.07136349380016327,1485.0,0.0,0.0,1020.0,0.0,-0.05305800926062762,0.0,5.0,0.40725332498550415,0.0,1500.0,0.0,11.742474999999999,0.0,0.0,0.0,1594.0,1500.0,7.2646622213888095e-06,0.0,0.008028514559173916,0.0,0.0,1.0,0.31599703431129456,-0.0033063085116238947,0.0,11.761975999999999,1539.0,0.0,1561.0,5.0,1500.0,,,,,,,,,,,,,,,,
6.900042999999999,-9.690242767333984,0.0,0.0,0.0,0.0,-4.118271860013642e-07,-0.024272555485367775,1484.0,0.0,0.0,1019.0,0.0,-0.05305800926062762,0.0,5.0,0.06814184784889221,0.0,1500.0,0.0,11.822426,0.0,0.0,0.0,1593.0,1500.0,-7.706296871212909e-06,0.0,0.008028514559173916,0.0,0.0,1.0,0.22836759686470032,-0.001136951323030664,0.0,11.861965999999999,1556.0,0.0,1562.0,5.0,1500.0,,,,,,,,,,,,,,,,
7.00007,-9.471900939941406,0.0,0.0,0.0,0.0,-6.96943275564257e-05,-0.02757706493139267,1484.0,0.0,0.0,1019.0,0.0,-0.05305800926062762,0.0,5.0,-0.09637133777141571,0.0,1500.0,0.0,11.942383999999999,0.0,0.0,0.0,1591.0,1500.0,2.3324763824004926e-05,0.0,0.008028514559173916,0.0,0.0,1.0,0.13808274269104004,-0.002111982321747348,0.0,11.961993,1575.0,0.0,1562.0,5.0,1500.0,,,,,,,,,,,,,,,,
7.100071000000001,-10.033132553100586,0.0,0.0,0.0,0.0,-0.0002439810885059391,-0.0036824927665293217,1484.0,0.0,0.0,1020.0,0.0,-0.05305800926062762,0.0,5.0,-0.0886252224445343,0.0,1500.0,0.0,12.022772,0.0,0.0,0.0,1590.0,1500.0,3.674346727480157e-05,0.0,0.008028514559173916,0.0,0.0,1.0,0.18853604793548584,-0.003615607364432452,0.0,12.061994,1592.0,0.0,1561.0,5.0,1500.0,,,,,,,,,,,,,,,,
7.200036999999999,-10.088113784790039,0.0,0.0,0.0,0.0,-0.00023521435686018672,-0.021492091938853264,1484.0,0.0,0.0,1019.0,0.0,-0.05305800926062762,0.0,5.0,-0.27294403314590454,0.0,1500.0,0.0,12.142242999999999,0.0,0.0,0.0,1588.0,1500.0,1.743609390234549e-05,0.0,0.008028514559173916,0.0,0.0,1.0,0.2761654853820801,-0.0030380603104540375,0.0,12.161959999999999,1620.0,0.0,1561.0,5.0,1500.0,,,,,,,,,,,,,,,,
7.300019999999999,-10.081229209899902,0.0,0.0,0.0,0.0,-0.00013701770378178312,-0.12581294775009155,1484.0,0.0,0.0,1019.0,0.0,-0.05305800926062762,0.0,5.0,-0.28087952733039856,0.0,1500.0,0.0,12.222449,0.0,0.0,0.0,1587.0,1500.0,-1.4188499579387354e-06,0.0,0.008028514559173916,0.0,0.0,1.0,0.28944265842437744,-0.0013568489763648597,0.0,12.261942999999999,1629.0,0.0,1561.0,5.0,1500.0,,,,,,,,,,,,,,,,
7.4000770000000005,-9.490018844604492,0.0,0.0,0.0,0.0,-3.8256563444187595e-05,-0.0010622066911309958,1483.0,0.0,0.0,1019.0,0.0,-0.05305800926062762,0.0,5.0,-0.7123627066612244,0.0,1500.0,0.0,12.342409,0.0,0.0,0.0,1587.0,1500.0,1.6558548777640091e-06,0.0,0.008028514559173916,0.0,0.0,1.0,0.19119147956371307,-0.0025721826698596826,0.0,12.362,1655.0,0.0,1561.0,5.0,1500.0,,,,,,,,,,,,,,,,
7.500025999999999,-9.584434509277344,0.0,0.0,0.0,0.0,3.91802783650662e-05,0.037977613508701324,1484.0,0.0,0.0,1019.0,0.0,-0.05305800926062762,0.0,5.0,-0.9737556576728821,0.0,1500.0,0.0,12.422405,0.0,0.0,0.0,1586.0,1500.0,1.2362982523401502e-05,0.0,0.008028514559173916,0.0,0.0,1.0,0.18056973814964294,-0.0027216814542904773,0.0,12.461948999999999,1678.0,0.0,1560.0,5.0,1500.0,,,,,,,,,,,,,,,,
7.600119,-9.64832878112793,0.0,0.0,0.0,0.0,5.1782716196075746e-05,-0.011744892224669456,1483.0,0.0,0.0,1019.0,0.0,-0.05305800926062762,0.0,5.0,-1.1203497648239136,0.0,1500.0,0.0,12.542938999999999,0.0,0.0,0.0,1586.0,1500.0,5.928273603057766e-07,0.0,0.008028514559173916,0.0,0.0,1.0,0.2708545923233032,-0.0031288933491258044,0.0,12.562042,1701.0,0.0,1560.0,5.0,1500.0,,,,,,,,,,,,,,,,
7.700071,-10.08377456665039,0.0,0.0,0.0,0.0,-6.930467221460556e-06,0.044678010046482086,1483.0,0.0,0.0,1019.0,0.0,-0.05305800926062762,0.0,5.0,-1.1818735599517822,0.0,1500.0,0.0,12.62281,0.0,0.0,0.0,1586.0,1500.0,3.4950370108916815e-06,0.0,0.008028514559173916,0.0,0.0,1.0,0.284131795167923,-0.0033125864457599708,0.0,12.661994,1720.0,0.0,1560.0,5.0,1500.0,,,,,,,,,,,,,,,,
7.799995,-9.784735679626465,0.0,0.0,0.0,0.0,-0.0001000455864748534,0.043253857642412186,1483.0,0.0,0.0,1019.0,0.0,-0.05305800926062762,0.0,5.0,-1.5104740858078003,0.0,1501.0,0.0,12.742318,0.0,0.0,0.0,1585.0,1500.0,2.3960338742695875e-05,0.0,0.008028514559173916,0.0,0.0,1.0,0.4195590913295746,-0.0037585031218206662,0.0,12.761918,1744.0,0.0,1560.0,5.0,1500.0,,,,,,,,,,,,,,,,
7.900099999999999,-9.94724178314209,0.0,0.0,0.0,0.0,-0.00020841802138366885,0.03621754050254822,1482.0,0.0,0.0,1019.0,0.0,-0.05305800926062762,0.0,5.0,-1.491827130317688,0.0,1500.0,0.0,12.822434,0.0,0.0,0.0,1585.0,1500.0,1.1704750660957906e-05,0.0,0.008028514559173916,0.0,0.0,1.0,0.25492197275161743,-0.0013343855766740967,0.0,12.862022999999999,1752.0,0.0,1560.0,5.0,1500.0,,,,,,,,,,,,,,,,
8.000039000000001,-10.43955135345459,0.0,0.0,0.0,0.0,-0.00039183552050634695,0.02555309794843197,1482.0,0.0,0.0,1019.0,0.0,-0.05305800926062762,0.0,5.0,-1.2748383283615112,0.0,1500.0,0.0,12.942416,0.0,0.0,0.0,1585.0,1500.0,3.8827690725994826e-05,0.0,0.008028514559173916,0.0,0.0,1.0,0.21509040892124176,-0.002739730872533894,0.0,12.961962,1765.0,0.0,1560.0,5.0,1500.0,,,,,,,,,,,,,,,,
8.100052999999999,-9.710248947143555,0.0,0.0,0.0,0.0,-0.00024996749557810825,0.03793157637119293,1482.0,0.0,0.0,1019.0,0.0,-0.05305800926062762,0.0,5.0,-1.6345443725585938,0.0,1500.0,0.0,13.022928,0.0,0.0,0.0,1585.0,1500.0,4.3243460184326774e-05,0.0,0.008028514559173916,0.0,0.0,1.0,0.22571216523647308,-0.001307316130646825,0.0,13.061976,1793.0,0.0,1560.0,5.0,1500.0,,,,,,,,,,,,,,,,
8.200064999999999,-9.306278228759766,0.0,0.0,0.0,0.0,-2.270780656970332e-05,-0.01830701343715191,1483.0,0.0,0.0,1020.0,0.0,-0.05305800926062762,0.0,5.0,-1.7519069910049438,0.0,1500.0,0.0,13.142394999999999,0.0,0.0,0.0,1584.0,1500.0,2.025966675358354e-06,0.0,0.008028514559173916,0.0,0.0,1.0,0.3797275125980377,-0.0008318747768917785,0.0,13.161988,1819.0,0.0,1559.0,5.0,1500.0,,,,,,,,,,,,,,,,
8.300066000000001,-9.288107872009277,0.0,0.0,0.0,0.0,0.0001607462837914324,0.0272350013256073,1483.0,0.0,0.0,1020.0,0.0,-0.05305800926062762,0.0,5.0,-1.9979838132858276,0.0,1500.0,0.0,13.222432,0.0,0.0,0.0,1584.0,1500.0,-3.6610069464279066e-05,0.0,0.008028514559173916,0.0,0.0,1.0,0.286787211894989,-0.0016715526937997867,0.0,13.261989,1844.0,0.0,1559.0,5.0,1500.0,,,,,,,,,,,,,,,,
8.400023999999998,-9.386455535888672,0.0,0.0,0.0,0.0,0.0002226406409874668,0.009413822554051876,1483.0,0.0,0.0,1019.0,0.0,-0.05305800926062762,0.0,5.0,-2.2500083446502686,0.0,1500.0,0.0,13.342402,0.0,0.0,0.0,1584.0,1500.0,-5.742609742428606e-05,0.0,0.008028514559173916,0.0,0.0,1.0,0.40097102522850037,-0.0028321355403528635,0.0,13.361946999999999,1856.0,0.0,1559.0,5.0,1500.0,,,,,,,,,,,,,,,,
8.500060000000001,-9.462337493896484,0.0,0.0,0.0,0.0,0.0001776299513814173,-0.011892516165971756,1482.0,0.0,0.0,1020.0,0.0,-0.05305800926062762,0.0,5.0,-2.493321418762207,0.0,1500.0,0.0,13.422386,0.0,0.0,0.0,1584.0,1500.0,-4.7348505842622375e-05,0.0,0.008028514559173916,0.0,0.0,1.0,0.22571216523647308,-0.002191667144432124,0.0,13.461983,1873.0,0.0,1559.0,5.0,1500.0,,,,,,,,,,,,,,,,
8.600017000000001,-9.784252166748047,0.0,0.0,0.0,0.0,3.863043654131231e-05,0.059749431908130646,1482.0,0.0,0.0,1020.0,0.0,-0.05305800926062762,0.0,5.0,-2.517394542694092,0.0,1500.0,0.0,13.542779,0.0,0.0,0.0,1584.0,1501.0,-1.2941415252367074e-05,0.0,0.008028514559173916,0.0,0.0,1.0,0.252266526222229,-0.000660890667288728,0.0,13.56194,1883.0,0.0,1559.0,5.0,1500.0,,,,,,,,,,,,,,,,
8.700043999999998,-9.861909866333008,0.0,0.0,0.0,0.0,-0.0001517153491405644,0.04681010544300079,1483.0,0.0,0.0,1019.0,0.0,-0.05305800926062762,0.0,5.0,-2.486910581588745,0.0,1500.0,0.0,13.622847,0.0,0.0,0.0,1584.0,1500.0,2.8060020368034163e-05,0.0,0.008028514559173916,0.0,0.0,1.0,0.38238295912742615,-0.0008068833247228791,0.0,13.661966999999999,1885.0,0.0,1559.0,5.0,1501.0,,,,,,,,,,,,,,,,
8.800028000000001,-9.860007286071777,0.0,0.0,0.0,0.0,-0.00041774431983881874,0.02805359847843647,1482.0,0.0,0.0,1020.0,0.0,-0.05305800926062762,0.0,5.0,-2.498112678527832,0.0,1500.0,0.0,13.742389999999999,0.0,0.0,0.0,1584.0,1500.0,8.017360799702682e-05,0.0,0.008028514559173916,0.0,0.0,1.0,0.41424819827079773,-0.004726829014322128,0.0,13.761951,1902.0,0.0,1559.0,5.0,1500.0,,,,,,,,,,,,,,,,
8.900074,-9.215086936950684,0.0,0.0,0.0,0.0,-0.00027086542663224756,0.013261442072689533,1482.0,0.0,0.0,1020.0,0.0,-0.05305800926062762,0.0,5.0,-2.7993874549865723,0.0,1500.0,0.0,13.822448,0.0,0.0,0.0,1584.0,1500.0,7.071341254508853e-05,0.0,0.008028514559173916,0.0,0.0,1.0,0.39034926891326904,-0.0007062971737630912,0.0,13.861996999999999,1940.0,0.0,1559.0,5.0,1500.0,,,,,,,,,,,,,,,,
9.000053999999999,-9.09737777709961,0.0,0.0,0.0,0.0,-8.633004678662013e-05,0.026005959138274193,1483.0,0.0,0.0,1019.0,0.0,-0.05305800926062762,0.0,5.0,-2.713005781173706,0.0,1500.0,0.0,13.942419,0.0,0.0,0.0,1584.0,1500.0,2.1214965720223154e-05,0.0,0.008028514559173916,0.0,0.0,1.0,0.23367847502231598,-3.851635737675879e-05,0.0,13.961977,1940.0,0.0,1559.0,5.0,1500.0,,,,,,,,,,,,,,,,
9.100052999999999,-9.068870544433594,0.0,0.0,0.0,0.0,7.239794645871933e-05,0.03870528191328049,1482.0,0.0,0.0,1020.0,0.0,-0.05305800926062762,0.0,5.0,-2.714555263519287,0.0,1500.0,0.0,14.022751,0.0,0.0,0.0,1584.0,1500.0,-2.3225210216880133e-05,0.0,0.008028514559173916,0.0,0.0,1.0,0.4301808178424835,-9.186117749787601e-05,0.0,14.061976,1940.0,0.0,1559.0,5.0,1500.0,,,,,,,,,,,,,,,,
9.200057999999999,-9.214240074157715,0.0,0.0,0.0,0.0,0.00015717403289760591,0.04415491595864296,1482.0,0.0,0.0,1020.0,0.0,-0.05305800926062762,0.0,5.0,-2.743086338043213,0.0,1500.0,0.0,14.142425,0.0,0.0,0.0,1584.0,1500.0,-5.5174861556037806e-05,0.0,0.008028514559173916,0.0,0.0,1.0,0.37441664934158325,5.7427702570511924e-05,0.0,14.161980999999999,1940.0,0.0,1559.0,5.0,1500.0,,,,,,,,,,,,,,,,
9.300045999999998,-9.393487930297852,0.0,0.0,0.0,0.0,0.00016882547644921986,0.06991125643253326,1483.0,0.0,0.0,1019.0,0.0,-0.05305800926062762,0.0,5.0,-2.8153069019317627,0.0,1500.0,0.0,14.222413,0.0,0.0,0.0,1583.0,1500.0,-5.230893595651081e-05,0.0,0.008028514559173916,0.0,0.0,1.0,0.4195590913295746,-9.304441002235527e-05,0.0,14.261968999999999,1941.0,0.0,1559.0,5.0,1500.0,,,,,,,,,,,,,,,,
9.399998,-9.531534194946289,0.0,0.0,0.0,0.0,0.00010222207535657378,0.0716877430677414,1482.0,0.0,0.0,1020.0,0.0,-0.05305800926062762,0.0,5.0,-2.855607271194458,0.0,1500.0,0.0,14.342404,0.0,0.0,0.0,1584.0,1500.0,-2.9822393714465977e-05,0.0,0.008028514559173916,0.0,0.0,1.0,0.34786227345466614,-4.9124114534010225e-05,0.0,14.361920999999999,1940.0,0.0,1559.0,5.0,1500.0,,,,,,,,,,,,,,,,
9.500043999999999,-9.562570571899414,0.0,0.0,0.0,0.0,1.1487650570248662e-05,0.05735990032553673,1483.0,0.0,0.0,1019.0,0.0,-0.05305800926062762,0.0,5.0,-2.8617963790893555,0.0,1500.0,0.0,14.422403,0.0,0.0,0.0,1583.0,1500.0,4.996295988798468e-06,0.0,0.008028514559173916,0.0,0.0,1.0,0.35848402976989746,-2.151239322038349e-05,0.0,14.461967,1941.0,0.0,1559.0,5.0,1500.0,,,,,,,,,,,,,,,,
9.600047,-9.521980285644531,0.0,0.0,0.0,0.0,-8.683264854739768e-05,0.05312420055270195,1482.0,0.0,0.0,1020.0,0.0,-0.05305800926062762,0.0,5.0,-2.848217487335205,0.0,1500.0,0.0,14.542855999999999,0.0,0.0,0.0,1584.0,1500.0,1.5143997919411035e-05,0.0,0.008028514559173916,0.0,0.0,1.0,0.39300471544265747,1.4505931976324005e-05,0.0,14.561969999999999,1940.0,0.0,1559.0,5.0,1500.0,,,,,,,,,,,,,,,,
9.700023999999999,-9.400275230407715,0.0,0.0,0.0,0.0,-0.0001311026708572369,0.05258183926343918,1482.0,0.0,0.0,1020.0,0.0,-0.05305800926062762,0.0,5.0,-2.8100595474243164,0.0,1500.0,0.0,14.623244999999999,0.0,0.0,0.0,1584.0,1500.0,2.201646602656298e-05,0.0,0.008028514559173916,0.0,0.0,1.0,0.41424819827079773,3.3636444648488684e-05,0.0,14.661947,1940.0,0.0,1559.0,5.0,1500.0,,,,,,,,,,,,,,,,
9.80009,-9.322083473205566,0.0,0.0,0.0,0.0,-0.00010753777512601224,0.055339276790618896,1482.0,0.0,0.0,1019.0,0.0,-0.05305800926062762,0.0,5.0,-2.7708492279052734,0.0,1500.0,0.0,14.742379999999999,0.0,0.0,0.0,1584.0,1500.0,3.4362243007887766e-05,0.0,0.008028514559173916,0.0,0.0,1.0,0.4195590913295746,3.1590727944113143e-06,0.0,14.762013,1940.0,0.0,1559.0,5.0,1501.0,,,,,,,,,,,,,,,,
9.900074,-9.206892013549805,0.0,0.0,0.0,0.0,-4.341167950879717e-05,0.052333567291498184,1482.0,0.0,0.0,1019.0,0.0,-0.05305800926062762,0.0,5.0,-2.777797222137451,0.0,1500.0,0.0,14.822417999999999,0.0,0.0,0.0,1584.0,1500.0,1.1783130560715976e-05,0.0,0.008028514559173916,0.0,0.0,1.0,0.5443646311759949,5.564680299207072e-05,0.0,14.861996999999999,1940.0,0.0,1560.0,5.0,1500.0,,,,,,,,,,,,,,,,
10.000027,-9.257189750671387,0.0,0.0,0.0,0.0,3.2990220905279076e-05,0.056401241570711136,1482.0,0.0,0.0,1020.0,0.0,-0.05305800926062762,0.0,5.0,-2.7695279121398926,0.0,1500.0,0.0,14.942400999999998,0.0,0.0,0.0,1584.0,1500.0,-8.396695660839723e-06,0.0,0.008028514559173916,0.0,0.0,1.0,0.35051771998405457,-3.5372160376587186e-05,0.0,14.96195,1940.0,0.0,1559.0,5.0,1500.0,,,,,,,,,,,,,,,,
10.100037,-9.282919883728027,0.0,0.0,0.0,0.0,6.811377460894013e-05,0.06842848658561707,1482.0,0.0,0.0,1019.0,0.0,-0.05305800926062762,0.0,5.0,-2.7873125076293945,0.0,1500.0,0.0,15.022777,0.0,0.0,0.0,1584.0,1500.0,-1.104819505881347e-05,0.0,0.008028514559173916,0.0,0.0,1.0,0.4275254011154175,-3.4443130186687245e-05,0.0,15.06196,1940.0,0.0,1560.0,5.0,1500.0,,,,,,,,,,,,,,,,
10.200026000000001,-9.263506889343262,0.0,0.0,0.0,0.0,0.00010042292993875505,0.055244430899620056,1482.0,0.0,0.0,1020.0,0.0,-0.05305800926062762,0.0,5.0,-2.8551697731018066,0.0,1500.0,0.0,15.142403,0.0,0.0,0.0,1584.0,1500.0,-2.9235320625594736e-05,0.0,0.008028514559173916,0.0,0.0,1.0,0.573574423789978,0.00011271852070263832,0.0,15.161949,1940.0,0.0,1559.0,5.0,1500.0,,,,,,,,,,,,,,,,
10.300049000000001,-9.436408996582031,0.0,0.0,0.0,0.0,4.768325400844935e-05,0.051086097955703735,1482.0,0.0,0.0,1019.0,0.0,-0.05305800926062762,0.0,5.0,-2.816375255584717,0.0,1500.0,0.0,15.222432999999999,0.0,0.0,0.0,1584.0,1500.0,-1.5104971531900584e-05,0.0,0.008028514559173916,0.0,0.0,1.0,0.4939113259315491,-0.00014599904550976396,0.0,15.261972,1940.0,0.0,1559.0,5.0,1501.0,,,,,,,,,,,,,,,,
10.400043,-9.466440200805664,0.0,0.0,0.0,0.0,4.159307220094752e-06,0.049892447888851166,1483.0,0.0,0.0,1019.0,0.0,-0.05305800926062762,0.0,5.0,-2.836791515350342,0.0,1500.0,0.0,15.342407999999999,0.0,0.0,0.0,1583.0,1500.0,-1.5948143669277535e-05,0.0,0.008028514559173916,0.0,0.0,1.0,0.5284320116043091,-4.24324752924397e-05,0.0,15.361965999999999,1941.0,0.0,1559.0,5.0,1500.0,,,,,,,,,,,,,,,,
10.500051,-9.437737464904785,0.0,0.0,0.0,0.0,-3.063025568261995e-05,0.05818348377943039,1482.0,0.0,0.0,1020.0,0.0,-0.05305800926062762,0.0,5.0,-2.8293890953063965,0.0,1500.0,0.0,15.422502,0.0,0.0,0.0,1584.0,1500.0,-4.255004412616146e-06,0.0,0.008028514559173916,0.0,0.0,1.0,0.4115927815437317,-8.594082930430844e-06,0.0,15.461974,1940.0,0.0,1559.0,5.0,1500.0,,,,,,,,,,,,,,,,
10.600038999999999,-9.40945053100586,0.0,0.0,0.0,0.0,-4.877064914409129e-05,0.06230427324771881,1482.0,0.0,0.0,1020.0,0.0,-0.05305800926062762,0.0,5.0,-2.8208045959472656,0.0,1500.0,0.0,15.542793999999999,0.0,0.0,0.0,1584.0,1500.0,1.4799537603002258e-05,0.0,0.008028514559173916,0.0,0.0,1.0,0.4939113259315491,-1.3521536432615797e-05,0.0,15.561962,1940.0,0.0,1559.0,5.0,1500.0,,,,,,,,,,,,,,,,
10.700005999999998,-9.29464054107666,0.0,0.0,0.0,0.0,-5.870007150629321e-05,0.05424811691045761,1482.0,0.0,0.0,1020.0,0.0,-0.05305800926062762,0.0,5.0,-2.8375298976898193,0.0,1500.0,0.0,15.622824999999999,0.0,0.0,0.0,1584.0,1500.0,7.743892849934742e-06,0.0,0.008028514559173916,0.0,0.0,1.0,0.41690364480018616,5.641248618743649e-05,0.0,15.661928999999999,1940.0,0.0,1559.0,5.0,1500.0,,,,,,,,,,,,,,,,
10.800038,-9.563116073608398,0.0,0.0,0.0,0.0,2.662177277670931e-05,0.0767924040555954,1482.0,0.0,0.0,1019.0,0.0,-0.05305800926062762,0.0,5.0,-2.661626100540161,0.0,1500.0,0.0,15.742405,0.0,0.0,0.0,1584.0,1500.0,2.5872017355910397e-07,0.0,0.008028514559173916,0.0,0.0,1.0,0.5523309707641602,0.0024468936842133894,0.0,15.761961,1910.0,0.0,1560.0,5.0,1500.0,,,,,,,,,,,,,,,,
10.900089999999999,-8.905635833740234,0.0,0.0,0.0,0.0,9.406564062420103e-05,-0.005439416039735079,1483.0,0.0,0.0,1020.0,0.0,-0.05305800926062762,0.0,5.0,-2.7630720138549805,0.0,1500.0,0.0,15.822427999999999,0.0,0.0,0.0,1584.0,1500.0,3.333079026596313e-06,0.0,0.008028514559173916,0.0,0.0,1.0,0.3770720958709717,0.0015888952215779401,0.0,15.862013,1903.0,0.0,1559.0,5.0,1500.0,,,,,,,,,,,,,,,,
11.000022999999999,-9.63003921508789,0.0,0.0,0.0,0.0,0.00021958244325204944,-0.02801167219877243,1482.0,0.0,0.0,1020.0,0.0,-0.05305800926062762,0.0,5.0,-2.146103858947754,0.0,1501.0,0.0,15.942385999999999,0.0,0.0,0.0,1584.0,1500.0,-5.523872605752048e-05,0.0,0.008028514559173916,0.0,0.0,1.0,0.5363982915878296,0.007542710949647102,0.0,15.961946,1868.0,0.0,1559.0,5.0,1500.0,,,,,,,,,,,,,,,,
11.100089,-10.587157249450684,0.0,0.0,0.0,0.0,0.00013741036724890373,0.013989228755235672,1483.0,0.0,0.0,1020.0,0.0,-0.05305800926062762,0.0,5.0,-1.4651577472686768,0.0,1500.0,0.0,16.022742,0.0,0.0,0.0,1584.0,1500.0,-2.295342035605895e-05,0.0,0.008028514559173916,0.0,0.0,1.0,0.5018776059150696,0.004156700320395805,0.0,16.062012,1832.0,0.0,1559.0,5.0,1500.0,,,,,,,,,,,,,,,,
11.200064000000001,-8.81869125366211,0.0,0.0,0.0,0.0,0.0003669774214476955,-0.10187681764364243,1483.0,0.0,0.0,1020.0,0.0,-0.05305800926062762,0.0,5.0,-1.920253038406372,0.0,1500.0,0.0,16.142328,0.0,0.0,0.0,1584.0,1500.0,-8.834085206854083e-05,0.0,0.008028514559173916,0.0,0.0,1.0,0.4726678133010864,0.002396844200848339,0.0,16.161987,1778.0,0.0,1559.0,5.0,1500.0,,,,,,,,,,,,,,,,
11.299989,-10.410120010375977,0.0,0.0,0.0,0.0,0.0003730961250781663,-0.03418177366256714,1482.0,0.0,0.0,1019.0,0.0,-0.05305800926062762,0.0,5.0,-1.2640526294708252,0.0,1500.0,0.0,16.222424,0.0,0.0,0.0,1585.0,1500.0,-7.397568735256364e-05,0.0,0.008028514559173916,0.0,0.0,1.0,0.46470150351524353,0.006954892000120467,0.0,16.261912,1761.0,0.0,1560.0,5.0,1500.0,,,,,,,,,,,,,,,,
11.400039,-9.383831024169922,0.0,0.0,0.0,0.0,0.00029225631231516387,0.10495855659246445,1482.0,0.0,0.0,1019.0,0.0,-0.05305800926062762,0.0,5.0,-1.4317004680633545,0.0,1500.0,0.0,16.342397,0.0,0.0,0.0,1586.0,1500.0,-6.309419384071333e-05,0.0,0.008028514559173916,0.0,0.0,1.0,0.44876888394355774,0.005281700187886088,0.0,16.361962,1721.0,0.0,1560.0,5.0,1500.0,,,,,,,,,,,,,,,,
11.500063,-9.624715805053711,0.0,0.0,0.0,0.0,8.132598920467889e-05,0.006253623403608799,1483.0,0.0,0.0,1019.0,0.0,-0.05305800926062762,0.0,5.0,-1.1363499164581299,0.0,1500.0,0.0,16.422427,0.0,0.0,0.0,1586.0,1501.0,1.8924927981753002e-05,0.0,0.008028514559173916,0.0,0.0,1.0,0.6293386220932007,0.001496215785234394,0.0,16.461986,1695.0,0.0,1560.0,5.0,1500.0,,,,,,,,,,,,,,,,
11.600104000000002,-10.295613288879395,0.0,0.0,0.0,0.0,-0.0001350175209105824,-0.06473615020513535,1483.0,0.0,0.0,1019.0,0.0,-0.05305800926062762,0.0,5.0,-0.8047444820404053,0.0,1500.0,0.0,16.542939,0.0,0.0,0.0,1587.0,1500.0,3.589628887530963e-06,0.0,0.008028514559173916,0.0,0.0,1.0,0.6134060025215149,0.0011204255502214493,0.0,16.562027,1662.0,0.0,1561.0,5.0,1500.0,,,,,,,,,,,,,,,,
11.700047000000001,-10.451170921325684,0.0,0.0,0.0,0.0,-7.331760381375864e-06,-0.08362244069576263,1484.0,0.0,0.0,1019.0,0.0,-0.05305800926062762,0.0,5.0,-0.17055265605449677,0.0,1500.0,0.0,16.62274,0.0,0.0,0.0,1587.0,1500.0,-8.163723315336564e-05,0.0,0.008028514559173916,0.0,0.0,1.0,0.5576418042182922,0.006820966726357156,0.0,16.66197,1632.0,0.0,1560.0,5.0,1500.0,,,,,,,,,,,,,,,,
11.800017,-9.83088207244873,0.0,0.0,0.0,0.0,-0.00015471151914942083,0.07283231616020203,1484.0,0.0,0.0,1019.0,0.0,-0.05305800926062762,0.0,5.0,-0.0481061190366745,0.0,1500.0,0.0,16.742376999999998,0.0,0.0,0.0,1591.0,1500.0,-3.648877730086249e-05,0.0,0.008028514559173916,0.0,0.0,1.0,0.7196235060691833,0.0037493399231207872,0.0,16.76194,1582.0,0.0,1561.0,5.0,1500.0,,,,,,,,,,,,,,,,
11.900034999999999,-9.042913436889648,0.0,0.0,0.0,0.0,-0.00010912114012713906,0.0017906120046973228,1484.0,0.0,0.0,1020.0,0.0,-0.05305800926062762,0.0,5.0,-0.1001998782157898,0.0,1500.0,0.0,16.822423999999998,0.0,0.0,0.0,1592.0,1500.0,-3.3964252080761805e-05,0.0,0.008028514559173916,0.0,0.0,1.0,0.756799578666687,0.0034629138269908627,0.0,16.861957999999998,1566.0,0.0,1561.0,5.0,1500.0,,,,,,,,,,,,,,,,
12.000001000000001,-8.847803115844727,0.0,0.0,0.0,0.0,0.00023768886653662181,0.02729335054755211,1484.0,0.0,0.0,1020.0,0.0,-0.05305800926062762,0.0,5.0,-0.042922988533973694,0.0,1500.0,0.0,16.942387999999998,0.0,0.0,0.0,1593.0,1500.0,-3.229797619749252e-05,0.0,0.008028514559173916,0.0,0.0,1.0,0.5363982915878296,0.0058906236487543,0.0,16.961924,1548.0,0.0,1562.0,5.0,1500.0,,,,,,,,,,,,,,,,
12.100521,-9.309258460998535,0.0,0.0,0.0,0.0,0.0004210531479505052,-0.0230875127017498,1485.0,0.0,0.0,1020.0,0.0,-0.05305800926062762,0.0,5.0,0.20680004358291626,0.0,1500.0,0.0,17.022835,0.0,0.0,0.0,1594.0,1500.0,-2.078489498065376e-06,0.0,0.008028514559173916,0.0,0.0,1.0,0.5762298703193665,0.0035206752943211595,0.0,17.062444,1535.0,0.0,1561.0,5.0,1500.0,,,,,,,,,,,,,,,,
12.200088000000001,-9.705093383789062,0.0,0.0,0.0,0.0,0.0004534038907903846,-0.02274405024945736,1485.0,0.0,0.0,1019.0,0.0,-0.05305800926062762,0.0,5.0,0.37140998244285583,0.0,1500.0,0.0,17.142395,0.0,0.0,0.0,1595.0,1500.0,-7.509423146822531e-06,0.0,0.008028514559173916,0.0,0.0,1.0,0.44345802068710327,0.003020383318644311,0.0,17.162011,1514.0,0.0,1562.0,5.0,1500.0,,,,,,,,,,,,,,,,
12.300042999999999,-10.147249221801758,0.0,0.0,0.0,0.0,0.00025089805776833005,-0.07559418678283691,1485.0,0.0,0.0,1020.0,0.0,-0.05305800926062762,0.0,5.0,0.624292254447937,0.0,1500.0,0.0,17.222417,0.0,0.0,0.0,1597.0,1500.0,-9.639735120962364e-06,0.0,0.008028514559173916,0.0,0.0,1.0,0.5868515968322754,-5.620905930119173e-05,0.0,17.261965999999997,1494.0,0.0,1562.0,5.0,1500.0,,,,,,,,,,,,,,,,
12.400075000000001,-10.080615997314453,0.0,0.0,0.0,0.0,-5.224039824449714e-06,-0.10395505279302597,1485.0,0.0,0.0,1020.0,0.0,-0.05305800926062762,0.0,5.0,0.6345477104187012,0.0,1500.0,0.0,17.342395,0.0,0.0,0.0,1597.0,1500.0,-9.930975696745803e-06,0.0,0.008028514559173916,0.0,0.0,1.0,0.539053738117218,0.0006869077225590656,0.0,17.361998,1488.0,0.0,1563.0,5.0,1500.0,,,,,,,,,,,,,,,,
12.500036000000001,-10.238903045654297,0.0,0.0,0.0,0.0,-0.00025615648429496525,-0.0693221241235733,1486.0,0.0,0.0,1019.0,0.0,-0.05305800926062762,0.0,5.0,0.8328824043273926,0.0,1500.0,0.0,17.42242,0.0,0.0,0.0,1598.0,1500.0,-4.2925844414672544e-05,0.0,0.008028514559173916,0.0,0.0,1.0,0.5762298703193665,0.0005125592264666071,0.0,17.461959,1480.0,0.0,1563.0,5.0,1500.0,,,,,,,,,,,,,,,,
12.600012,-9.914338111877441,0.0,0.0,0.0,0.0,-0.00020640197397863078,-0.10816824436187744,1486.0,0.0,0.0,1019.0,0.0,-0.05305800926062762,0.0,5.0,0.9439407587051392,0.0,1500.0,0.0,17.542809,0.0,0.0,0.0,1599.0,1500.0,-5.407289819452316e-05,0.0,0.008028514559173916,0.0,0.0,1.0,0.46735695004463196,0.0016863085307888322,0.0,17.561935,1470.0,0.0,1565.0,5.0,1500.0,,,,,,,,,,,,,,,,
12.700074,-9.414669036865234,0.0,0.0,0.0,0.0,-0.00014064393635273458,0.012952067889273167,1488.0,0.0,0.0,1019.0,0.0,-0.05305800926062762,0.0,5.0,0.8867405652999878,0.0,1500.0,0.0,17.622778999999998,0.0,0.0,0.0,1599.0,1500.0,-2.8064352231013326e-05,0.0,0.008028514559173916,0.0,0.0,1.0,0.5841962099075317,0.0014389225817266255,0.0,17.661997,1463.0,0.0,1564.0,5.0,1500.0,,,,,,,,,,,,,,,,
12.800078,-9.340755462646484,0.0,0.0,0.0,0.0,-1.6266066245362274e-05,-0.05077754333615303,1488.0,0.0,0.0,1019.0,0.0,-0.05305800926062762,0.0,5.0,0.9064820408821106,0.0,1500.0,0.0,17.742421999999998,0.0,0.0,0.0,1599.0,1500.0,-8.35939124981841e-06,0.0,0.008028514559173916,0.0,0.0,1.0,0.5815407633781433,0.0007460569464886457,0.0,17.762000999999998,1454.0,0.0,1566.0,5.0,1500.0,,,,,,,,,,,,,,,,
12.900051000000001,-9.432340621948242,0.0,0.0,0.0,0.0,0.00014121182489646076,-0.04590095579624176,1489.0,0.0,0.0,1020.0,0.0,-0.05305800926062762,0.0,5.0,1.0122768878936768,0.0,1500.0,0.0,17.822422,0.0,0.0,0.0,1600.0,1501.0,-4.9327250868469795e-06,0.0,0.008028514559173916,0.0,0.0,1.0,0.4381471276283264,0.001516882461449492,0.0,17.861974,1446.0,0.0,1565.0,5.0,1500.0,,,,,,,,,,,,,,,,
13.000073,-9.742729187011719,0.0,0.0,0.0,0.0,0.00019842461667380566,-0.11050638556480408,1489.0,0.0,0.0,1019.0,0.0,-0.05305800926062762,0.0,5.0,1.1312015056610107,0.0,1500.0,0.0,17.942241,0.0,0.0,0.0,1601.0,1501.0,1.497595942786988e-05,0.0,0.008028514559173916,0.0,0.0,1.0,0.44080257415771484,0.0004072953786937171,0.0,17.961996,1437.0,0.0,1567.0,5.0,1500.0,,,,,,,,,,,,,,,,
13.100062999999999,-9.910713195800781,0.0,0.0,0.0,0.0,0.00018952064705757274,-0.08280587196350098,1490.0,0.0,0.0,1019.0,0.0,-0.05305800926062762,0.0,5.0,1.2020236253738403,0.0,1500.0,0.0,18.022941,0.0,0.0,0.0,1601.0,1500.0,1.1609202807990437e-05,0.0,0.008028514559173916,0.0,0.0,1.0,0.4195590913295746,0.0005439615432610523,0.0,18.061985999999997,1434.0,0.0,1567.0,5.0,1500.0,,,,,,,,,,,,,,,,
13.200040999999999,-9.948145866394043,0.0,0.0,0.0,0.0,6.929421133442346e-05,-0.08561204373836517,1490.0,0.0,0.0,1020.0,0.0,-0.05305800926062762,0.0,5.0,1.2354307174682617,0.0,1500.0,0.0,18.142418,0.0,0.0,0.0,1601.0,1500.0,3.376059356582116e-06,0.0,0.008028514559173916,0.0,0.0,1.0,0.4859450161457062,0.00028235115407477114,0.0,18.161963999999998,1430.0,0.0,1567.0,5.0,1500.0,,,,,,,,,,,,,,,,
13.300037,-9.954378128051758,0.0,0.0,0.0,0.0,-4.031279639613087e-05,-0.07054241001605988,1490.0,0.0,0.0,1020.0,0.0,-0.05305800926062762,0.0,5.0,1.2218140363693237,0.0,1500.0,0.0,18.22241,0.0,0.0,0.0,1602.0,1500.0,-1.6230263357202876e-05,0.0,0.008028514559173916,0.0,0.0,1.0,0.45673519372940063,0.00024996478105233894,0.0,18.26196,1428.0,0.0,1567.0,5.0,1500.0,,,,,,,,,,,,,,,,
13.40006,-9.987876892089844,0.0,0.0,0.0,0.0,-0.00014735642217693465,-0.09207285940647125,1490.0,0.0,0.0,1020.0,0.0,-0.05305800926062762,0.0,5.0,1.3047200441360474,0.0,1500.0,0.0,18.342419,0.0,0.0,0.0,1602.0,1500.0,-2.9014476886884034e-05,0.0,0.008028514559173916,0.0,0.0,1.0,0.5151548385620117,0.00025450907599125716,0.0,18.361983,1425.0,0.0,1567.0,5.0,1500.0,,,,,,,,,,,,,,,,
13.500079,-9.652286529541016,0.0,0.0,0.0,0.0,-7.707562701717607e-05,-0.05600818246603012,1490.0,0.0,0.0,1019.0,0.0,-0.05305800926062762,0.0,5.0,1.2244778871536255,0.0,1500.0,0.0,18.422416,0.0,0.0,0.0,1602.0,1500.0,-1.1810365218958333e-05,0.0,0.008028514559173916,0.0,0.0,1.0,0.5788853168487549,0.0005407708539115893,0.0,18.462002,1423.0,0.0,1568.0,5.0,1500.0,,,,,,,,,,,,,,,,
13.600004000000002,-9.664117813110352,0.0,0.0,0.0,0.0,-7.891136976894447e-05,-0.08356060087680817,1491.0,0.0,0.0,1019.0,0.0,-0.05305800926062762,0.0,5.0,1.2932419776916504,0.0,1500.0,0.0,18.542745999999998,0.0,0.0,0.0,1602.0,1500.0,-2.480799817809791e-05,0.0,0.008028514559173916,0.0,0.0,1.0,0.608095109462738,0.00018185588283699635,0.0,18.561927,1421.0,0.0,1568.0,5.0,1500.0,,,,,,,,,,,,,,,,
13.700029,-9.528934478759766,0.0,0.0,0.0,0.0,1.592331876220464e-05,-0.05637304484844208,1491.0,0.0,0.0,1019.0,0.0,-0.05305800926062762,0.0,5.0,1.2768213748931885,0.0,1500.0,0.0,18.622922,0.0,0.0,0.0,1602.0,1500.0,-1.7555931275005458e-06,0.0,0.008028514559173916,0.0,0.0,1.0,0.5470200777053833,-8.36419652934267e-06,0.0,18.661952,1420.0,0.0,1568.0,5.0,1500.0,,,,,,,,,,,,,,,,
13.800034,-9.470037460327148,0.0,0.0,0.0,0.0,0.00010763403513562802,-0.06225941330194473,1491.0,0.0,0.0,1019.0,0.0,-0.05305800926062762,0.0,5.0,1.2242746353149414,0.0,1500.0,0.0,18.742397999999998,0.0,0.0,0.0,1602.0,1500.0,1.2567748386054927e-05,0.0,0.008028514559173916,0.0,0.0,1.0,0.5284320116043091,0.0002637124724290254,0.0,18.761957,1418.0,0.0,1568.0,5.0,1500.0,,,,,,,,,,,,,,,,
13.900029,-9.666400909423828,0.0,0.0,0.0,0.0,7.943642732223878e-05,-0.11307698488235474,1490.0,0.0,0.0,1020.0,0.0,-0.05305800926062762,0.0,5.0,1.3241944313049316,0.0,1500.0,0.0,18.822438,0.0,0.0,0.0,1603.0,1500.0,2.371141104052457e-05,0.0,0.008028514559173916,0.0,0.0,1.0,0.4965667724609375,-2.1384981183001984e-05,0.0,18.861952,1417.0,0.0,1568.0,5.0,1500.0,,,,,,,,,,,,,,,,
14.000069,-9.774402618408203,0.0,0.0,0.0,0.0,9.068860802073006e-05,-0.07271888852119446,1491.0,0.0,0.0,1020.0,0.0,-0.05305800926062762,0.0,5.0,1.3151130676269531,0.0,1500.0,0.0,18.942403,0.0,0.0,0.0,1602.0,1500.0,-3.081054306532897e-06,0.0,0.008028514559173916,0.0,0.0,1.0,0.6240277290344238,1.8549868295519552e-05,0.0,18.961992,1416.0,0.0,1568.0,5.0,1500.0,,,,,,,,,,,,,,,,
14.100096,-9.761030197143555,0.0,0.0,0.0,0.0,1.9973344477905134e-05,-0.10915879905223846,1491.0,0.0,0.0,1019.0,0.0,-0.05305800926062762,0.0,5.0,1.332029938697815,0.0,1500.0,0.0,19.022814,0.0,0.0,0.0,1603.0,1500.0,-5.750017289077895e-06,0.0,0.008028514559173916,0.0,0.0,1.0,0.4461134672164917,2.727295621857377e-05,0.0,19.062019,1414.0,0.0,1568.0,5.0,1500.0,,,,,,,,,,,,,,,,
14.199987,-9.867972373962402,0.0,0.0,0.0,0.0,1.8326548771142755e-06,-0.09442418813705444,1491.0,0.0,0.0,1020.0,0.0,-0.05305800926062762,0.0,5.0,1.4112346172332764,0.0,1500.0,0.0,19.142398,0.0,0.0,0.0,1603.0,1501.0,-7.297108017330889e-06,0.0,0.008028514559173916,0.0,0.0,1.0,0.539053738117218,0.00044216477882673476,0.0,19.16191,1410.0,0.0,1568.0,5.0,1500.0,,,,,,,,,,,,,,,,
14.300058,-9.875570297241211,0.0,0.0,0.0,0.0,-1.3926852109291424e-05,-0.07724522054195404,1490.0,0.0,0.0,1019.0,0.0,-0.05305800926062762,0.0,5.0,1.4662435054779053,0.0,1500.0,0.0,19.222399,0.0,0.0,0.0,1604.0,1500.0,-8.144349403573469e-06,0.0,0.008028514559173916,0.0,0.0,1.0,0.5602972507476807,0.00041357604361020814,0.0,19.261981,1407.0,0.0,1569.0,5.0,1500.0,,,,,,,,,,,,,,,,
14.400034999999999,-9.550375938415527,0.0,0.0,0.0,0.0,-2.8612113460165593e-05,-0.07313524931669235,1491.0,0.0,0.0,1020.0,0.0,-0.05305800926062762,0.0,5.0,1.375368595123291,0.0,1500.0,0.0,19.342387,0.0,0.0,0.0,1604.0,1500.0,-2.1829267371844754e-05,0.0,0.008028514559173916,0.0,0.0,1.0,0.49125587940216064,0.0007382414529419689,0.0,19.361957999999998,1403.0,0.0,1568.0,5.0,1500.0,,,,,,,,,,,,,,,,
14.500050000000002,-9.723406791687012,0.0,0.0,0.0,0.0,-1.8355655761343508e-05,-0.08099476993083954,1491.0,0.0,0.0,1020.0,0.0,-0.05305800926062762,0.0,5.0,1.5037050247192383,0.0,1501.0,0.0,19.422442,0.0,0.0,0.0,1604.0,1500.0,-1.8354237543538883e-05,0.0,0.008028514559173916,0.0,0.0,1.0,0.4965667724609375,0.0004998747189313506,0.0,19.461973,1401.0,0.0,1568.0,5.0,1500.0,,,,,,,,,,,,,,,,
14.600076999999999,-9.610394477844238,0.0,0.0,0.0,0.0,-4.059362790341419e-05,-0.061965372413396835,1491.0,0.0,0.0,1019.0,0.0,-0.05305800926062762,0.0,5.0,1.4966440200805664,0.0,1500.0,0.0,19.542787,0.0,0.0,0.0,1604.0,1500.0,-1.2768278897685805e-05,0.0,0.008028514559173916,0.0,0.0,1.0,0.4726678133010864,-2.4911684528796635e-05,0.0,19.561999999999998,1395.0,0.0,1569.0,5.0,1500.0,,,,,,,,,,,,,,,,
14.700057000000001,-9.698217391967773,0.0,0.0,0.0,0.0,2.5910168786340452e-05,-0.11499509960412979,1491.0,0.0,0.0,1019.0,0.0,-0.05305800926062762,0.0,5.0,1.5137882232666016,0.0,1500.0,0.0,19.622851999999998,0.0,0.0,0.0,1605.0,1500.0,-5.759764488738679e-06,0.0,0.008028514559173916,0.0,0.0,1.0,0.5417091846466064,0.0007731304886865394,0.0,19.66198,1395.0,0.0,1569.0,5.0,1501.0,,,,,,,,,,,,,,,,
14.800044,-9.613966941833496,0.0,0.0,0.0,0.0,0.00011172150139500442,-0.0897151306271553,1491.0,0.0,0.0,1019.0,0.0,-0.05305800926062762,0.0,5.0,1.52280855178833,0.0,1500.0,0.0,19.74242,0.0,0.0,0.0,1605.0,1500.0,9.40518668441186e-06,0.0,0.008028514559173916,0.0,0.0,1.0,0.4354917109012604,0.0013320477685648464,0.0,19.761967,1391.0,0.0,1569.0,5.0,1500.0,,,,,,,,,,,,,,,,
14.900023000000001,-9.669069290161133,0.0,0.0,0.0,0.0,8.105577198079292e-05,-0.07884986698627472,1492.0,0.0,0.0,1019.0,0.0,-0.05305800926062762,0.0,5.0,1.5557587146759033,0.0,1500.0,0.0,19.822418,0.0,0.0,0.0,1605.0,1500.0,6.2430613184042415e-06,0.0,0.008028514559173916,0.0,0.0,1.0,0.5310874581336975,0.00038403130768352575,0.0,19.861946,1384.0,0.0,1569.0,5.0,1500.0,,,,,,,,,,,,,,,,
15.000027,-9.508188247680664,0.0,0.0,0.0,0.0,9.085111383736866e-05,-0.06765775382518768,1492.0,0.0,0.0,1020.0,0.0,-0.05305800926062762,0.0,5.0,1.5692757368087769,0.0,1500.0,0.0,19.942411,0.0,0.0,0.0,1606.0,1500.0,-8.544991869718103e-06,0.0,0.008028514559173916,0.0,0.0,1.0,0.5124993920326233,0.0007905806956846885,0.0,19.961949999999998,1377.0,0.0,1569.0,5.0,1500.0,,,,,,,,,,,,,,,,
15.100068,-9.917314529418945,0.0,0.0,0.0,0.0,2.017931318431262e-05,-0.12004023045301437,1492.0,0.0,0.0,1020.0,0.0,-0.05305800926062762,0.0,5.0,1.8390510082244873,0.0,1500.0,0.0,20.022928,0.0,0.0,0.0,1607.0,1500.0,-1.8909620169518002e-05,0.0,0.008028514559173916,0.0,0.0,1.0,0.5098439455032349,0.0016825248394686156,0.0,20.061991,1372.0,0.0,1569.0,5.0,1500.0,,,,,,,,,,,,,,,,
15.200032,-9.915900230407715,0.0,0.0,0.0,0.0,3.577688479053911e-05,-0.09664779901504517,1492.0,0.0,0.0,1019.0,0.0,-0.05305800926062762,0.0,5.0,1.9457581043243408,0.0,1500.0,0.0,20.142405,0.0,0.0,0.0,1608.0,1500.0,-3.348133672730372e-05,0.0,0.008028514559173916,0.0,0.0,1.0,0.3717612028121948,0.002031280088302378,0.0,20.161955,1360.0,0.0,1570.0,5.0,1500.0,,,,,,,,,,,,,,,,
15.300039000000002,-9.305673599243164,0.0,0.0,0.0,0.0,3.7405762798576465e-05,-0.06690912693738937,1492.0,0.0,0.0,1020.0,0.0,-0.05305800926062762,0.0,5.0,1.746548056602478,0.0,1501.0,0.0,20.222428,0.0,0.0,0.0,1608.0,1500.0,-2.3274094030864978e-05,0.0,0.008028514559173916,0.0,0.0,1.0,0.4115927815437317,0.0014550154608215398,0.0,20.261962,1356.0,0.0,1570.0,5.0,1500.0,,,,,,,,,,,,,,,,
15.400044999999999,-9.469878196716309,0.0,0.0,0.0,0.0,-3.0436843689726173e-05,-0.10278674215078354,1493.0,0.0,0.0,1019.0,0.0,-0.05305800926062762,0.0,5.0,1.86333167552948,0.0,1500.0,0.0,20.342396,0.0,0.0,0.0,1608.0,1500.0,-1.962430238334532e-05,0.0,0.008028514559173916,0.0,0.0,1.0,0.40628188848495483,0.0003233697515528898,0.0,20.361967999999997,1351.0,0.0,1570.0,5.0,1500.0,,,,,,,,,,,,,,,,
15.500022999999999,-9.436504364013672,0.0,0.0,0.0,0.0,0.00016579190450147018,-0.08324423432350159,1493.0,0.0,0.0,1020.0,0.0,-0.05305800926062762,0.0,5.0,1.9586182832717896,0.0,1500.0,0.0,20.42241,0.0,0.0,0.0,1609.0,1500.0,-2.6458502991740432e-05,0.0,0.008028514559173916,0.0,0.0,1.0,0.35848402976989746,0.0025655499943440293,0.0,20.461945999999998,1336.0,0.0,1570.0,5.0,1500.0,,,,,,,,,,,,,,,,
