time_index,tx_controls_3,wind_x,gps_sat_count_0,tx_controls_6,servos_6,mode_1,acceleration_x,acceleration_y,tx_controls_7,tx_controls_0,tx_controls_4,global_position_longitude,servos_2,magnetometer_1,axis_rate_yaw,axis_rate_pitch,servos_3,velocity_z,altitude_baro,mode_2,servos_7,velocity_x,rpm_0,tx_controls_1,attitude_yaw,time_actual,wind_y,magnetometer_2,mode_0,global_position_latitude,rpm_1,tx_controls_5,attitude_roll,magnetometer_0,servos_5,position_y,acceleration_z,airspeed_0,tx_controls_2,position_x,position_z,time_flight,servos_1,velocity_y,altitude_gps,servos_4,servos_0,axis_rate_roll,attitude_pitch,current_0,battery_0,current_1,current_3,battery_1,current_2,airspeed_1
0.0,1602.0,0.0,16.0,0.0,0.0,1.0,1.6252994537353516,0.37633216381073,0.0,1498.0,0.0,-2.7912426,0.0,-80.0,2.8195510964142288e-05,2.7536029525839317e-06,0.0,0.0,0.3332323729991913,3.0,0.0,0.0,438.1609230041504,1568.0,0.0,7.398349,0.0,427.0,1.0,51.4594472,-14.0,0.0,-0.009948376736367679,-224.0,0.0,0.0,-9.663856506347656,0.0,0.0,0.0,0.0,7.41763,0.0,0.0,14.780000000000001,0.0,0.0,-0.0002718640145131553,-0.04886921905584123,,,,,,,
0.09997999999999951,1602.0,0.0,16.0,0.0,0.0,1.0,1.6142414808273315,0.49124982953071594,0.0,1498.0,0.0,-2.7912426,0.0,-82.0,-4.327339616143911e-06,1.532537639518751e-05,0.0,0.0,0.31411248445510864,3.0,0.0,0.0,438.1609230041504,1568.0,0.0,7.477779,0.0,427.0,1.0,51.4594472,-14.0,0.0,-0.009948376736367679,-224.0,0.0,0.0,-9.65213394165039,0.0,0.0,0.0,0.0,7.5176099999999995,0.0,0.0,14.780000000000001,0.0,0.0,0.00020058487529216884,-0.04886921905584123,,,,,,,
0.1999740000000001,1602.0,0.0,16.0,0.0,0.0,1.0,1.6039586067199707,0.28164055943489075,0.0,1498.0,0.0,-2.7912425,0.0,-79.0,1.781184441100526e-05,-9.451645508497252e-06,0.0,0.0,0.30318683385849,3.0,0.0,0.0,438.1609230041504,1568.0,0.0,7.598528,0.0,426.0,1.0,51.4594473,-14.0,0.0,-0.009948376736367679,-223.0,0.0,0.0,-9.695050239562988,0.0,0.0,0.0,0.0,7.617604,0.0,0.0,14.88,0.0,0.0,-8.759220374147586e-05,-0.04886921905584123,,,,,,,
0.3000239999999996,1602.0,0.0,16.0,0.0,0.0,1.0,1.6343055963516235,0.5210782289505005,0.0,1498.0,0.0,-2.7912425,0.0,-80.0,-1.0012568936701595e-05,3.6558557731307034e-07,0.0,0.0,0.2895297706127167,3.0,0.0,0.0,438.1609230041504,1568.0,0.0,7.677667,0.0,426.0,1.0,51.4594473,-14.0,0.0,-0.009948376736367679,-220.0,0.0,0.0,-9.641749382019043,0.0,0.0,0.0,0.0,7.717654,0.0,0.0,14.88,0.0,0.0,0.00016494079501759787,-0.04886921905584123,,,,,,,
0.39998999999999985,1602.0,0.0,16.0,0.0,0.0,1.0,1.6080412864685059,0.24178627133369446,0.0,1498.0,0.0,-2.7912426,0.0,-79.0,7.352047702614701e-06,-2.7269679383667744e-06,0.0,0.0,0.2430957406759262,3.0,0.0,0.0,438.1609230041504,1568.0,0.0,7.798194,0.0,426.0,1.0,51.4594479,-14.0,0.0,-0.009948376736367679,-220.0,0.0,0.0,-9.701918601989746,0.0,0.0,0.0,0.0,7.81762,0.0,0.0,14.950000000000001,0.0,0.0,-0.00015415185545622918,-0.04886921905584123,,,,,,,
0.49997699999999945,1602.0,0.0,16.0,0.0,0.0,1.0,1.6180176734924316,0.5359107255935669,0.0,1498.0,0.0,-2.7912426,0.0,-79.0,-2.9692485065154054e-06,-3.972417403637707e-06,0.0,0.0,0.3086496591567993,3.0,0.0,0.0,437.47084045410156,1568.0,0.0,7.878422,0.0,425.0,1.0,51.4594479,-14.0,0.0,-0.009948376736367679,-220.0,0.0,0.0,-9.669862747192383,0.0,0.0,0.0,0.0,7.917606999999999,0.0,0.0,14.950000000000001,0.0,0.0,1.3979650245053643e-05,-0.04886921905584123,,,,,,,
0.6000079999999999,1602.0,0.0,16.0,0.0,0.0,1.0,1.616648554801941,0.27548110485076904,0.0,1498.0,0.0,-2.7912425,0.0,-79.0,1.4751020534452561e-05,-2.281171235811394e-05,0.0,0.0,0.21305020153522491,3.0,0.0,0.0,437.47084045410156,1568.0,0.0,7.998234,0.0,424.0,1.0,51.459448599999995,-14.0,0.0,-0.009948376736367679,-221.0,0.0,0.0,-9.696109771728516,0.0,0.0,0.0,0.0,8.017638,0.0,0.0,14.96,0.0,0.0,5.615899092992881e-05,-0.04886921905584123,,,,,,,
0.7001540000000004,1602.0,0.0,16.0,0.0,0.0,1.0,1.6144359111785889,0.5019928812980652,0.0,1498.0,0.0,-2.7912425,0.0,-81.0,4.20463279062638e-06,-6.594693489105093e-06,0.0,0.0,0.3386951982975006,3.0,0.0,0.0,437.33689880371094,1568.0,0.0,8.077698,0.0,428.0,1.0,51.459448599999995,-14.0,0.0,-0.009948376736367679,-223.0,0.0,0.0,-9.659271240234375,0.0,0.0,0.0,0.0,8.117784,0.0,0.0,14.96,0.0,0.0,-8.186044194297116e-05,-0.04886921905584123,,,,,,,
0.7999619999999998,1602.0,0.0,16.0,0.0,0.0,1.0,1.628730297088623,0.3677458167076111,0.0,1498.0,0.0,-2.7912426,0.0,-81.0,-5.85985246732854e-06,6.7174638093309256e-06,0.0,0.0,0.3332323729991913,3.0,0.0,0.0,437.47084045410156,1568.0,0.0,8.198209,0.0,425.0,1.0,51.459449299999996,-14.0,0.0,-0.009948376736367679,-224.0,0.0,0.0,-9.672602653503418,0.0,0.0,0.0,0.0,8.217592,0.0,0.0,14.950000000000001,0.0,0.0,0.00015112018530198256,-0.04886921905584123,,,,,,,
0.8999699999999988,1602.0,0.0,16.0,0.0,0.0,1.0,1.6082981824874878,0.4504486918449402,0.0,1498.0,0.0,-2.7912426,0.0,-80.0,1.573926131769551e-05,1.0225649050438854e-05,0.0,0.0,0.2813355326652527,3.0,0.0,0.0,437.33689880371094,1568.0,0.0,8.277652999999999,0.0,425.0,1.0,51.459449299999996,-14.0,0.0,-0.009948376736367679,-224.0,0.0,0.0,-9.660016059875488,0.0,0.0,0.0,0.0,8.317599999999999,0.0,0.0,14.950000000000001,0.0,0.0,-6.717242746154503e-05,-0.04886921905584123,,,,,,,
0.9999999999999991,1602.0,0.0,16.0,0.0,0.0,1.0,1.6221143007278442,0.37369924783706665,0.0,1498.0,0.0,-2.7912426999999997,0.0,-80.0,-2.1484963506397232e-05,-8.225106545210348e-06,0.0,0.0,0.35781508684158325,3.0,0.0,0.0,437.33689880371094,1568.0,0.0,8.398472,0.0,426.0,1.0,51.4594496,-14.0,0.0,-0.009948376736367679,-224.0,0.0,0.0,-9.67529582977295,0.0,0.0,0.0,0.0,8.417629999999999,0.0,0.0,14.92,0.0,0.0,0.00012680812041641754,-0.04886921905584123,,,,,,,
1.0999969999999992,1602.0,0.0,16.0,0.0,0.0,1.0,1.624102234840393,0.425758957862854,0.0,1498.0,0.0,-2.7912426999999997,0.0,-80.0,2.0471547325291562e-05,-1.8785635830469446e-05,0.0,0.0,0.294992595911026,3.0,0.0,0.0,434.8708610534668,1568.0,0.0,8.477855,0.0,426.0,1.0,51.4594496,-14.0,0.0,-0.009948376736367679,-224.0,0.0,0.0,-9.68655776977539,0.0,0.0,0.0,0.0,8.517627,0.0,0.0,14.92,0.0,0.0,-0.00017893243611132484,-0.04886921905584123,,,,,,,
1.1999699999999995,1602.0,0.0,16.0,0.0,0.0,1.0,1.6171557903289795,0.3864683210849762,0.0,1498.0,0.0,-2.7912428,0.0,-79.0,-1.1804678124925182e-05,-2.5652394493450914e-05,0.0,0.0,0.3550836741924286,3.0,0.0,0.0,434.8708610534668,1568.0,0.0,8.598602,0.0,424.0,1.0,51.459449799999994,-14.0,0.0,-0.009948376736367679,-220.0,0.0,0.0,-9.667937278747559,0.0,0.0,0.0,0.0,8.6176,0.0,0.0,14.83,0.0,0.0,0.00012085605128249786,-0.04886921905584123,,,,,,,
1.2999710000000002,1602.0,0.0,16.0,0.0,0.0,1.0,1.6211862564086914,0.4223001003265381,0.0,1498.0,0.0,-2.7912428,0.0,-79.0,9.733582585641517e-07,-8.195307716667941e-06,0.0,0.0,0.44522029161453247,3.0,0.0,0.0,434.5936851501465,1568.0,0.0,8.677776999999999,0.0,424.0,1.0,51.459449799999994,-14.0,0.0,-0.009948376736367679,-219.0,0.0,0.0,-9.671744346618652,0.0,0.0,0.0,0.0,8.717601,0.0,0.0,14.83,0.0,0.0,-0.0001075092969874025,-0.04886921905584123,,,,,,,
1.3999789999999992,1602.0,0.0,16.0,0.0,0.0,1.0,1.6002867221832275,0.39237791299819946,0.0,1498.0,0.0,-2.7912429999999997,0.0,-79.0,-1.7738422178071374e-05,1.2680151036330451e-06,0.0,0.0,0.39332345128059387,3.0,0.0,0.0,434.5936851501465,1568.0,0.0,8.798098,0.0,424.0,1.0,51.459449899999996,-14.0,0.0,-0.009948376736367679,-219.0,0.0,0.0,-9.670626640319824,0.0,0.0,0.0,0.0,8.817609,0.0,0.0,14.74,0.0,0.0,0.0001317583344857191,-0.04886921905584123,,,,,,,
1.5000080000000002,1602.0,0.0,16.0,0.0,0.0,1.0,1.6161766052246094,0.40482428669929504,0.0,1498.0,0.0,-2.7912429999999997,0.0,-79.0,1.367476897409637e-05,-1.224586272425684e-05,0.0,0.0,0.5654024481773376,3.0,0.0,0.0,433.10668182373047,1568.0,0.0,8.878235,0.0,423.0,1.0,51.459449899999996,-14.0,0.0,-0.009948376736367679,-219.0,0.0,0.0,-9.677003860473633,0.0,0.0,0.0,0.0,8.917638,0.0,0.0,14.74,0.0,0.0,-8.04072766508991e-05,-0.04886921905584123,,,,,,,
1.6000039999999993,1602.0,0.0,16.0,0.0,0.0,1.0,1.6307345628738403,0.40943706035614014,0.0,1498.0,0.0,-2.7912432,0.0,-79.0,-1.5646087658860848e-05,-4.229608815105035e-06,0.0,0.0,0.4042491018772125,3.0,0.0,0.0,434.5936851501465,1568.0,0.0,8.998241,0.0,425.0,1.0,51.459449899999996,-14.0,0.0,-0.009948376736367679,-220.0,0.0,0.0,-9.681624412536621,0.0,0.0,0.0,0.0,9.017634,0.0,0.0,14.64,0.0,0.0,0.0001045952129374383,-0.04886921905584123,,,,,,,
1.699967,1602.0,0.0,16.0,0.0,0.0,1.0,1.6136401891708374,0.4166639447212219,0.0,1498.0,0.0,-2.7912432,0.0,-80.0,-2.4277470936651675e-06,6.760207939001846e-06,0.0,0.0,0.3632779121398926,3.0,0.0,0.0,434.5936851501465,1568.0,0.0,9.077641999999999,0.0,425.0,1.0,51.459449899999996,-14.0,0.0,-0.009948376736367679,-223.0,0.0,0.0,-9.653005599975586,0.0,0.0,0.0,0.0,9.117597,0.0,0.0,14.64,0.0,0.0,3.053530620378352e-05,-0.04886921905584123,,,,,,,
1.799988,1602.0,0.0,16.0,0.0,0.0,1.0,1.615993618965149,0.3633423447608948,0.0,1498.0,0.0,-2.7912434999999998,0.0,-80.0,-1.3041063339617821e-05,4.353442036747835e-06,0.0,0.0,0.4643401801586151,3.0,0.0,0.0,441.28681564331055,1568.0,0.0,9.198207,0.0,427.0,1.0,51.459449799999994,-14.0,0.0,-0.009948376736367679,-223.0,0.0,0.0,-9.657929420471191,0.0,0.0,0.0,0.0,9.217618,0.0,0.0,14.55,0.0,0.0,3.645275700682187e-05,-0.04886921905584123,,,,,,,
1.8999630000000005,1602.0,0.0,16.0,0.0,0.0,1.0,1.621124029159546,0.4136822521686554,0.0,1498.0,0.0,-2.7912434999999998,0.0,-80.0,9.684946401019048e-06,-1.0560433789217812e-05,0.0,0.0,0.4889228940010071,3.0,0.0,0.0,441.28681564331055,1568.0,0.0,9.277667,0.0,427.0,1.0,51.459449799999994,-14.0,0.0,-0.009948376736367679,-223.0,0.0,0.0,-9.656962394714355,0.0,0.0,0.0,0.0,9.317593,0.0,0.0,14.55,0.0,0.0,9.706660575342839e-06,-0.04886921905584123,,,,,,,
1.9999820000000001,1602.0,0.0,16.0,0.0,0.0,1.0,1.6157305240631104,0.3911113440990448,0.0,1498.0,0.0,-2.7912436,0.0,-80.0,-3.058080651175239e-06,-5.958930626077575e-06,0.0,0.0,0.33596378564834595,3.0,0.0,0.0,441.28681564331055,1568.0,0.0,9.398507,0.0,427.0,1.0,51.459449899999996,-14.0,0.0,-0.009948376736367679,-223.0,0.0,0.0,-9.655176162719727,0.0,0.0,0.0,0.0,9.417612,0.0,0.0,14.47,0.0,0.0,4.939473812402933e-05,-0.04886921905584123,,,,,,,
2.099977,1602.0,0.0,16.0,0.0,0.0,1.0,1.6229357719421387,0.41083425283432007,0.0,1498.0,0.0,-2.7912436,0.0,-80.0,1.0340157693199325e-06,-1.660747068844992e-05,0.0,0.0,0.4643401801586151,3.0,0.0,0.0,434.5936851501465,1568.0,0.0,9.477647,0.0,427.0,1.0,51.459449899999996,-14.0,0.0,-0.009948376736367679,-225.0,0.0,0.0,-9.665834426879883,0.0,0.0,0.0,0.0,9.517607,0.0,0.0,14.47,0.0,0.0,-1.4059597702170259e-05,-0.04886921905584123,,,,,,,
2.199972999999999,1602.0,0.0,16.0,0.0,0.0,1.0,1.6249804496765137,0.4190765917301178,0.0,1498.0,0.0,-2.7912437,0.0,-79.0,-7.631798275983895e-06,2.8229020931395503e-06,0.0,0.0,0.4807286560535431,3.0,0.0,0.0,441.28681564331055,1568.0,0.0,9.598559999999999,0.0,426.0,1.0,51.459449899999996,-14.0,0.0,-0.009948376736367679,-220.0,0.0,0.0,-9.667547225952148,0.0,0.0,0.0,0.0,9.617602999999999,0.0,0.0,14.41,0.0,0.0,5.0147815841945405e-05,-0.04886921905584123,,,,,,,
2.2999839999999994,1602.0,0.0,16.0,0.0,0.0,1.0,1.6102516651153564,0.37137937545776367,0.0,1498.0,0.0,-2.7912437,0.0,-79.0,-3.2256276936741405e-06,-4.283718243583096e-06,0.0,0.0,0.3687407374382019,3.0,0.0,0.0,434.5936851501465,1568.0,0.0,9.677779,0.0,424.0,1.0,51.459449899999996,-14.0,0.0,-0.009948376736367679,-219.0,0.0,0.0,-9.6641263961792,0.0,0.0,0.0,0.0,9.717614,0.0,0.0,14.41,0.0,0.0,2.001359504339164e-05,-0.04886921905584123,,,,,,,
2.399997,1602.0,0.0,16.0,0.0,0.0,11.0,1.6178948879241943,0.4309759736061096,0.0,1498.0,0.0,-2.7912437999999997,0.0,-79.0,-8.466460090617775e-06,-1.758119264470322e-07,0.0,0.0,0.42336899042129517,3.0,0.0,0.0,437.9626007080078,1568.0,0.0,9.7982,0.0,424.0,11.0,51.45945,-14.0,0.0,-0.009948376736367679,-218.0,0.0,0.0,-9.662125587463379,0.0,0.0,0.0,0.0,9.817627,0.0,0.0,14.35,0.0,0.0,9.387714362968746e-05,-0.04886921905584123,,,,,,,
2.500013,1602.0,0.0,16.0,0.0,0.0,11.0,1.618067979812622,0.3682258725166321,0.0,1498.0,0.0,-2.7912437999999997,0.0,-78.0,3.290939874506089e-06,-1.8540840871872073e-06,0.0,0.0,0.34962084889411926,3.0,0.0,0.0,437.9626007080078,1568.0,0.0,9.878449999999999,0.0,425.0,11.0,51.45945,-14.0,0.0,-0.009948376736367679,-219.0,0.0,0.0,-9.679052352905273,0.0,0.0,0.0,0.0,9.917643,0.0,0.0,14.35,0.0,0.0,-1.8809609400493435e-05,-0.04886921905584123,,,,,,,
2.600328,1602.0,0.0,16.0,0.0,0.0,11.0,1.613652229309082,0.409408301115036,0.0,1498.0,0.0,-2.7912439,0.0,-79.0,5.306877052730551e-06,-1.1253765526410492e-05,0.0,0.0,0.3769349753856659,3.0,0.0,0.0,454.63502502441406,1568.0,0.0,9.998362,0.0,423.0,11.0,51.4594502,-14.0,0.0,-0.009948376736367679,-219.0,0.0,0.0,-9.672401428222656,0.0,0.0,0.0,0.0,10.017958,0.0,0.0,14.3,0.0,0.0,-2.755877993380259e-05,-0.04886921905584123,,,,,,,
2.7000260000000003,1602.0,0.0,16.0,0.0,0.0,11.0,1.6175161600112915,0.4004122316837311,0.0,1498.0,0.0,-2.7912439,0.0,-80.0,-6.975782632838856e-07,-1.2531864224668902e-05,0.0,0.0,0.20212455093860626,3.0,0.0,0.0,437.9626007080078,1568.0,0.0,10.077721,0.0,426.0,11.0,51.4594502,-14.0,0.0,-0.009948376736367679,-223.0,0.0,0.0,-9.66576099395752,0.0,0.0,0.0,0.0,10.117656,0.0,0.0,14.3,0.0,0.0,6.498790878503402e-05,-0.04886921905584123,,,,,,,
2.799986999999999,1602.0,0.0,16.0,0.0,0.0,11.0,1.6298354864120483,0.3930607736110687,0.0,1498.0,0.0,-2.7912439,0.0,-80.0,-9.500041683122342e-06,2.7762731032359085e-07,0.0,0.0,0.39605486392974854,3.0,0.0,0.0,437.9626007080078,1568.0,0.0,10.19822,0.0,426.0,11.0,51.459450499999996,-14.0,0.0,-0.009948376736367679,-223.0,0.0,0.0,-9.676833152770996,0.0,0.0,0.0,0.0,10.217616999999999,0.0,0.0,14.26,0.0,0.0,-2.482761143951342e-05,-0.04886921905584123,,,,,,,
2.900007999999999,1602.0,0.0,16.0,0.0,0.0,11.0,1.618438720703125,0.3890857398509979,0.0,1498.0,0.0,-2.7912439,0.0,-80.0,-7.295742119165907e-06,-8.329586325784009e-06,0.0,0.0,0.39332345128059387,3.0,0.0,0.0,434.5936851501465,1568.0,0.0,10.277719,0.0,427.0,11.0,51.459450499999996,-14.0,0.0,-0.009948376736367679,-224.0,0.0,0.0,-9.66873836517334,0.0,0.0,0.0,0.0,10.317637999999999,0.0,0.0,14.26,0.0,0.0,4.764374709298647e-05,-0.04886921905584123,,,,,,,
3.000006,1602.0,0.0,16.0,0.0,0.0,11.0,1.6187198162078857,0.41984039545059204,0.0,1498.0,0.0,-2.7912439,0.0,-80.0,7.249717090927629e-06,-9.649824176132644e-06,0.0,0.0,0.3905920386314392,3.0,0.0,0.0,437.9626007080078,1568.0,0.0,10.398405,0.0,427.0,11.0,51.4594508,-14.0,0.0,-0.009948376736367679,-224.0,0.0,0.0,-9.684803009033203,0.0,0.0,0.0,0.0,10.417636,0.0,0.0,14.23,0.0,0.0,-4.316408468754254e-05,-0.04886921905584123,,,,,,,
3.10001,1602.0,0.0,16.0,0.0,0.0,11.0,1.6145389080047607,0.3830758333206177,0.0,1498.0,0.0,-2.7912439,0.0,-80.0,6.006600421239695e-06,4.117013140916273e-06,0.0,0.0,0.3168438971042633,3.0,0.0,0.0,437.9626007080078,1568.0,0.0,10.477782,0.0,426.0,11.0,51.4594508,-14.0,0.0,-0.009948376736367679,-224.0,0.0,0.0,-9.67136001586914,0.0,0.0,0.0,0.0,10.51764,0.0,0.0,14.23,0.0,0.0,6.129502404092661e-05,-0.04886921905584123,,,,,,,
3.200003999999999,1602.0,0.0,16.0,0.0,0.0,11.0,1.6066431999206543,0.39649510383605957,0.0,1498.0,0.0,-2.791244,0.0,-79.0,1.3231473302703104e-05,-9.297352351409212e-06,0.0,0.0,0.35781508684158325,3.0,0.0,0.0,476.6141128540039,1568.0,0.0,10.598564999999999,0.0,425.0,11.0,51.4594512,-14.0,0.0,-0.009948376736367679,-220.0,0.0,0.0,-9.664525032043457,0.0,0.0,0.0,0.0,10.617633999999999,0.0,0.0,14.19,0.0,0.0,-3.059697429631662e-05,-0.04886921905584123,,,,,,,
3.2999859999999996,1602.0,0.0,16.0,0.0,0.0,11.0,1.6231560707092285,0.4326245188713074,0.0,1498.0,0.0,-2.791244,0.0,-79.0,1.555512971136708e-05,3.6758705750815104e-07,0.0,0.0,0.37147215008735657,3.0,0.0,0.0,445.67917251586914,1568.0,0.0,10.677655999999999,0.0,424.0,11.0,51.4594512,-14.0,0.0,-0.009948376736367679,-220.0,0.0,0.0,-9.67697525024414,0.0,0.0,0.0,0.0,10.717616,0.0,0.0,14.19,0.0,0.0,-5.7539904323530386e-05,-0.04886921905584123,,,,,,,
3.4000199999999987,1602.0,0.0,16.0,0.0,0.0,11.0,1.6129473447799683,0.38668951392173767,0.0,1498.0,0.0,-2.7912442,0.0,-79.0,-5.3391851921450325e-06,1.5605339548840096e-06,0.0,0.0,0.311381071805954,3.0,0.0,0.0,445.67917251586914,1568.0,0.0,10.798224,0.0,425.0,11.0,51.4594515,-14.0,0.0,-0.009948376736367679,-219.0,0.0,0.0,-9.68655014038086,0.0,0.0,0.0,0.0,10.817649999999999,0.0,0.0,14.17,0.0,0.0,5.9090593423892245e-05,-0.04886921905584123,,,,,,,
3.500011999999999,1602.0,0.0,16.0,0.0,0.0,11.0,1.614862084388733,0.38454142212867737,0.0,1498.0,0.0,-2.7912442,0.0,-79.0,-7.80924769921067e-06,-1.1516740289888756e-05,0.0,0.0,0.2813355326652527,3.0,0.0,0.0,437.9626007080078,1568.0,0.0,10.878395,0.0,423.0,11.0,51.4594515,-14.0,0.0,-0.009948376736367679,-220.0,0.0,0.0,-9.6644287109375,0.0,0.0,0.0,0.0,10.917641999999999,0.0,0.0,14.17,0.0,0.0,1.2100036205552556e-05,-0.04886921905584123,,,,,,,
3.600091999999999,1602.0,0.0,16.0,0.0,0.0,11.0,1.6282017230987549,0.40340137481689453,0.0,1498.0,0.0,-2.7912444,0.0,-79.0,-1.413787397856438e-05,3.865067408269983e-06,0.0,0.0,0.2567528188228607,3.0,0.0,0.0,437.9626007080078,1568.0,0.0,10.999034,0.0,424.0,11.0,51.4594518,-14.0,0.0,-0.009948376736367679,-219.0,0.0,0.0,-9.66242790222168,0.0,0.0,0.0,0.0,11.017722,0.0,0.0,14.14,0.0,0.0,0.00015906615488668472,-0.04886921905584123,,,,,,,
3.7000399999999987,1602.0,0.0,16.0,0.0,0.0,11.0,1.6140743494033813,0.38392549753189087,0.0,1498.0,0.0,-2.7912444,0.0,-80.0,1.0455580151801671e-05,-8.113069370475805e-06,0.0,0.0,0.3386951982975006,3.0,0.0,0.0,434.5936851501465,1568.0,0.0,11.07772,0.0,426.0,11.0,51.4594518,-14.0,0.0,-0.009948376736367679,-223.0,0.0,0.0,-9.68571662902832,0.0,0.0,0.0,0.0,11.117669999999999,0.0,0.0,14.14,0.0,0.0,-5.262947756232357e-05,-0.04886921905584123,,,,,,,
3.800038999999999,1602.0,0.0,16.0,0.0,0.0,11.0,1.6047980785369873,0.44789066910743713,0.0,1498.0,0.0,-2.7912445999999997,0.0,-80.0,-1.3630478875267724e-06,-5.074973551749055e-06,0.0,0.0,0.4042491018772125,3.0,0.0,0.0,434.5936851501465,1568.0,0.0,11.198252,0.0,428.0,11.0,51.4594521,-14.0,0.0,-0.009948376736367679,-224.0,0.0,0.0,-9.6766357421875,0.0,0.0,0.0,0.0,11.217668999999999,0.0,0.0,14.1,0.0,0.0,1.239254464367136e-05,-0.04886921905584123,,,,,,,
3.900185999999999,1602.0,0.0,16.0,0.0,0.0,11.0,1.62375009059906,0.3873291015625,0.0,1498.0,0.0,-2.7912445999999997,0.0,-80.0,7.869426459865856e-06,-8.445182251929434e-06,0.0,0.0,0.36600932478904724,3.0,0.0,0.0,434.5936851501465,1568.0,0.0,11.277804,0.0,428.0,11.0,51.4594521,-14.0,0.0,-0.009948376736367679,-223.0,0.0,0.0,-9.660730361938477,0.0,0.0,0.0,0.0,11.317815999999999,0.0,0.0,14.1,0.0,0.0,-8.225910337421678e-05,-0.04886921905584123,,,,,,,
4.000094999999999,1602.0,0.0,16.0,0.0,0.0,11.0,1.622452974319458,0.3963591456413269,0.0,1498.0,0.0,-2.7912448999999997,0.0,-80.0,-2.7345244689996224e-05,1.0421720709673966e-05,0.0,0.0,0.22670726478099823,3.0,0.0,0.0,434.5936851501465,1568.0,0.0,11.398444,0.0,427.0,11.0,51.459452299999995,-14.0,0.0,-0.009948376736367679,-223.0,0.0,0.0,-9.672781944274902,0.0,0.0,0.0,0.0,11.417724999999999,0.0,0.0,14.040000000000001,0.0,0.0,0.00023423732263898016,-0.04886921905584123,,,,,,,
4.100003,1602.0,0.0,16.0,0.0,0.0,11.0,1.630029559135437,0.33914420008659363,0.0,1498.0,0.0,-2.7912448999999997,0.0,-80.0,2.3921230066043463e-06,-1.3863432578724527e-05,0.0,0.0,0.37147215008735657,3.0,0.0,0.0,434.5936851501465,1568.0,0.0,11.477735,0.0,426.0,11.0,51.459452299999995,-14.0,0.0,-0.009948376736367679,-224.0,0.0,0.0,-9.672931671142578,0.0,0.0,0.0,0.0,11.517633,0.0,0.0,14.040000000000001,0.0,0.0,-0.00019644493091036005,-0.04886921905584123,,,,,,,
4.2001859999999995,1602.0,0.0,16.0,0.0,0.0,11.0,1.6191940307617188,0.42604589462280273,0.0,1498.0,0.0,-2.7912451,0.0,-79.0,-1.1767679504419049e-05,-8.572851315890146e-06,0.0,0.0,0.311381071805954,3.0,0.0,0.0,436.6749076843262,1568.0,0.0,11.598590999999999,0.0,425.0,11.0,51.459452399999996,-14.0,0.0,-0.009948376736367679,-220.0,0.0,0.0,-9.678716659545898,0.0,0.0,0.0,0.0,11.617816,0.0,0.0,13.99,0.0,0.0,0.00010987748502876552,-0.04886921905584123,,,,,,,
4.300071,1602.0,0.0,16.0,0.0,0.0,11.0,1.6258645057678223,0.34533190727233887,0.0,1498.0,0.0,-2.7912451,0.0,-79.0,-7.160192599968476e-06,-8.805541643296915e-06,0.0,0.0,0.2294386774301529,3.0,0.0,0.0,434.5936851501465,1568.0,0.0,11.677819,0.0,424.0,11.0,51.459452399999996,-14.0,0.0,-0.009948376736367679,-219.0,0.0,0.0,-9.668142318725586,0.0,0.0,0.0,0.0,11.717701,0.0,0.0,13.99,0.0,0.0,-1.741938615878186e-05,-0.04886921905584123,,,,,,,
4.400090999999999,1602.0,0.0,16.0,0.0,0.0,11.0,1.6242552995681763,0.48420464992523193,0.0,1498.0,0.0,-2.7912453999999998,0.0,-79.0,1.1162730369351428e-05,-3.887462753824431e-06,0.0,0.0,0.3386951982975006,3.0,0.0,0.0,436.6749076843262,1568.0,0.0,11.798377,0.0,425.0,11.0,51.459452399999996,-14.0,0.0,-0.009948376736367679,-219.0,0.0,0.0,-9.684560775756836,0.0,0.0,0.0,0.0,11.817720999999999,0.0,0.0,13.91,0.0,0.0,-1.0375917150978244e-05,-0.04886921905584123,,,,,,,
4.500146999999999,1602.0,0.0,16.0,0.0,0.0,11.0,1.6150392293930054,0.31449082493782043,0.0,1498.0,0.0,-2.7912453999999998,0.0,-79.0,-3.3816326680979906e-06,-4.301101570843055e-06,0.0,0.0,0.35781508684158325,3.0,0.0,0.0,436.6749076843262,1568.0,0.0,11.878457,0.0,424.0,11.0,51.459452399999996,-14.0,0.0,-0.009948376736367679,-219.0,0.0,0.0,-9.670391082763672,0.0,0.0,0.0,0.0,11.917777,0.0,0.0,13.91,0.0,0.0,1.1718731687768236e-05,-0.04886921905584123,,,,,,,
4.600915999999999,1602.0,0.0,16.0,0.0,0.0,11.0,1.6220518350601196,0.4838066101074219,0.0,1498.0,0.0,-2.7912456999999997,0.0,-79.0,1.4767223368095778e-05,5.73007385517922e-06,0.0,0.0,0.4042491018772125,3.0,0.0,0.0,443.07908630371094,1568.0,6.283185307179586,11.999426999999999,0.0,423.0,11.0,51.4594525,-14.0,0.0,-0.055326937288220246,-219.0,0.0,0.0,-9.6802978515625,0.0,0.0,0.0,0.0,12.018545999999999,0.0,0.0,13.86,0.0,0.0,-0.00011723680820903624,0.11693705988362008,,,,,,,
4.700679999999999,1602.0,0.0,16.0,0.0,0.0,11.0,1.602736234664917,0.3558032214641571,0.0,1498.0,0.0,-2.7912456999999997,0.0,-80.0,-2.096691576889941e-05,9.168709024644322e-06,0.0,0.005103396251797676,0.3769349753856659,3.0,0.0,-1.9912360585294664e-05,443.07908630371094,1568.0,6.283010774254387,12.078375,0.0,426.0,11.0,51.4594525,-14.0,0.0,-0.05515240436302082,-224.0,0.0,0.0,-9.676610946655273,0.0,0.0,0.0,9.834825323196128e-05,12.11831,0.0,0.001673397608101368,13.86,0.0,0.0,0.00014829340495205995,0.11693705988362008,,,,,,,
4.802469999999999,1602.0,0.0,16.0,0.0,0.0,11.0,1.6152509450912476,0.4673718810081482,0.0,1498.0,0.0,-2.7912459999999997,0.0,-80.0,5.399487894470824e-06,-3.2351684085435276e-06,0.0,0.03011591173708439,0.2212444394826889,3.0,0.0,-0.00043081896728836,443.07908630371094,1568.0,6.283010774254387,12.198889999999999,0.0,427.0,11.0,51.4594526,-14.0,0.0,-0.05497787143782138,-224.0,0.0,0.0,-9.683640480041504,0.0,0.0,0.0,0.00189192162360996,12.220099999999999,0.0,-0.005397809203714132,13.82,0.0,0.0,-5.867681517249419e-05,0.11693705988362008,,,,,,,
4.900752999999999,1602.0,0.0,16.0,0.0,0.0,11.0,1.6154745817184448,0.34032759070396423,0.0,1498.0,0.0,-2.7912459999999997,0.0,-80.0,-5.1563036696336464e-06,-3.221185095923699e-06,0.0,0.04973222315311432,0.29772400856018066,3.0,0.0,-0.0006877107080072165,443.07908630371094,1568.0,2.73318560862312,12.278587,0.0,426.0,11.0,51.4594526,-14.0,0.0,-0.05619960191421741,-224.0,0.0,0.0,-9.678794860839844,0.0,0.0,0.0,-0.0341421514749527,12.318382999999999,0.0,-0.00480339489877224,13.82,0.0,0.0,3.562207961212332e-05,0.1165879940332212,,,,,,,
5.0006829999999995,1602.0,0.0,16.0,0.0,0.0,11.0,1.616054654121399,0.426868200302124,0.0,1498.0,0.0,-2.7912463,0.0,-80.0,1.597461435918961e-05,9.349011646083334e-06,0.0,0.07271549850702286,0.32776954770088196,3.0,0.0,0.002910126931965351,443.07908630371094,1568.0,2.7338837403239182,12.399035,0.0,426.0,11.0,51.4594527,-14.0,0.0,-0.05585053606381855,-224.0,0.0,0.0,-9.673839569091797,0.0,0.0,0.0,-0.07724345475435257,12.418313,0.0,0.005754528101533651,13.780000000000001,0.0,0.0,-5.7280988141806756e-05,0.11676252695842065,,,,,,,
5.100687,1602.0,0.0,16.0,0.0,0.0,11.0,1.6232929229736328,0.35383912920951843,0.0,1498.0,0.0,-2.7912463,0.0,-80.0,-1.6749871540651916e-05,1.4176389868620087e-06,0.0,0.08476337790489197,0.40971192717552185,3.0,0.0,0.0037015576381236315,436.6749076843262,1568.0,2.7344073390995165,12.478615,0.0,427.0,11.0,51.4594527,-14.0,0.0,-0.055326937288220246,-225.0,0.0,0.0,-9.67342758178711,0.0,0.0,0.0,-0.10143397003412247,12.518317,0.0,0.008354687131941319,13.780000000000001,0.0,0.0,0.00010000226784506177,0.11676252695842065,,,,,,,
5.200738,1602.0,0.0,16.0,0.0,0.0,11.0,1.6069602966308594,0.4611985683441162,0.0,1498.0,0.0,-2.7912464999999997,0.0,-80.0,1.4456725355242153e-06,-5.270391469467494e-06,0.0,0.09772948920726776,0.30318683385849,3.0,0.0,0.006921072956174612,437.13299560546875,1568.0,2.735280003725513,12.599236,0.0,425.0,11.0,51.459452899999995,-14.0,0.0,-0.05515240436302082,-220.0,0.0,0.0,-9.669811248779297,0.0,0.0,0.0,-0.1337442696094513,12.618368,0.0,0.017986230552196503,13.74,0.0,0.0,-6.705664562289369e-05,0.11676252695842065,,,,,,,
5.300620999999999,1602.0,0.0,16.0,0.0,0.0,11.0,1.6323059797286987,0.3694104254245758,0.0,1498.0,0.0,-2.7912464999999997,0.0,-79.0,-2.140645966496856e-05,8.249347808924536e-06,0.0,0.10399484634399414,0.34962084889411926,3.0,0.0,0.007801697123795748,436.6749076843262,1568.0,2.7358036025011114,12.678571999999999,0.0,424.0,11.0,51.459452899999995,-14.0,0.0,-0.05480333851262195,-219.0,0.0,0.0,-9.677508354187012,0.0,0.0,0.0,-0.1515214592218399,12.718250999999999,0.0,0.019355187192559242,13.74,0.0,0.0,5.745286882513665e-05,0.11676252695842065,,,,,,,
5.400636999999999,1602.0,0.0,16.0,0.0,0.0,11.0,1.6039562225341797,0.44704949855804443,0.0,1498.0,0.0,-2.7912467,0.0,-79.0,-3.5035054271272725e-06,-8.45053460186042e-06,0.0,0.11043356359004974,0.2731412947177887,3.0,0.0,0.009324232116341591,437.13299560546875,1568.0,2.7361526683515107,12.798869,0.0,423.0,11.0,51.459452999999996,-14.0,0.0,-0.05480333851262195,-219.0,0.0,0.0,-9.69431209564209,0.0,0.0,0.0,-0.1715296059846878,12.818266999999999,0.0,0.025271369144320488,13.700000000000001,0.0,0.0,3.190831171243438e-05,0.11676252695842065,,,,,,,
5.500792,1602.0,0.0,16.0,0.0,0.0,11.0,1.617755651473999,0.4297197461128235,0.0,1498.0,0.0,-2.7912467,0.0,-79.0,1.8271597910790282e-06,-7.140331455211759e-06,0.0,0.11306389421224594,0.4670715928077698,3.0,0.0,0.010233097709715366,436.6749076843262,1568.0,2.7361526683515107,12.879095,0.0,424.0,11.0,51.459452999999996,-14.0,0.0,-0.05445427266222309,-220.0,0.0,0.0,-9.682266235351562,0.0,0.0,0.0,-0.18085409700870514,12.918422,0.0,0.027659766376018524,13.700000000000001,0.0,0.0,5.037754274432633e-05,0.11676252695842065,,,,,,,
5.600810999999999,1602.0,0.0,16.0,0.0,0.0,11.0,1.610825538635254,0.42848628759384155,0.0,1498.0,0.0,-2.7912471,0.0,-79.0,6.295826944875809e-06,-1.6879940196628758e-05,0.0,0.11444416642189026,0.3168438971042633,3.0,0.0,0.011365828104317188,436.6749076843262,1568.0,2.7358036025011114,12.998918,0.0,425.0,11.0,51.4594532,-14.0,0.0,-0.054279739737023644,-219.0,0.0,0.0,-9.685808181762695,0.0,0.0,0.0,-0.1929984986782074,13.018441,0.0,0.0317668654024601,13.63,0.0,0.0,7.3795922150335695e-06,0.11676252695842065,,,,,,,
5.700739,1602.0,0.0,16.0,0.0,0.0,11.0,1.6253771781921387,0.41304028034210205,0.0,1498.0,0.0,-2.7912471,0.0,-80.0,-7.891005009492713e-06,-6.726449580449757e-06,0.0,0.11404584348201752,0.37147215008735657,3.0,0.0,0.011573901399970055,434.5936851501465,1568.0,2.7356290695759125,13.078607,0.0,426.0,11.0,51.4594532,-14.0,0.0,-0.054105206811824215,-224.0,0.0,0.0,-9.690765380859375,0.0,0.0,0.0,-0.2004847228527069,13.118369,0.0,0.032728273421525955,13.63,0.0,0.0,6.98810121579855e-05,0.11676252695842065,,,,,,,
5.8006839999999995,1602.0,0.0,16.0,0.0,0.0,11.0,1.6254475116729736,0.37929490208625793,0.0,1498.0,0.0,-2.7912472999999998,0.0,-80.0,2.054917595566101e-06,-2.9895886553515493e-06,0.0,0.11186283826828003,0.41790616512298584,3.0,0.0,0.011847813613712788,434.8330764770508,1568.0,2.735105470800314,13.198915999999999,0.0,426.0,11.0,51.4594532,-14.0,0.0,-0.05358160803622592,-223.0,0.0,0.0,-9.674714088439941,0.0,0.0,0.0,-0.20910002291202545,13.218314,0.0,0.03499246761202812,13.56,0.0,0.0,-2.6144477466872408e-05,0.1165879940332212,,,,,,,
5.9008709999999995,1602.0,0.0,16.0,0.0,0.0,11.0,1.6142137050628662,0.45470377802848816,0.0,1498.0,0.0,-2.7912472999999998,0.0,-80.0,3.3397210810423196e-06,-4.414237458010047e-06,0.0,0.10962099581956863,0.4042491018772125,3.0,0.0,0.012379852123558521,434.5936851501465,1568.0,2.734756404949915,13.278627,0.0,426.0,11.0,51.4594532,-14.0,0.0,-0.05375614096142535,-224.0,0.0,0.0,-9.661815643310547,0.0,0.0,0.0,-0.21496032178401947,13.318501,0.0,0.03643067181110382,13.56,0.0,0.0,8.163034931107041e-05,0.1165879940332212,,,,,,,
6.000621999999999,1602.0,0.0,16.0,0.0,0.0,11.0,1.6197259426116943,0.3548032343387604,0.0,1498.0,0.0,-2.7912475999999997,0.0,-80.0,-7.433314833748657e-06,-2.5875046053496377e-06,0.0,0.10494270920753479,0.3523522615432739,3.0,0.0,0.011779924854636192,434.5936851501465,1568.0,2.7344073390995165,13.399,0.0,427.0,11.0,51.4594533,-14.0,0.0,-0.052708943410228755,-224.0,0.0,0.0,-9.677952766418457,0.0,0.0,0.0,-0.22425855696201324,13.418251999999999,0.0,0.03537890687584877,13.5,0.0,0.0,6.870194895003215e-05,0.1165879940332212,,,,,,,
6.100639999999999,1602.0,0.0,16.0,0.0,0.0,11.0,1.609777569770813,0.4556705057621002,0.0,1498.0,0.0,-2.7912475999999997,0.0,-80.0,2.1863721124442163e-05,-5.176310090282957e-06,0.0,0.10189775377511978,0.2731412947177887,3.0,0.0,0.012511634267866611,430.93541717529297,1568.0,2.7342328061743166,13.478608999999999,0.0,425.0,11.0,51.4594533,-14.0,0.0,-0.05288347633542819,-224.0,0.0,0.0,-9.675533294677734,0.0,0.0,0.0,-0.2298840880393982,13.51827,0.0,0.03798209875822067,13.5,0.0,0.0,-6.246663449399837e-05,0.1165879940332212,,,,,,,
6.200779999999999,1602.0,0.0,16.0,0.0,0.0,11.0,1.6044214963912964,0.32861337065696716,0.0,1498.0,0.0,-2.7912481,0.0,-79.0,-1.2491071160394671e-05,-1.2407193126855355e-05,0.0,0.09668321907520294,0.41790616512298584,3.0,0.0,0.0109225669875741,430.93541717529297,1568.0,2.734058273249117,13.5992,0.0,424.0,11.0,51.4594533,-14.0,0.0,-0.05235987755982989,-220.0,0.0,0.0,-9.66331672668457,0.0,0.0,0.0,-0.23540697991847992,13.618409999999999,0.0,0.03354034572839737,13.44,0.0,0.0,0.00013177089932655547,0.1165879940332212,,,,,,,
6.300786999999999,1602.0,0.0,16.0,0.0,0.0,11.0,1.6334547996520996,0.4540015459060669,0.0,1498.0,0.0,-2.7912481,0.0,-79.0,5.663695471205471e-06,-1.1578266154275268e-05,0.0,0.09357182681560516,0.37147215008735657,3.0,0.0,0.012912874110043049,430.8240394592285,1568.0,2.734058273249117,13.678638999999999,0.0,422.0,11.0,51.4594533,-14.0,0.0,-0.05235987755982989,-219.0,0.0,0.0,-9.662287712097168,0.0,0.0,0.0,-0.23866716027259827,13.718416999999999,0.0,0.03675118833780289,13.44,0.0,0.0,-0.00018016746406313282,0.1165879940332212,,,,,,,
6.400806,1602.0,0.0,16.0,0.0,0.0,11.0,1.6087920665740967,0.3776859939098358,0.0,1498.0,0.0,-2.7912486,0.0,-79.0,-2.1210859390447875e-05,1.93270425092149e-06,0.0,0.08736129850149155,0.2567528188228607,3.0,0.0,0.009965036995708942,430.8240394592285,1568.0,2.734058273249117,13.798848999999999,0.0,425.0,11.0,51.4594532,-14.0,0.0,-0.05235987755982989,-219.0,0.0,0.0,-9.664165496826172,0.0,0.0,0.0,-0.2447020709514618,13.818436,0.0,0.030574923381209373,13.39,0.0,0.0,0.00017187874902710367,0.1165879940332212,,,,,,,
6.500787,1602.0,0.0,16.0,0.0,0.0,11.0,1.6078627109527588,0.38908612728118896,0.0,1498.0,0.0,-2.7912486,0.0,-79.0,2.106558552968465e-05,-5.782436671221322e-06,0.0,0.0842185914516449,0.286798357963562,3.0,0.0,0.010658158920705318,429.46104431152344,1568.0,2.7338837403239182,13.879322,0.0,423.0,11.0,51.4594532,-14.0,0.0,-0.05183627878423159,-219.0,0.0,0.0,-9.678400039672852,0.0,0.0,0.0,-0.247367262840271,13.918417,0.0,0.031482014805078506,13.39,0.0,0.0,-0.00015757916367769095,0.1165879940332212,,,,,,,
6.600825999999999,1602.0,0.0,16.0,0.0,0.0,11.0,1.615527868270874,0.3420063853263855,0.0,1498.0,0.0,-2.7912491,0.0,-79.0,-1.7020700345568244e-05,-6.883363291138819e-06,0.0,0.08022015541791916,0.2649470567703247,3.0,0.0,0.008153427392244339,430.5396537780762,1568.0,2.7337092073987184,13.998896,0.0,423.0,11.0,51.4594532,-14.0,0.0,-0.05166174585903215,-219.0,0.0,0.0,-9.678586959838867,0.0,0.0,0.0,-0.24872422218322754,14.018455999999999,0.0,0.024870650842785835,13.35,0.0,0.0,0.00020011176758533383,0.1165879940332212,,,,,,,
6.700788999999999,1602.0,0.0,16.0,0.0,0.0,11.0,1.6264528036117554,0.46089375019073486,0.0,1498.0,0.0,-2.7912491,0.0,-80.0,1.437326257709513e-05,-7.231549984988397e-06,0.0,0.07787345349788666,0.294992595911026,3.0,0.0,0.009554482065141201,430.5396537780762,1568.0,2.7333601415483195,14.078626,0.0,426.0,11.0,51.4594532,-14.0,0.0,-0.05131268000863329,-223.0,0.0,0.0,-9.66615104675293,0.0,0.0,0.0,-0.24845603108406067,14.118419,0.0,0.026777328923344612,13.35,0.0,0.0,-5.80602886662937e-05,0.1165879940332212,,,,,,,
6.800778,1602.0,0.0,16.0,0.0,0.0,11.0,1.622956395149231,0.36383283138275146,0.0,1498.0,0.0,-2.7912496,0.0,-80.0,-1.3285747563443915e-05,-1.3180711061267866e-05,0.0,0.07441680133342743,0.3769349753856659,3.0,0.0,0.006726320367306471,444.8398742675781,1568.0,2.7328365427727213,14.198893,0.0,427.0,11.0,51.4594532,-14.0,0.0,-0.05096361415823442,-224.0,0.0,0.0,-9.6602783203125,0.0,0.0,0.0,-0.24714721739292145,14.218408,0.0,0.02000577002763748,13.3,0.0,0.0,0.00010606831455200169,0.1165879940332212,,,,,,,
6.900771,1602.0,0.0,16.0,0.0,0.0,11.0,1.6210236549377441,0.446101576089859,0.0,1498.0,0.0,-2.7912496,0.0,-80.0,2.3525600126150986e-05,-1.2103538065704802e-05,0.0,0.07185446470975876,0.4889228940010071,3.0,0.0,0.007384783122688532,430.5396537780762,1568.0,2.7324874769223224,14.278611999999999,0.0,427.0,11.0,51.4594532,-14.0,0.0,-0.05113814708343386,-224.0,0.0,0.0,-9.677579879760742,0.0,0.0,0.0,-0.24733473360538483,14.318401,0.0,0.022185401991009712,13.3,0.0,0.0,-0.000303192177615627,0.11641346110802178,,,,,,,
7.000778999999999,1602.0,0.0,16.0,0.0,0.0,11.0,1.6077470779418945,0.33492088317871094,0.0,1498.0,0.0,-2.7912501,0.0,-80.0,-3.960182633692969e-05,-9.99614768126182e-06,0.0,0.06574036180973053,0.5490139722824097,3.0,0.0,0.0016077099135145545,430.5396537780762,1568.0,2.731963878146724,14.399054,0.0,426.0,11.0,51.4594531,-14.0,0.0,-0.05096361415823442,-224.0,0.0,0.0,-9.671046257019043,0.0,0.0,0.0,-0.25237271189689636,14.418408999999999,0.0,0.009868143126368523,13.25,0.0,0.0,0.00036059955375215976,0.11641346110802178,,,,,,,
7.100746999999999,1602.0,0.0,16.0,0.0,0.0,11.0,1.6089690923690796,0.4220893979072571,0.0,1498.0,0.0,-2.7912501,0.0,-80.0,4.9082852116852226e-05,7.566728898916491e-06,0.0,0.059204600751399994,0.4069805145263672,3.0,0.0,0.0051589952781796455,430.5396537780762,1568.0,2.731614812296325,14.4786,0.0,426.0,11.0,51.4594531,-14.0,0.0,-0.05061454830783556,-223.0,0.0,0.0,-9.680975914001465,0.0,0.0,0.0,-0.26013660430908203,14.518377,0.0,0.01677052676677704,13.25,0.0,0.0,-0.00041917391589516923,0.11641346110802178,,,,,,,
7.200767999999999,1602.0,0.0,16.0,0.0,0.0,11.0,1.6147514581680298,0.40667760372161865,0.0,1498.0,0.0,-2.7912505999999997,0.0,-80.0,-1.7824496620560255e-05,4.690288067737094e-06,0.0,0.049784738570451736,0.43156322836875916,3.0,0.0,0.000159500224981457,430.5396537780762,1568.0,2.731440279371126,14.599247,0.0,422.0,11.0,51.459452999999996,-14.0,0.0,-0.05183627878423159,-220.0,0.0,0.0,-9.676838874816895,0.0,0.0,0.0,-0.27471065521240234,14.618398,0.0,0.0067553892731666565,13.200000000000001,0.0,0.0,0.0001095887862731448,0.11641346110802178,,,,,,,
7.300617,1602.0,0.0,16.0,0.0,0.0,11.0,1.6101226806640625,0.5600288510322571,0.0,1498.0,0.0,-2.7912505999999997,0.0,-80.0,1.0138636918097775e-05,-1.0850835218936336e-05,0.0,0.04404916986823082,0.570865273475647,3.0,0.0,0.0028635000344365835,429.46104431152344,1568.0,2.7312657464459265,14.678598,0.0,423.0,11.0,51.459452999999996,-14.0,0.0,-0.05235987755982989,-219.0,0.0,0.0,-9.710441589355469,0.0,0.0,0.0,-0.2844241261482239,14.718247,0.0,0.013159578666090965,13.200000000000001,0.0,0.0,-0.00024667948966708333,0.11641346110802178,,,,,,,
7.400790999999999,1602.0,0.0,16.0,0.0,0.0,11.0,1.6111924648284912,0.41016364097595215,0.0,1498.0,0.0,-2.7912510999999998,0.0,-80.0,-3.1458761050336916e-05,-3.7246329109904336e-05,0.0,0.035873182117938995,0.3605464994907379,3.0,0.0,-0.00498078903183341,430.5396537780762,1568.0,2.7309166805955276,14.798881,0.0,424.0,11.0,51.459452999999996,-14.0,0.0,-0.051487212933832724,-219.0,0.0,0.0,-9.661659240722656,0.0,0.0,0.0,-0.30192816257476807,14.818420999999999,0.0,-0.001724540488794446,13.15,0.0,0.0,0.0005136344712548685,0.11641346110802178,,,,,,,
7.500685,1602.0,0.0,16.0,0.0,0.0,11.0,1.6393333673477173,0.40304034948349,0.0,1498.0,0.0,-2.7912510999999998,0.0,-80.0,2.0224889177973792e-05,-3.7811312135778642e-06,0.0,0.025716418400406837,0.5025799870491028,3.0,0.0,0.0004873044090345502,429.46104431152344,1568.0,2.730742147670328,14.879111,0.0,424.0,11.0,51.459452999999996,-14.0,0.0,-0.05044001538263613,-218.0,0.0,0.0,-9.628072738647461,0.0,0.0,0.0,-0.31366902589797974,14.918315,0.0,0.006274638697504997,13.15,0.0,0.0,-0.0005013876037903474,0.11623892818282235,,,,,,,
7.600841999999999,1602.0,0.0,16.0,0.0,0.0,11.0,1.6078615188598633,0.47091013193130493,0.0,1498.0,0.0,-2.7912515,0.0,-79.0,-4.2361726948661806e-05,-9.219591144088833e-06,0.0,0.02032756619155407,0.32230672240257263,3.0,0.0,-0.006913225166499615,429.46104431152344,1568.0,2.7305676147451288,14.999004,0.0,425.0,11.0,51.459452899999995,-14.0,0.0,-0.05166174585903215,-219.0,0.0,0.0,-9.689642906188965,0.0,0.0,0.0,-0.33034345507621765,15.018472,0.0,-0.005507161375135183,13.09,0.0,0.0,0.0004568834902058575,0.11623892818282235,,,,,,,
7.700793,1602.0,0.0,16.0,0.0,0.0,11.0,1.6420795917510986,0.37485480308532715,0.0,1498.0,0.0,-2.7912515,0.0,-80.0,1.4965211043648598e-05,5.959452806558647e-06,0.0,0.013520726002752781,0.31957530975341797,3.0,0.0,-0.005412384867668152,429.46104431152344,1568.0,2.7300440159695305,15.078622,0.0,427.0,11.0,51.459452899999995,-14.0,0.0,-0.04974188368183839,-223.0,0.0,0.0,-9.667488098144531,0.0,0.0,0.0,-0.3400651216506958,15.118423,0.0,-0.003178737126290798,13.09,0.0,0.0,-5.988463691168914e-05,0.11623892818282235,,,,,,,
7.800767,1602.0,0.0,16.0,0.0,0.0,11.0,1.635919451713562,0.28763583302497864,0.0,1498.0,0.0,-2.7912518,0.0,-80.0,-4.454609933336489e-05,-4.189767917476493e-06,0.0,0.008319375105202198,0.3550836741924286,3.0,0.0,-0.01061688456684351,456.4403533935547,1568.0,2.7296949501191317,15.198893,0.0,426.0,11.0,51.459452899999995,-14.0,0.0,-0.04852015320544237,-224.0,0.0,0.0,-9.657212257385254,0.0,0.0,0.0,-0.3500119745731354,15.218397,0.0,-0.011428416706621647,13.05,0.0,0.0,0.0005348298135545228,0.11623892818282235,,,,,,,
7.900826999999999,1602.0,0.0,16.0,0.0,0.0,11.0,1.627360463142395,0.4676714837551117,0.0,1498.0,0.0,-2.7912518,0.0,-80.0,6.442033314323034e-05,-1.680887691909769e-05,0.0,0.006203456781804562,0.35781508684158325,3.0,0.0,-0.00473315455019474,429.46104431152344,1568.0,2.7293458842687324,15.278613,0.0,427.0,11.0,51.459452899999995,-14.0,0.0,-0.04852015320544237,-224.0,0.0,0.0,-9.723369598388672,0.0,0.0,0.0,-0.35469818115234375,15.318456999999999,0.0,0.003258894430473447,13.05,0.0,0.0,-0.0008181492893606062,0.11623892818282235,,,,,,,
8.000599000000001,1602.0,0.0,16.0,0.0,0.0,11.0,1.631364107131958,0.4393807649612427,0.0,1498.0,0.0,-2.7912521999999997,0.0,-81.0,-8.341773449299636e-05,7.3922205505782435e-06,0.0,0.0027620417531579733,0.32776954770088196,3.0,0.0,-0.012515525333583355,429.46104431152344,1568.0,2.728996818418334,15.399102,0.0,427.0,11.0,51.4594528,-14.0,0.0,-0.04991641660703782,-224.0,0.0,0.0,-9.570843696594238,0.0,0.0,0.0,-0.36034685373306274,15.418229,0.0,-0.013259620405733585,13.0,0.0,0.0,0.0005952692987207259,0.11623892818282235,,,,,,,
8.100628999999998,1602.0,0.0,16.0,0.0,0.0,11.0,1.5731000900268555,0.33898794651031494,0.0,1498.0,0.0,-2.7912521999999997,0.0,-80.0,4.867738405287668e-05,-2.180426975916528e-05,0.0,0.004400406498461962,0.34962084889411926,3.0,0.0,-0.010996385477483273,429.46104431152344,1568.0,2.728996818418334,15.478556999999999,0.0,427.0,11.0,51.4594528,-14.0,0.0,-0.04974188368183839,-225.0,0.0,0.0,-9.824909210205078,0.0,0.0,0.0,-0.36269140243530273,15.518258999999999,0.0,-0.00475586811080575,13.0,0.0,0.0,-0.0005124546765878754,0.11623892818282235,,,,,,,
8.200793,1602.0,0.0,16.0,0.0,0.0,11.0,1.6384953260421753,0.4751189947128296,0.0,1498.0,0.0,-2.7912524999999997,0.0,-80.0,-4.7639423357329976e-05,-1.8059166966950697e-05,0.0,0.00015301554230973125,0.286798357963562,3.0,0.0,-0.01364000141620636,429.46104431152344,1568.0,2.7286477525679347,15.599210999999999,0.0,424.0,11.0,51.4594528,-14.0,0.0,-0.050789081233034994,-220.0,0.0,0.0,-9.562243461608887,0.0,0.0,0.0,-0.36533528566360474,15.618423,0.0,-0.012456017546355724,12.97,0.0,0.0,0.00023563210124504414,0.11623892818282235,,,,,,,
8.300653,1602.0,0.0,16.0,0.0,0.0,11.0,1.5763570070266724,0.4154396653175354,0.0,1498.0,0.0,-2.7912524999999997,0.0,-80.0,-1.2444543254066645e-05,2.2004205452368787e-06,0.0,0.0021082311868667603,0.4588773548603058,3.0,0.0,-0.01443553902208805,429.46104431152344,1568.0,2.728822285493134,15.678647999999999,0.0,423.0,11.0,51.4594528,-14.0,0.0,-0.050789081233034994,-220.0,0.0,0.0,-9.8087739944458,0.0,0.0,0.0,-0.3655603229999542,15.718283,0.0,-0.010791510343551636,12.97,0.0,0.0,4.604185179618894e-05,0.11606439525762292,,,,,,,
8.400618999999999,1602.0,0.0,16.0,0.0,0.0,11.0,1.6489757299423218,0.40894633531570435,0.0,1498.0,0.0,-2.7912529,0.0,-79.0,3.15262625287111e-05,-4.294426092782599e-05,0.0,-0.0005647590733133256,0.28406694531440735,3.0,0.0,-0.014895603992044926,440.07632064819336,1568.0,2.728298686717536,15.798891999999999,0.0,423.0,11.0,51.459452899999995,-14.0,0.0,-0.050265482457436686,-220.0,0.0,0.0,-9.594640731811523,0.0,0.0,0.0,-0.367227703332901,15.818249,0.0,-0.01170195173472166,12.92,0.0,0.0,-0.00011184956361819894,0.11623892818282235,,,,,,,
8.500847999999998,1602.0,0.0,16.0,0.0,0.0,11.0,1.5948848724365234,0.4595828652381897,0.0,1498.0,0.0,-2.7912529,0.0,-79.0,-7.408821013482728e-05,9.12116113932214e-06,0.0,-0.0015568346716463566,0.4561459422111511,3.0,0.0,-0.01671983115375042,440.07632064819336,1568.0,2.7284732196427357,15.8791,0.0,424.0,11.0,51.459452899999995,-14.0,0.0,-0.05096361415823442,-220.0,0.0,0.0,-9.73200798034668,0.0,0.0,0.0,-0.36816561222076416,15.918477999999999,0.0,-0.014378041960299015,12.92,0.0,0.0,0.00036793455998302397,0.11588986233242349,,,,,,,
8.600778000000002,1602.0,0.0,16.0,0.0,0.0,11.0,1.635457158088684,0.35414665937423706,0.0,1498.0,0.0,-2.7912532999999997,0.0,-79.0,7.187607481590876e-05,-4.3154543210736647e-05,0.0,-0.0032652406953275204,0.43975746631622314,3.0,0.0,-0.01808845065534115,440.07632064819336,1568.0,2.7281241537923364,15.998928999999999,0.0,424.0,11.0,51.4594528,-14.0,0.0,-0.04904375198104066,-219.0,0.0,0.0,-9.678580284118652,0.0,0.0,0.0,-0.3703751862049103,16.018408,0.0,-0.014891626313328743,12.870000000000001,0.0,0.0,-0.00012684801744336822,0.11588986233242349,,,,,,,
8.700637,1602.0,0.0,16.0,0.0,0.0,11.0,1.6165690422058105,0.4901409149169922,0.0,1498.0,0.0,-2.7912532999999997,0.0,-80.0,-4.608249653682457e-05,2.079906217394883e-05,0.0,-0.008472706191241741,0.6036422252655029,3.0,0.0,-0.015546157956123352,440.07632064819336,1568.0,2.7281241537923364,16.07865,0.0,426.0,11.0,51.4594528,-14.0,0.0,-0.04991641660703782,-223.0,0.0,0.0,-9.6484956741333,0.0,0.0,0.0,-0.3736226558685303,16.118267,0.0,-0.01286030001938343,12.870000000000001,0.0,0.0,5.636238937054426e-05,0.11588986233242349,,,,,,,
8.800685000000001,1602.0,0.0,16.0,0.0,0.0,11.0,1.6140127182006836,0.3808056116104126,0.0,1498.0,0.0,-2.7912535999999997,0.0,-81.0,1.4500633977863325e-05,-4.717371151411794e-05,0.0,-0.008084490895271301,0.5298941135406494,3.0,0.0,-0.021675828844308853,441.9499282836914,1568.0,2.7277750879419376,16.198871,0.0,429.0,11.0,51.4594528,-14.0,0.0,-0.04904375198104066,-224.0,0.0,0.0,-9.701433181762695,0.0,0.0,0.0,-0.38291358947753906,16.218315,0.0,-0.019947918131947517,12.82,0.0,0.0,0.00014616963801245182,0.11588986233242349,,,,,,,
8.900742000000001,1602.0,0.0,16.0,0.0,0.0,11.0,1.6233131885528564,0.3441368639469147,0.0,1498.0,0.0,-2.7912535999999997,0.0,-80.0,2.0477356329164655e-05,8.923808410852336e-06,0.0,-0.015157308429479599,0.6036422252655029,3.0,0.0,-0.017920881509780884,440.07632064819336,1568.0,2.727600555016738,16.278636,0.0,427.0,11.0,51.4594528,-14.0,0.0,-0.0486946861306418,-224.0,0.0,0.0,-9.652298927307129,0.0,0.0,0.0,-0.39181438088417053,16.318372,0.0,-0.015175152570009232,12.82,0.0,0.0,-0.00037084849774118026,0.11588986233242349,,,,,,,
9.000611,1602.0,0.0,16.0,0.0,0.0,11.0,1.6469954252243042,0.5415827631950378,0.0,1498.0,0.0,-2.7912539,0.0,-81.0,-3.8349223049863845e-05,-5.976169185402606e-06,0.0,-0.019005725160241127,0.40971192717552185,3.0,0.0,-0.020988576114177704,441.9499282836914,1568.0,2.727426022091539,16.399248999999998,0.0,430.0,11.0,51.4594528,-14.0,0.0,-0.050265482457436686,-225.0,0.0,0.0,-9.630193710327148,0.0,0.0,0.0,-0.40803828835487366,16.418241,0.0,-0.020456364378333092,12.780000000000001,0.0,0.0,0.00029362908213145756,0.11588986233242349,,,,,,,
9.100629999999999,1602.0,0.0,16.0,0.0,0.0,11.0,1.5986049175262451,0.31038376688957214,0.0,1498.0,0.0,-2.7912539,0.0,-80.0,9.317014376760696e-06,-1.1453825669242272e-05,0.0,-0.02101924456655979,0.589985191822052,3.0,0.0,-0.02333803102374077,440.07632064819336,1568.0,2.72707695624114,16.478614999999998,0.0,426.0,11.0,51.4594528,-14.0,0.0,-0.04904375198104066,-224.0,0.0,0.0,-9.723559379577637,0.0,0.0,0.0,-0.41827213764190674,16.518259999999998,0.0,-0.02198782190680504,12.780000000000001,0.0,0.0,-2.817455872631812e-05,0.11588986233242349,,,,,,,
9.200565999999998,1602.0,0.0,16.0,0.0,0.0,11.0,1.6400022506713867,0.5116636753082275,0.0,1498.0,0.0,-2.7912542,0.0,-79.0,-3.263522961053024e-05,-3.745364898370448e-07,0.0,-0.028127025812864304,0.4779972434043884,3.0,0.0,-0.02161114476621151,441.9499282836914,1568.0,2.726727890390741,16.599111999999998,0.0,424.0,11.0,51.459452899999995,-14.0,0.0,-0.04921828490624009,-219.0,0.0,0.0,-9.631011962890625,0.0,0.0,0.0,-0.4332702159881592,16.618195999999998,0.0,-0.02034500241279602,12.74,0.0,0.0,0.0002025407805095037,0.11588986233242349,,,,,,,
9.300645,1602.0,0.0,16.0,0.0,0.0,11.0,1.6019887924194336,0.24653249979019165,0.0,1498.0,0.0,-2.7912542,0.0,-79.0,1.9941137930023937e-05,-3.915718864138177e-05,0.0,-0.028479434549808502,0.6091050505638123,3.0,0.0,-0.02437063679099083,440.07632064819336,1568.0,2.7265533574655416,16.678576,0.0,425.0,11.0,51.459452899999995,-14.0,0.0,-0.04834562028024293,-220.0,0.0,0.0,-9.728100776672363,0.0,0.0,0.0,-0.44329017400741577,16.718275,0.0,-0.022657711058855057,12.74,0.0,0.0,-0.00023930729280771508,0.11588986233242349,,,,,,,
9.400783,1602.0,0.0,16.0,0.0,0.0,11.0,1.650125503540039,0.6015950441360474,0.0,1498.0,0.0,-2.7912543999999997,0.0,-80.0,-2.8600312587659506e-05,2.774247368062257e-06,0.0,-0.03647945076227188,0.5681338906288147,3.0,0.0,-0.022646060213446617,441.9499282836914,1568.0,2.7265533574655416,16.798877,0.0,424.0,11.0,51.459452899999995,-14.0,0.0,-0.04991641660703782,-219.0,0.0,0.0,-9.593530654907227,0.0,0.0,0.0,-0.45880410075187683,16.818413,0.0,-0.019923938438296318,12.72,0.0,0.0,6.826245584972965e-05,0.11588986233242349,,,,,,,
9.500799,1602.0,0.0,16.0,0.0,0.0,11.0,1.6170786619186401,0.23167765140533447,0.0,1498.0,0.0,-2.7912543999999997,0.0,-80.0,1.1566470361345844e-05,-4.120623704009131e-05,0.0,-0.03629392758011818,0.5954480171203613,3.0,0.0,-0.029622483998537064,441.9499282836914,1568.0,2.726378824540342,16.879175999999998,0.0,423.0,11.0,51.459452899999995,-14.0,0.0,-0.0486946861306418,-219.0,0.0,0.0,-9.69227123260498,0.0,0.0,0.0,-0.46988916397094727,16.918429,0.0,-0.03068050555884838,12.72,0.0,0.0,0.0003884945081969166,0.11588986233242349,,,,,,,
9.600798999999999,1602.0,0.0,16.0,0.0,0.0,11.0,1.6237272024154663,0.3488602638244629,0.0,1498.0,0.0,-2.7912547,0.0,-79.0,4.492697411896343e-05,4.4550594758712636e-06,0.0,-0.04538625478744507,0.5189684629440308,3.0,0.0,-0.021882450208067894,441.9499282836914,1568.0,2.7260297586899433,16.998959,0.0,424.0,11.0,51.459452899999995,-14.0,0.0,-0.04834562028024293,-219.0,0.0,0.0,-9.652568817138672,0.0,0.0,0.0,-0.4869398772716522,17.018428999999998,0.0,-0.01758379302918911,12.67,0.0,0.0,-0.0006366202061678728,0.11571532940722405,,,,,,,
9.700628000000002,1602.0,0.0,16.0,0.0,0.0,11.0,1.6368714570999146,0.5967620611190796,0.0,1498.0,0.0,-2.7912547,0.0,-81.0,-7.132320556446306e-05,5.920872405879307e-06,0.0,-0.047937050461769104,0.4725344181060791,3.0,0.0,-0.02638281136751175,440.07632064819336,1568.0,2.7260297586899433,17.078644,0.0,425.0,11.0,51.459452899999995,-14.0,0.0,-0.05009094953223726,-224.0,0.0,0.0,-9.61786937713623,0.0,0.0,0.0,-0.49786892533302307,17.118258,0.0,-0.026220308616757393,12.67,0.0,0.0,0.0007568509412447105,0.11571532940722405,,,,,,,
9.800701,1602.0,0.0,16.0,0.0,0.0,11.0,1.5490118265151978,0.1941080093383789,0.0,1498.0,0.0,-2.791255,0.0,-80.0,4.6887674456669225e-05,1.4873759361303077e-05,0.0,-0.052056293934583664,0.3851292133331299,3.0,0.0,-0.02413364313542843,440.07632064819336,1568.0,2.7253316269891457,17.198892,0.0,425.0,11.0,51.459452899999995,-14.0,0.0,-0.047472955654245766,-224.0,0.0,0.0,-9.796838760375977,0.0,0.0,0.0,-0.5113945603370667,17.218331,0.0,-0.019544094800949097,12.620000000000001,0.0,0.0,-0.00040029242235755584,0.11588986233242349,,,,,,,
9.900625000000002,1602.0,0.0,16.0,0.0,0.0,11.0,1.6910467147827148,0.5475260019302368,0.0,1498.0,0.0,-2.791255,0.0,-80.0,-5.0266149659912795e-05,-1.0539268209173748e-05,0.0,-0.05459953099489212,0.5790595412254333,3.0,0.0,-0.024057507514953613,433.2443084716797,1568.0,2.7251570940639462,17.27861,0.0,427.0,11.0,51.459452899999995,-14.0,0.0,-0.04904375198104066,-224.0,0.0,0.0,-9.566774368286133,0.0,0.0,0.0,-0.517845094203949,17.318255,0.0,-0.02244163490831852,12.620000000000001,0.0,0.0,0.0002186123822736874,0.11606439525762292,,,,,,,
10.000594,1602.0,0.0,16.0,0.0,0.0,11.0,1.5576012134552002,0.28092581033706665,0.0,1498.0,0.0,-2.7912551999999997,0.0,-80.0,-1.1214883398877302e-05,5.691569140192175e-06,0.0,-0.054088007658720016,0.587253749370575,3.0,0.0,-0.02548414096236229,440.07632064819336,1568.0,2.7248080282135474,17.398925,0.0,426.0,11.0,51.459452899999995,-14.0,0.0,-0.0481710873550435,-224.0,0.0,0.0,-9.761946678161621,0.0,0.0,0.0,-0.5258802771568298,17.418224,0.0,-0.022578002884984016,12.6,0.0,0.0,-1.938549726155028e-05,0.11588986233242349,,,,,,,
10.100618,1602.0,0.0,16.0,0.0,0.0,11.0,1.6609535217285156,0.4608074128627777,0.0,1498.0,0.0,-2.7912551999999997,0.0,-80.0,1.1842795268212753e-05,-6.34547726697927e-06,0.0,-0.0576285757124424,0.5353569388389587,3.0,0.0,-0.022636491805315018,440.07632064819336,1568.0,2.724458962363148,17.478607,0.0,426.0,11.0,51.459452899999995,-14.0,0.0,-0.04886921905584123,-224.0,0.0,0.0,-9.621477127075195,0.0,0.0,0.0,-0.5327872633934021,17.518248,0.0,-0.021120943129062653,12.6,0.0,0.0,-4.304586058843109e-05,0.11606439525762292,,,,,,,
10.200634,1602.0,0.0,16.0,0.0,0.0,11.0,1.600389838218689,0.3882153332233429,0.0,1498.0,0.0,-2.7912554,0.0,-80.0,-6.614046473012332e-05,1.8618515726389163e-05,0.0,-0.06021036207675934,0.6773903965950012,3.0,0.0,-0.023984896019101143,440.07632064819336,1568.0,2.724284429437949,17.599197,0.0,426.0,11.0,51.459452899999995,-14.0,0.0,-0.04904375198104066,-219.0,0.0,0.0,-9.709240913391113,0.0,0.0,0.0,-0.543357253074646,17.618264,0.0,-0.02403319999575615,12.57,0.0,0.0,0.00024465672909352595,0.11623892818282235,,,,,,,
10.300571999999999,1602.0,0.0,16.0,0.0,0.0,11.0,1.6524635553359985,0.3545238673686981,0.0,1498.0,0.0,-2.7912554,0.0,-78.0,3.6930887399062355e-05,-3.5320946052828844e-05,0.0,-0.061830099672079086,0.40971192717552185,3.0,0.0,-0.023338444530963898,440.07632064819336,1568.0,2.72393536358755,17.678639,0.0,424.0,11.0,51.459452899999995,-14.0,0.0,-0.0481710873550435,-220.0,0.0,0.0,-9.61036491394043,0.0,0.0,0.0,-0.5517284870147705,17.718201999999998,0.0,-0.02317623421549797,12.57,0.0,0.0,-9.160802765158149e-05,0.11641346110802178,,,,,,,
10.400633,1602.0,0.0,16.0,0.0,0.0,11.0,1.6112136840820312,0.5125793218612671,0.0,1498.0,0.0,-2.7912557,0.0,-79.0,-5.225321096867472e-05,8.111318948357348e-06,0.0,-0.06464056670665741,0.49984854459762573,3.0,0.0,-0.021047109737992287,441.1116180419922,1568.0,2.72393536358755,17.798833,0.0,423.0,11.0,51.459452899999995,-14.0,0.0,-0.04939281783143953,-218.0,0.0,0.0,-9.684417724609375,0.0,0.0,0.0,-0.5626436471939087,17.818262999999998,0.0,-0.02132626436650753,12.52,0.0,0.0,0.00027086046896542334,0.11641346110802178,,,,,,,
10.500613999999999,1602.0,0.0,16.0,0.0,0.0,11.0,1.5945324897766113,0.1945221722126007,0.0,1498.0,0.0,-2.7912557,0.0,-79.0,3.985644722862614e-05,-4.7169893704297185e-06,0.0,-0.06438874453306198,0.4943857192993164,3.0,0.0,-0.020170701667666435,441.1116180419922,1568.0,2.723760830662351,17.879379,0.0,425.0,11.0,51.459452899999995,-14.0,0.0,-0.0486946861306418,-219.0,0.0,0.0,-9.750605583190918,0.0,0.0,0.0,-0.5676406621932983,17.918243999999998,0.0,-0.020373472943902016,12.52,0.0,0.0,-0.0004192017113386753,0.11641346110802178,,,,,,,
10.600781999999999,1602.0,0.0,16.0,0.0,0.0,11.0,1.6565724611282349,0.6127787828445435,0.0,1498.0,0.0,-2.7912559,0.0,-80.0,-5.5703019682927893e-05,3.581311233130763e-05,0.0,-0.06877562403678894,0.554476797580719,3.0,0.0,-0.014920906163752079,468.34754180908203,1568.0,2.7235862977371514,17.998926,0.0,425.0,11.0,51.459452899999995,-14.0,0.0,-0.05113814708343386,-220.0,0.0,0.0,-9.587930679321289,0.0,0.0,0.0,-0.5739961266517639,18.018411999999998,0.0,-0.01704743318259716,12.48,0.0,0.0,0.00027249794568083775,0.11676252695842065,,,,,,,
10.700775,1602.0,0.0,16.0,0.0,0.0,11.0,1.6178022623062134,0.2879140079021454,0.0,1498.0,0.0,-2.7912559,0.0,-80.0,7.002095652691274e-05,-8.279436884477531e-05,0.0,-0.062059469521045685,0.6555390954017639,3.0,0.0,-0.018574904650449753,468.34754180908203,1568.0,2.7234117648119516,18.078644,0.0,427.0,11.0,51.459452899999995,-14.0,0.0,-0.05009094953223726,-224.0,0.0,0.0,-9.704315185546875,0.0,0.0,0.0,-0.5778418183326721,18.118405,0.0,-0.020528540015220642,12.48,0.0,0.0,-0.00018560836523818857,0.11676252695842065,,,,,,,
10.800595999999999,1602.0,0.0,16.0,0.0,0.0,11.0,1.628739595413208,0.5193064212799072,0.0,1498.0,0.0,-2.7912561,0.0,-81.0,-7.40884864637978e-05,7.84816700924504e-05,0.0,-0.07254312932491302,0.41790616512298584,3.0,0.0,-0.007856101728975773,468.34754180908203,1568.0,2.7232372318867526,18.198867,0.0,427.0,11.0,51.459452899999995,-14.0,0.0,-0.05113814708343386,-224.0,0.0,0.0,-9.622648239135742,0.0,0.0,0.0,-0.5857874751091003,18.218225999999998,0.0,-0.010620096698403358,12.450000000000001,0.0,0.0,0.0001804527818525259,0.11693705988362008,,,,,,,
10.900770000000001,1602.0,0.0,16.0,0.0,0.0,11.0,1.6308441162109375,0.27672719955444336,0.0,1498.0,0.0,-2.7912561,0.0,-80.0,3.0433586665169137e-05,-4.010078705715441e-05,0.0,-0.0672023817896843,0.7675270438194275,3.0,0.0,-0.011693202890455723,441.1116180419922,1568.0,2.722713633111154,18.278627,0.0,425.0,11.0,51.459452899999995,-14.0,0.0,-0.050265482457436686,-224.0,0.0,0.0,-9.661205291748047,0.0,0.0,0.0,-0.5905553698539734,18.3184,0.0,-0.016849741339683533,12.450000000000001,0.0,0.0,0.00010809099385233244,0.11711159280881951,,,,,,,
11.000625,1602.0,0.0,16.0,0.0,0.0,11.0,1.600852370262146,0.4688052833080292,0.0,1498.0,0.0,-2.7912562,0.0,-81.0,-3.755209117945516e-05,4.064557368621217e-05,0.0,-0.07327396422624588,0.4889228940010071,3.0,0.0,-0.00107772636692971,460.99949645996094,1568.0,2.722713633111154,18.399062,0.0,426.0,11.0,51.459452999999996,-14.0,0.0,-0.05131268000863329,-224.0,0.0,0.0,-9.718104362487793,0.0,0.0,0.0,-0.5989782214164734,18.418255,0.0,-0.0033162094186991453,12.42,0.0,0.0,-0.00014366765798541717,0.11711159280881951,,,,,,,
11.100632000000001,1602.0,0.0,16.0,0.0,0.0,11.0,1.6388238668441772,0.5175996422767639,0.0,1498.0,0.0,-2.7912562,0.0,-81.0,8.974592799241829e-05,-7.919170550954538e-05,0.0,-0.07026207447052002,0.4288318157196045,3.0,0.0,-0.003259614109992981,441.1116180419922,1568.0,2.722364567260755,18.478592,0.0,425.0,11.0,51.459452999999996,-14.0,0.0,-0.05166174585903215,-224.0,0.0,0.0,-9.611589431762695,0.0,0.0,0.0,-0.6057705879211426,18.518262,0.0,-0.005872555077075958,12.42,0.0,0.0,-0.00020620534153413197,0.11746065865921838,,,,,,,
11.200917,1602.0,0.0,16.0,0.0,0.0,11.0,1.596789002418518,0.2928194999694824,0.0,1498.0,0.0,-2.7912564,0.0,-80.0,-7.17476306085491e-05,2.3214843816823993e-05,0.0,-0.07227137684822083,0.4643401801586151,3.0,0.0,-0.00212680920958519,441.1116180419922,1568.0,2.722539100185955,18.599314,0.0,424.0,11.0,51.459452899999995,-14.0,0.0,-0.05183627878423159,-220.0,0.0,0.0,-9.749006271362305,0.0,0.0,0.0,-0.6107445955276489,18.618547,0.0,-0.009607692249119282,12.38,0.0,0.0,0.0004512275888370855,0.11728612573401895,,,,,,,
11.300737999999999,1602.0,0.0,16.0,0.0,0.0,11.0,1.6256170272827148,0.6224144697189331,0.0,1498.0,0.0,-2.7912564,0.0,-79.0,1.8803906051814958e-05,-4.5727295963517174e-05,0.0,-0.07061967253684998,0.6801217794418335,3.0,0.0,0.0042464532889425755,440.07632064819336,1568.0,2.722364567260755,18.678580999999998,0.0,425.0,11.0,51.459452899999995,-14.0,0.0,-0.05166174585903215,-219.0,0.0,0.0,-9.658468246459961,0.0,0.0,0.0,-0.6118862628936768,18.718367999999998,0.0,0.002439563162624836,12.38,0.0,0.0,-0.00028728521915394214,0.11728612573401895,,,,,,,
11.40064,1602.0,0.0,16.0,0.0,0.0,11.0,1.6148011684417725,0.3321627080440521,0.0,1498.0,0.0,-2.7912565,0.0,-80.0,-2.0843758384931772e-05,-1.2064552314807665e-05,0.0,-0.0698595941066742,0.6364191770553589,3.0,0.0,0.0024136339779943228,440.07632064819336,1568.0,2.722364567260755,18.798878,0.0,424.0,11.0,51.459452899999995,-14.0,0.0,-0.05131268000863329,-219.0,0.0,0.0,-9.677225112915039,0.0,0.0,0.0,-0.6150285005569458,18.81827,0.0,-0.005963834468275309,12.34,0.0,0.0,0.00042738098384772995,0.11746065865921838,,,,,,,
11.500810999999999,1602.0,0.0,16.0,0.0,0.0,11.0,1.5976433753967285,0.31965696811676025,0.0,1498.0,0.0,-2.7912565,0.0,-78.0,-2.354360011401797e-05,1.8033836134042054e-05,0.0,-0.07092644274234772,0.5162370204925537,3.0,0.0,0.006256932392716408,440.07632064819336,1568.0,2.722364567260755,18.879118,0.0,423.0,11.0,51.459452899999995,-14.0,0.0,-0.050789081233034994,-219.0,0.0,0.0,-9.687573432922363,0.0,0.0,0.0,-0.6196151375770569,18.918440999999998,0.0,0.00010857282904908061,12.34,0.0,0.0,-3.478981738950558e-05,0.11746065865921838,,,,,,,
11.600693,1602.0,0.0,16.0,0.0,0.0,11.0,1.65272057056427,0.52225661277771,0.0,1498.0,0.0,-2.7912567,0.0,-80.0,-1.3021325120616376e-05,-2.9881188798437856e-06,0.0,-0.07260879874229431,0.6200307011604309,3.0,0.0,0.010946830734610558,451.48766326904297,1568.0,2.722364567260755,18.998874,0.0,423.0,11.0,51.459452899999995,-14.0,0.0,-0.05235987755982989,-219.0,0.0,0.0,-9.631977081298828,0.0,0.0,0.0,-0.6261571049690247,19.018323,0.0,0.005604838021099567,12.3,0.0,0.0,-0.0002591625858921153,0.11763519158441782,,,,,,,
11.70063,1602.0,0.0,16.0,0.0,0.0,11.0,1.6515384912490845,0.43817034363746643,0.0,1498.0,0.0,-2.7912567,0.0,-80.0,5.327630679107154e-05,-5.524489875908272e-05,0.0,-0.07051876187324524,0.5244312882423401,3.0,0.0,0.0071373796090483665,451.48766326904297,1568.0,2.722364567260755,19.078615,0.0,426.0,11.0,51.459452899999995,-14.0,0.0,-0.05305800926062762,-223.0,0.0,0.0,-9.641664505004883,0.0,0.0,0.0,-0.6300944685935974,19.11826,0.0,-0.0003545455983839929,12.3,0.0,0.0,0.0001323152023799148,0.11763519158441782,,,,,,,
11.800643999999998,1602.0,0.0,16.0,0.0,0.0,11.0,1.6176680326461792,0.3517911732196808,0.0,1498.0,0.0,-2.7912569,0.0,-81.0,-2.363533930040268e-05,-1.2409455570301555e-05,0.0,-0.07170090079307556,0.4725344181060791,3.0,0.0,0.01117037795484066,468.4426040649414,1568.0,2.722364567260755,19.198874999999997,0.0,427.0,11.0,51.459452999999996,-14.0,0.0,-0.052534410485029326,-225.0,0.0,0.0,-9.685588836669922,0.0,0.0,0.0,-0.6352019906044006,19.218273999999997,0.0,0.005562818143516779,12.290000000000001,0.0,0.0,-0.00019951595356093897,0.11746065865921838,,,,,,,
