time_index,velocity_z,quaternion_3,time_actual,axis_rate_yaw,attitude_pitch,acceleration_z,wind_y,velocity_x,servos_4,quaternion_0,global_position_longitude,acceleration_x,mode_0,airspeed_0,servos_6,axis_rate_pitch,mode_2,magnetometer_1,mode_1,altitude_baro,wind_x,acceleration_y,servos_3,tx_controls_3,altitude_gps,attitude_roll,position_x,servos_0,servos_2,velocity_y,tx_controls_5,magnetometer_2,tx_controls_7,global_position_latitude,attitude_yaw,tx_controls_4,time_flight,magnetometer_0,servos_7,servos_1,tx_controls_6,tx_controls_1,position_z,axis_rate_roll,quaternion_1,tx_controls_2,servos_5,gps_sat_count_0,tx_controls_0,position_y,quaternion_2,battery_0,current_1,rpm_0,rpm_1,current_2,current_3,current_0,battery_1,airspeed_1
0.0,0.0,0.0,7.259392999999999,3.7516168413286495e-05,-0.05305800926062762,-9.69283390045166,0.0,0.0,0.0,1.0,-2.7913561,1.464723825454712,5.0,0.0,0.0,-4.1163450749934074e-05,1.0,-76.0,5.0,-0.1392391324043274,0.0,-0.39737722277641296,0.0,1603.0,7.8,0.008028514559173916,0.0,0.0,0.0,0.0,1500.0,376.0,1500.0,51.459522899999996,0.0,1417.0,7.298895,-246.0,0.0,0.0,1500.0,1569.0,0.0,-0.00044813055875398626,0.0,1490.0,0.0,0.0,1000.0,0.0,0.0,,,,,,,,,
0.09995300000000018,0.0,0.0,7.379066,-4.8727070439974454e-05,-0.05305800926062762,-9.715158462524414,0.0,0.0,0.0,1.0,-2.7913561,1.4218370914459229,5.0,0.0,0.0,-1.7402076993341197e-05,1.0,-76.0,5.0,-0.07219807058572769,0.0,0.12136588990688324,0.0,1603.0,7.8,0.008028514559173916,0.0,0.0,0.0,0.0,1500.0,375.0,1500.0,51.459522899999996,0.0,1417.0,7.398848,-244.0,0.0,0.0,1500.0,1569.0,0.0,0.0003338833861863857,0.0,1490.0,0.0,0.0,1000.0,0.0,0.0,,,,,,,,,
0.19990599999999947,0.0,0.0,7.459098999999999,7.18983599346496e-05,-0.05305800926062762,-9.69952392578125,0.0,0.0,0.0,1.0,-2.7913561,1.4017690420150757,5.0,0.0,0.0,-1.0918291997035878e-05,1.0,-76.0,5.0,0.02578502520918846,0.0,-0.38237661123275757,0.0,1602.0,7.8,0.008028514559173916,0.0,0.0,0.0,0.0,1500.0,376.0,1500.0,51.459522899999996,0.0,1418.0,7.498800999999999,-244.0,0.0,0.0,1500.0,1568.0,0.0,-0.0005032824403051956,0.0,1491.0,0.0,0.0,1000.0,0.0,0.0,,,,,,,,,
0.30000999999999944,0.0,0.0,7.579578,-4.320083237696146e-05,-0.05305800926062762,-9.724088668823242,0.0,0.0,0.0,1.0,-2.7913561,1.3809843063354492,5.0,0.0,0.0,-3.071463557833368e-06,1.0,-76.0,5.0,-0.1959661841392517,0.0,0.009147215634584427,0.0,1603.0,7.8,0.008028514559173916,0.0,0.0,0.0,0.0,1501.0,378.0,1500.0,51.459522899999996,0.0,1417.0,7.598904999999999,-244.0,0.0,0.0,1500.0,1568.0,0.0,0.00037086592272096887,0.0,1490.0,0.0,0.0,1000.0,0.0,0.0,,,,,,,,,
0.400004,0.0,0.0,7.659723,6.0280921101055955e-05,-0.05305800926062762,-9.704719543457031,0.0,0.0,0.0,1.0,-2.7913561,1.4000128507614136,5.0,0.0,0.0,-4.8709264491936046e-06,1.0,-75.0,5.0,-0.056727055460214615,0.0,-0.32128483057022095,0.0,1603.0,7.8,0.008028514559173916,0.0,0.0,0.0,0.0,1500.0,378.0,1500.0,51.459522899999996,0.0,1417.0,7.698899,-245.0,0.0,0.0,1500.0,1569.0,0.0,-0.0005030756812166591,0.0,1490.0,0.0,0.0,1000.0,0.0,0.0,,,,,,,,,
0.5000260000000001,0.0,0.0,7.779128999999999,-3.145559139449851e-05,-0.05305800926062762,-9.716351509094238,0.0,0.0,0.0,1.0,-2.7913561,1.3939540386199951,5.0,0.0,0.0,-6.493196181969771e-07,1.0,-76.0,5.0,-0.2011231929063797,0.0,-0.04510107636451721,0.0,1603.0,7.8,0.008028514559173916,0.0,0.0,0.0,0.0,1500.0,379.0,1500.0,51.459522899999996,0.0,1417.0,7.798921,-244.0,0.0,0.0,1500.0,1568.0,0.0,0.0003373108081903648,0.0,1491.0,0.0,0.0,1000.0,0.0,0.0,,,,,,,,,
0.5999840000000001,0.0,0.0,7.8590539999999995,4.348307803838807e-05,-0.05305800926062762,-9.692645072937012,0.0,0.0,0.0,1.0,-2.7913561,1.4057198762893677,5.0,0.0,0.0,-1.3057585170675546e-05,1.0,-76.0,5.0,-0.3403623402118683,0.0,-0.2922949492931366,0.0,1602.0,7.8,0.008028514559173916,0.0,0.0,0.0,0.0,1500.0,380.0,1500.0,51.459522899999996,0.0,1418.0,7.898879,-244.0,0.0,0.0,1500.0,1568.0,0.0,-0.0005063135090375651,0.0,1491.0,0.0,0.0,1000.0,0.0,0.0,,,,,,,,,
0.6999939999999993,0.0,0.0,7.979063,-3.858380602753566e-05,-0.05305800926062762,-9.749371528625488,0.0,0.0,0.0,1.0,-2.7913561,1.4271111488342285,5.0,0.0,0.0,-2.3493810103556245e-05,1.0,-75.0,5.0,-0.21143721044063568,0.0,-0.03939483314752579,0.0,1602.0,7.8,0.008028514559173916,0.0,0.0,0.0,0.0,1500.0,376.0,1500.0,51.459522899999996,0.0,1418.0,7.998888999999999,-242.0,0.0,0.0,1500.0,1568.0,0.0,0.00039250384650353745,0.0,1491.0,0.0,0.0,1000.0,0.0,0.0,,,,,,,,,
0.7998259999999995,0.0,0.0,8.05951,5.2662791457917547e-05,-0.05305800926062762,-9.668325424194336,0.0,0.0,0.0,1.0,-2.7913561,1.4580148458480835,5.0,0.0,0.0,-3.282771508864048e-05,1.0,-76.0,5.0,-0.15986715257167816,0.0,-0.1703888475894928,0.0,1603.0,7.8,0.008028514559173916,0.0,0.0,0.0,0.0,1500.0,377.0,1500.0,51.459522899999996,0.0,1417.0,8.098721,-243.0,0.0,0.0,1500.0,1568.0,0.0,-0.0005957807998998191,0.0,1491.0,0.0,0.0,1000.0,0.0,0.0,,,,,,,,,
0.9000179999999993,0.0,0.0,8.179131,-5.384200908500149e-05,-0.05305800926062762,-9.636452674865723,0.0,0.0,0.0,1.0,-2.7913561,1.4042296409606934,5.0,0.0,0.0,2.392740937105537e-06,1.0,-76.0,5.0,-0.1908091902732849,0.0,-0.2680228054523468,0.0,1603.0,7.8,0.008028514559173916,0.0,0.0,0.0,0.0,1500.0,375.0,1500.0,51.459522899999996,0.0,1417.0,8.198913,-243.0,0.0,0.0,1500.0,1568.0,0.0,0.0004975165274968626,0.0,1491.0,0.0,0.0,1000.0,0.0,0.0,,,,,,,,,
1.0000509999999991,0.0,0.0,8.259449,4.488044519672007e-05,-0.05305800926062762,-9.649816513061523,0.0,0.0,0.0,1.0,-2.7913561,1.4025911092758179,5.0,0.0,0.0,-2.8938350795291834e-06,1.0,-76.0,5.0,-0.22690822184085846,0.0,-0.14785949885845184,0.0,1602.0,7.8,0.008028514559173916,0.0,0.0,0.0,0.0,1500.0,374.0,1500.0,51.459522899999996,0.0,1418.0,8.298945999999999,-244.0,0.0,0.0,1500.0,1568.0,0.0,-0.00045795636181590144,0.0,1491.0,0.0,0.0,1000.0,0.0,0.0,,,,,,,,,
1.099803999999999,0.0,0.0,8.379125,-5.35634532280637e-05,-0.05305800926062762,-9.736166000366211,0.0,0.0,0.0,1.0,-2.7913561,1.441264033317566,5.0,0.0,0.0,-2.16842495217454e-05,1.0,-76.0,5.0,-0.263007253408432,0.0,-0.41944658756256104,0.0,1602.0,7.8,0.008028514559173916,0.0,0.0,0.0,0.0,1500.0,375.0,1500.0,51.459522899999996,0.0,1418.0,8.398698999999999,-243.0,0.0,0.0,1500.0,1568.0,0.0,0.00036842197177774515,0.0,1491.0,0.0,0.0,1000.0,0.0,0.0,,,,,,,,,
1.2000720000000005,0.0,0.0,8.459071999999999,2.2480497545814524e-05,-0.05305800926062762,-9.57455062866211,0.0,0.0,0.0,1.0,-2.7913561,1.3368680477142334,5.0,0.0,0.0,4.396859019842627e-07,1.0,-75.0,5.0,-0.2011231929063797,0.0,-0.16648134589195251,0.0,1603.0,7.8,0.008028514559173916,0.0,0.0,0.0,0.0,1501.0,377.0,1500.0,51.459522899999996,0.0,1417.0,8.498967,-242.0,0.0,0.0,1500.0,1568.0,0.0,-0.00019639550053392613,0.0,1490.0,0.0,0.0,1000.0,0.0,0.0,,,,,,,,,
1.3000369999999997,0.0,0.0,8.579532,2.115148726656695e-05,-0.05305800926062762,-9.6585693359375,0.0,0.0,0.0,1.0,-2.7913561,1.493091106414795,5.0,0.0,0.0,-6.026974603239489e-06,1.0,-76.0,5.0,-0.1340821385383606,0.0,-0.23635582625865936,0.0,1603.0,7.8,0.008028514559173916,0.0,0.0,0.0,0.0,1500.0,374.0,1500.0,51.459522899999996,0.0,1417.0,8.598932,-243.0,0.0,0.0,1501.0,1568.0,0.0,-0.00021565280147145798,0.0,1490.0,0.0,0.0,1000.0,0.0,0.0,,,,,,,,,
1.4000589999999988,0.0,0.0,8.659122,-4.085559183113629e-05,-0.05305800926062762,-9.649810791015625,0.0,0.0,0.0,1.0,-2.7913561,1.557776689529419,5.0,0.0,0.0,4.3728421591265166e-05,1.0,-76.0,5.0,-0.1340821385383606,0.0,-0.1400679349899292,0.0,1602.0,7.8,0.008028514559173916,0.0,0.0,0.0,0.0,1500.0,376.0,1500.0,51.459522899999996,0.0,1418.0,8.698953999999999,-242.0,0.0,0.0,1500.0,1568.0,0.0,0.00014826926680375202,0.0,1491.0,0.0,0.0,1000.0,0.0,0.0,,,,,,,,,
1.5000109999999989,0.0,0.0,8.779103,-2.6775899323682768e-05,-0.05305800926062762,-9.729620933532715,0.0,0.0,0.0,1.0,-2.7913561,1.301015853881836,5.0,0.0,0.0,7.890516049443025e-05,1.0,-76.0,5.0,-0.17533817887306213,0.0,-0.378648966550827,0.0,1602.0,7.8,0.008028514559173916,0.0,0.0,0.0,0.0,1500.0,374.0,1500.0,51.459522899999996,0.0,1418.0,8.798905999999999,-243.0,0.0,0.0,1500.0,1568.0,0.0,-8.48551490337483e-05,0.0,1491.0,0.0,0.0,1000.0,0.0,0.0,,,,,,,,,
1.6001159999999999,0.0,0.0,8.859122,6.346154069773998e-05,-0.05305800926062762,-9.74840259552002,0.0,0.0,0.0,1.0,-2.7913561,1.2953271865844727,5.0,0.0,0.0,3.119381845885897e-05,1.0,-75.0,5.0,-0.22690822184085846,0.0,0.11186325550079346,0.0,1603.0,7.8,0.008028514559173916,0.0,0.0,0.0,0.0,1500.0,377.0,1500.0,51.459522899999996,0.0,1417.0,8.899011,-242.0,0.0,0.0,1501.0,1568.0,0.0,5.908652163523828e-05,0.0,1490.0,0.0,0.0,1000.0,0.0,0.0,,,,,,,,,
1.6998759999999997,0.0,0.0,8.979103,0.0001393950431884642,-0.05305800926062762,-9.769377708435059,0.0,0.0,0.0,1.0,-2.7913561,1.2147281169891357,5.0,0.0,0.0,1.9820382169903095e-05,1.0,-76.0,5.0,-0.2784782648086548,0.0,-0.5740311741828918,0.0,1603.0,7.8,0.008028514559173916,0.0,0.0,0.0,0.0,1500.0,376.0,1501.0,51.459522899999996,0.0,1417.0,8.998771,-243.0,0.0,0.0,1500.0,1569.0,0.0,-0.0001654767106739694,0.0,1490.0,0.0,0.0,1000.0,0.0,0.0,,,,,,,,,
1.800008,0.0,0.0,9.059529999999999,-6.819975355538773e-05,-0.05305800926062762,-9.862065315246582,0.0,0.0,0.0,1.0,-2.7913561,1.1639502048492432,5.0,0.0,0.0,4.6095324499732145e-06,1.0,-76.0,5.0,-0.22690822184085846,0.0,-0.2034260779619217,0.0,1603.0,7.8,0.008028514559173916,0.0,0.0,0.0,0.0,1500.0,373.0,1500.0,51.459522899999996,0.0,1417.0,9.098903,-243.0,0.0,0.0,1500.0,1568.0,0.0,0.00041392103220258997,0.0,1491.0,0.0,0.0,1000.0,0.0,0.0,,,,,,,,,
1.9000050000000002,0.0,0.0,9.179065,2.241890259918538e-05,-0.05305800926062762,-9.658605575561523,0.0,0.0,0.0,1.0,-2.7913561,1.3662047386169434,5.0,0.0,0.0,-8.017428256480782e-05,1.0,-76.0,5.0,0.08509058505296707,0.0,-0.4033324122428894,0.0,1602.0,7.8,0.008028514559173916,0.0,0.0,0.0,0.0,1500.0,377.0,1500.0,51.459522899999996,0.0,1418.0,9.1989,-242.0,0.0,0.0,1500.0,1568.0,0.0,-0.0006657208976935616,0.0,1491.0,0.0,0.0,1000.0,0.0,0.0,,,,,,,,,
1.9998899999999988,0.0,0.0,9.259445,-7.208463817007628e-05,-0.05305800926062762,-9.792634963989258,0.0,0.0,0.0,1.0,-2.7913561,1.1626830101013184,5.0,0.0,0.0,1.033686434966914e-05,1.0,-75.0,5.0,-0.14439614117145538,0.0,-0.2662334740161896,0.0,1603.0,7.8,0.008028514559173916,0.0,0.0,0.0,0.0,1500.0,372.0,1501.0,51.459522899999996,0.0,1417.0,9.298784999999999,-242.0,0.0,0.0,1500.0,1569.0,0.0,0.0004425193251505678,0.0,1490.0,0.0,0.0,1000.0,0.0,0.0,,,,,,,,,
2.1000309999999995,0.0,0.0,9.379107,-3.848307599045546e-05,-0.05305800926062762,-9.755925178527832,0.0,0.0,0.0,1.0,-2.7913561,1.3564229011535645,5.0,0.0,0.0,-3.300994998104252e-05,1.0,-75.0,5.0,-0.09282609075307846,0.0,-0.2098875194787979,0.0,1603.0,7.8,0.008028514559173916,0.0,0.0,0.0,0.0,1500.0,376.0,1500.0,51.459522899999996,0.0,1417.0,9.398926,-243.0,0.0,0.0,1500.0,1569.0,0.0,-3.680658406259929e-05,0.0,1490.0,0.0,0.0,1000.0,0.0,0.0,,,,,,,,,
2.200006,0.0,0.0,9.459361,6.430128005720732e-05,-0.05305800926062762,-9.769726753234863,0.0,0.0,0.0,1.0,-2.7913561,1.373974084854126,5.0,0.0,0.0,-6.488282961441399e-06,1.0,-76.0,5.0,-0.1392391324043274,0.0,-0.004171126056462526,0.0,1602.0,7.8,0.008028514559173916,0.0,0.0,0.0,0.0,1500.0,376.0,1500.0,51.459522899999996,0.0,1418.0,9.498901,-242.0,0.0,0.0,1500.0,1568.0,0.0,-0.0008213801276840223,0.0,1491.0,0.0,0.0,1000.0,0.0,0.0,,,,,,,,,
2.299942999999999,0.0,0.0,9.579521999999999,-6.348927112266475e-05,-0.05305800926062762,-9.596783638000488,0.0,0.0,0.0,1.0,-2.7913561,1.4202935695648193,5.0,0.0,0.0,-1.7527113820674562e-05,1.0,-77.0,5.0,-0.23722222447395325,0.0,-0.5239500999450684,0.0,1602.0,7.8,0.008028514559173916,0.0,0.0,0.0,0.0,1500.0,375.0,1500.0,51.459522899999996,0.0,1418.0,9.598837999999999,-242.0,0.0,0.0,1500.0,1568.0,0.0,0.0005241946266832851,0.0,1491.0,0.0,0.0,1000.0,0.0,0.0,,,,,,,,,
2.400005,0.0,0.0,9.659143,5.580174633497177e-05,-0.05305800926062762,-9.767112731933594,0.0,0.0,0.0,1.0,-2.7913561,1.533190369606018,5.0,0.0,0.0,-2.8397735006632986e-05,1.0,-76.0,5.0,-0.07735507190227509,0.0,0.3433755338191986,0.0,1602.0,7.8,0.008028514559173916,0.0,0.0,0.0,0.0,1500.0,376.0,1500.0,51.459522899999996,0.0,1418.0,9.6989,-242.0,0.0,0.0,1500.0,1568.0,0.0,-0.00045939323995335764,0.0,1491.0,0.0,0.0,1000.0,0.0,0.0,,,,,,,,,
2.4999970000000005,0.0,0.0,9.779067,-3.348107462114785e-05,-0.05305800926062762,-9.513654708862305,0.0,0.0,0.0,1.0,-2.7913561,0.9857962131500244,5.0,0.0,0.0,7.509776177400687e-05,1.0,-76.0,5.0,-0.24753624200820923,0.0,-0.5857277512550354,0.0,1602.0,7.8,0.008028514559173916,0.0,0.0,0.0,0.0,1500.0,377.0,1500.0,51.459522899999996,0.0,1418.0,9.798892,-243.0,0.0,0.0,1500.0,1568.0,0.0,0.0010362249269910105,0.0,1491.0,0.0,0.0,1000.0,0.0,0.0,,,,,,,,,
2.600016,0.0,0.0,9.859375,-3.995273162020991e-05,-0.05305800926062762,-9.66434097290039,0.0,0.0,0.0,1.0,-2.7913561,0.8367953896522522,5.0,0.0,0.0,-6.441828099425803e-05,1.0,-75.0,5.0,-0.1289251297712326,0.0,-0.2068212628364563,0.0,1602.0,7.8,0.008028514559173916,0.0,0.0,0.0,0.0,1500.0,376.0,1500.0,51.459522899999996,0.0,1418.0,9.898911,-242.0,0.0,0.0,1500.0,1568.0,0.0,-0.0006314492133784418,0.0,1491.0,0.0,0.0,1000.0,0.0,0.0,,,,,,,,,
2.6999899999999997,0.0,0.0,9.979106,0.00012337638280410465,-0.05305800926062762,-9.726810455322266,0.0,0.0,0.0,1.0,-2.7913561,1.349791407585144,5.0,0.0,0.0,-3.0119471739751826e-05,1.0,-77.0,5.0,-0.28363528847694397,0.0,-0.3818832039833069,0.0,1602.0,7.8,0.008028514559173916,0.0,0.0,0.0,0.0,1500.0,374.0,1500.0,51.459522899999996,0.0,1418.0,9.998885,-243.0,0.0,0.0,1500.0,1568.0,0.0,-0.0007039407053210077,0.0,1491.0,0.0,0.0,1000.0,0.0,0.0,,,,,,,,,
2.8000679999999996,0.0,0.0,10.059967,-8.587740367824955e-05,-0.05305800926062762,-9.927371978759766,0.0,0.0,0.0,1.0,-2.7895806,1.2616691589355469,5.0,0.0,0.0,1.7063035569317703e-05,1.0,-76.0,5.0,-0.18049517273902893,0.0,-0.5649564862251282,0.0,1602.0,-1050.51,0.008028514559173916,0.0,0.0,0.0,0.0,1500.0,376.0,1500.0,51.4605822,0.0,1418.0,10.098963,-242.0,0.0,0.0,1500.0,1568.0,0.0,0.00040458221831461753,0.0,1491.0,0.0,4.0,1000.0,0.0,0.0,,,,,,,,,
2.900041999999999,0.0,0.0,10.179309,5.1478376407990874e-05,-0.05305800926062762,-9.588109016418457,0.0,0.0,0.0,1.0,-2.7895806,1.6394304037094116,5.0,0.0,0.0,-2.0510936394575833e-05,1.0,-76.0,5.0,-0.18565218150615692,0.0,0.09385810792446136,0.0,1603.0,-1050.51,0.008028514559173916,0.0,0.0,0.0,0.0,1501.0,378.0,1500.0,51.4605822,0.0,1417.0,10.198936999999999,-243.0,0.0,0.0,1500.0,1568.0,0.0,-0.00039014201402849663,0.0,1490.0,0.0,4.0,1000.0,0.0,0.0,,,,,,,,,
3.0018189999999993,0.0,0.0,10.259504999999999,-3.7658571805276824e-07,-0.05305800926062762,-9.951869010925293,0.0,0.0,0.0,1.0,-2.7895806,1.4901832342147827,5.0,0.0,0.0,9.772441499509352e-05,1.0,-78.0,5.0,-0.1340821385383606,0.0,-0.10139955580234528,0.0,1603.0,-1050.51,0.008028514559173916,0.0,0.0,0.0,0.0,1500.0,376.0,1500.0,51.4605822,0.0,1417.0,10.300714,-243.0,0.0,0.0,1500.0,1569.0,0.0,7.178101765004704e-05,0.0,1490.0,0.0,4.0,1000.0,0.0,0.0,,,,,,,,,
3.1004620000000003,0.0,0.0,10.379997999999999,-6.164519380150586e-05,-0.05305800926062762,-9.448966026306152,0.0,0.0,0.0,1.0,-2.7913292999999997,1.4358702898025513,5.0,0.0,0.0,3.7252794395082425e-05,1.0,-77.0,5.0,-0.37130436301231384,0.0,-0.45396658778190613,0.0,1603.0,7.17,0.008028514559173916,0.0,0.0,0.0,0.0,1500.0,375.0,1500.0,51.4594654,0.0,1417.0,10.399357,-242.0,0.0,0.0,1500.0,1568.0,0.0,0.00034591513967467316,0.0,1491.0,0.0,15.0,1000.0,0.0,0.0,,,,,,,,,
3.200374,0.0,0.0,10.460089,6.28395892036622e-05,-0.05305800926062762,-9.759469985961914,0.0,0.0,0.0,1.0,-2.7913292999999997,1.4358283281326294,5.0,0.0,0.0,1.5105888903446125e-05,1.0,-75.0,5.0,-0.29910629987716675,0.0,0.0431162491440773,0.0,1603.0,7.17,0.008028514559173916,0.0,0.0,0.0,0.0,1501.0,376.0,1500.0,51.4594654,0.0,1417.0,10.499269,-242.0,0.0,0.0,1500.0,1568.0,0.0,-0.0005080248306066919,0.0,1490.0,0.0,15.0,1000.0,0.0,0.0,,,,,,,,,
3.3011040000000005,0.0,0.0,10.580796,-5.139436427362762e-05,-0.05305800926062762,-9.709535598754883,0.0,0.0,0.0,1.0,-2.7913272,1.3518893718719482,5.0,0.0,0.0,1.1146283716028333e-05,1.0,-75.0,5.0,-0.22175121307373047,0.0,-0.20501494407653809,0.0,1603.0,7.55,0.008028514559173916,0.0,0.0,0.0,0.0,1500.0,377.0,1500.0,51.4594641,0.0,1417.0,10.599999,-243.0,0.0,0.0,1501.0,1568.0,0.0,0.000512053674487703,0.0,1490.0,0.0,15.0,1001.0,0.0,0.0,,,,,,,,,
3.400793,0.0,0.0,10.660397999999999,4.006510811066562e-05,-0.05305800926062762,-9.725078582763672,0.0,0.0,0.0,1.0,-2.7913272,1.391678810119629,5.0,0.0,0.0,-1.3522833756495815e-05,1.0,-75.0,5.0,-0.2681642770767212,0.0,0.057934533804655075,0.0,1603.0,7.55,0.008028514559173916,0.0,0.0,0.0,0.0,1500.0,376.0,1500.0,51.4594641,0.0,1417.0,10.699688,-243.0,0.0,0.0,1500.0,1568.0,0.0,-0.0005586309380462584,0.0,1491.0,0.0,15.0,1000.0,0.0,0.0,,,,,,,,,
3.5008049999999997,0.0,0.0,10.780116999999999,-2.9373391646648236e-05,-0.05305800926062762,-9.706854820251465,0.0,0.0,0.0,1.0,-2.7913272,1.3974660634994507,5.0,0.0,0.0,-4.488145806430689e-06,1.0,-76.0,5.0,-0.11345411092042923,0.0,-0.28488248586654663,0.0,1603.0,7.55,0.008028514559173916,0.0,0.0,0.0,0.0,1500.0,374.0,1500.0,51.4594641,0.0,1417.0,10.7997,-242.0,0.0,0.0,1500.0,1568.0,0.0,0.0003129115452599528,0.0,1491.0,0.0,15.0,1000.0,0.0,0.0,,,,,,,,,
3.600759,0.0,0.0,10.859689999999999,5.229573312084542e-05,-0.05305800926062762,-9.710094451904297,0.0,0.0,0.0,1.0,-2.7913235,1.3987396955490112,5.0,0.0,0.0,-7.357954742317409e-06,1.0,-75.0,5.0,-0.3300483226776123,0.0,0.011130783706903458,0.0,1602.0,7.99,0.008028514559173916,0.0,0.0,0.0,0.0,1500.0,376.0,1500.0,51.4594592,0.0,1418.0,10.899654,-242.0,0.0,0.0,1500.0,1568.0,0.0,-0.0003944702034578164,0.0,1491.0,0.0,15.0,1000.0,0.0,0.0,,,,,,,,,
3.7006639999999997,0.0,0.0,10.980107,-4.006721308723523e-05,-0.05305800926062762,-9.715714454650879,0.0,0.0,0.0,1.0,-2.7913235,1.3998868465423584,5.0,0.0,0.0,-9.054498807012867e-06,1.0,-75.0,5.0,-0.3197343051433563,0.0,-0.3040768802165985,0.0,1602.0,7.99,0.008028514559173916,0.0,0.0,0.0,0.0,1500.0,375.0,1500.0,51.4594592,0.0,1418.0,10.999559,-242.0,0.0,0.0,1500.0,1568.0,0.0,0.00020168963851634075,0.0,1491.0,0.0,15.0,1000.0,0.0,0.0,,,,,,,,,
3.800777,0.0,0.0,11.060089,2.9233219712686456e-05,-0.05305800926062762,-9.707124710083008,0.0,0.0,0.0,1.0,-2.7913182,1.3967558145523071,5.0,0.0,0.0,-9.78816035108801e-06,1.0,-75.0,5.0,-0.23206523060798645,0.0,-0.03804343566298485,0.0,1603.0,8.17,0.008028514559173916,0.0,0.0,0.0,0.0,1500.0,375.0,1500.0,51.459454799999996,0.0,1417.0,11.099672,-242.0,0.0,0.0,1500.0,1568.0,0.0,-0.0003072601951918718,0.0,1491.0,0.0,17.0,1000.0,0.0,0.0,,,,,,,,,
3.900836999999999,0.0,0.0,11.180111,4.899400524142007e-06,-0.05305800926062762,-9.727910995483398,0.0,0.0,0.0,1.0,-2.7913182,1.3850001096725464,5.0,0.0,0.0,-1.5902313188825494e-06,1.0,-75.0,5.0,-0.4022463858127594,0.0,-0.33147141337394714,0.0,1602.0,8.17,0.008028514559173916,0.0,0.0,0.0,0.0,1500.0,376.0,1500.0,51.459454799999996,0.0,1418.0,11.199732,-242.0,0.0,0.0,1500.0,1568.0,0.0,0.0001506307904405317,0.0,1491.0,0.0,17.0,1000.0,0.0,0.0,,,,,,,,,
4.000757,0.0,0.0,11.260057,2.4259852932949833e-05,-0.05305800926062762,-9.725468635559082,0.0,0.0,0.0,1.0,-2.7913151,1.3895621299743652,5.0,0.0,0.0,-1.4701221380752841e-05,1.0,-75.0,5.0,-0.28879228234291077,0.0,-0.036853283643722534,0.0,1602.0,8.22,0.008028514559173916,0.0,0.0,0.0,0.0,1500.0,376.0,1500.0,51.459451699999995,0.0,1418.0,11.299652,-243.0,0.0,0.0,1500.0,1568.0,0.0,-0.00020909462099532992,0.0,1491.0,0.0,18.0,1000.0,0.0,0.0,,,,,,,,,
4.100728999999999,0.0,0.0,11.380073999999999,1.027290028848385e-05,-0.05305800926062762,-9.705094337463379,0.0,0.0,0.0,1.0,-2.7913151,1.3912482261657715,5.0,0.0,0.0,-3.4617960072228333e-06,1.0,-76.0,5.0,-0.3197343051433563,0.0,-0.3008192777633667,0.0,1602.0,8.22,0.008028514559173916,0.0,0.0,0.0,0.0,1500.0,377.0,1500.0,51.459451699999995,0.0,1418.0,11.399624,-243.0,0.0,0.0,1500.0,1568.0,0.0,2.505413414493461e-05,0.0,1491.0,0.0,18.0,1000.0,0.0,0.0,,,,,,,,,
4.200794999999999,0.0,0.0,11.459919,3.214136065795364e-05,-0.05305800926062762,-9.72020149230957,0.0,0.0,0.0,1.0,-2.7913105,1.4011374711990356,5.0,0.0,0.0,-1.4223536975343469e-05,1.0,-76.0,5.0,-0.2578502595424652,0.0,-0.05972232669591904,0.0,1603.0,8.34,0.008028514559173916,0.0,0.0,0.0,0.0,1500.0,379.0,1500.0,51.4594477,0.0,1417.0,11.49969,-244.0,0.0,0.0,1501.0,1568.0,0.0,-0.00011440411116821526,0.0,1490.0,0.0,18.0,1001.0,0.0,0.0,,,,,,,,,
4.300796,0.0,0.0,11.580736,1.0193467900440975e-05,-0.05305800926062762,-9.716475486755371,0.0,0.0,0.0,1.0,-2.7913105,1.3950895071029663,5.0,0.0,0.0,-3.3783421183349723e-06,1.0,-76.0,5.0,-0.23206523060798645,0.0,-0.28811559081077576,0.0,1603.0,8.34,0.008028514559173916,0.0,0.0,0.0,0.0,1500.0,376.0,1500.0,51.4594477,0.0,1417.0,11.599691,-243.0,0.0,0.0,1500.0,1569.0,0.0,-4.2919017463635966e-05,0.0,1490.0,0.0,18.0,1000.0,0.0,0.0,,,,,,,,,
4.401223999999999,0.0,-0.0004272274090908468,11.660662,1.1925335341258739e-05,0.08901179185171082,-9.714437484741211,0.0,0.0,0.0,0.9974528551101685,-2.7913082,1.3737523555755615,5.0,0.0,0.0,-2.1940160625914537e-05,1.0,-78.0,5.0,-0.3300483226776123,0.0,-0.08227460831403732,0.0,1602.0,8.290000000000001,0.020071286397934793,0.0,0.0,0.0,0.0,1500.0,378.0,1500.0,51.4594458,0.0,1418.0,11.700118999999999,-244.0,0.0,0.0,1500.0,1568.0,0.0,-4.834199789222069e-05,0.005995569750666618,1491.0,0.0,18.0,1000.0,0.0,0.0710756853222847,,,,,,,,,
4.501263999999999,0.011747254990041256,-0.0004427134117577225,11.780738999999999,-1.5803749591192537e-05,0.08883725892651137,-9.719411849975586,0.0,0.000130432250443846,0.0,0.9974542260169983,-2.7913082,1.3827825784683228,5.0,0.0,0.0,-1.6637870938869354e-05,1.0,-76.0,5.0,-0.2784782648086548,0.0,-0.25398117303848267,0.0,1602.0,8.290000000000001,0.020420352248333655,0.0,0.0,0.0,-0.0039047293830662966,1500.0,376.0,1500.0,51.4594458,6.283010774254387,1418.0,11.800158999999999,-244.0,0.0,0.0,1500.0,1568.0,0.0004274287784937769,-0.0001070619610207306,0.006116355769336224,1491.0,0.0,18.0,1000.0,0.0,0.07104673981666565,,,,,,,,,
4.601265,0.030122991651296616,-0.00034418009454384446,11.860311,5.972307183264874e-06,0.08883725892651137,-9.709321975708008,0.0,-0.0004659005790017545,0.0,0.9974595308303833,-2.7913056999999997,1.3945685625076294,5.0,0.0,0.0,-1.271985935700806e-05,1.0,-75.0,5.0,-0.36614736914634705,0.0,-0.09329564869403839,0.0,1603.0,8.18,0.01937315469713706,0.0,0.0,0.0,-0.010666783899068832,1500.0,377.0,1500.0,51.459442599999996,0.0,1417.0,11.90016,-243.0,0.0,0.0,1500.0,1569.0,0.0019714748486876488,-3.3412901622738667e-06,0.005593548063188791,1490.0,0.0,18.0,1000.0,0.0,0.07101558893918991,,,,,,,,,
4.701449,0.058784306049346924,0.9745590090751648,11.980725999999999,1.046932040667812e-05,0.08901179185171082,-9.704864501953125,0.0,0.0017542896093800664,0.0,0.2124747335910797,-2.7913056999999997,1.3946940898895264,5.0,0.0,0.0,-1.29653187242331e-05,1.0,-76.0,5.0,-0.28879228234291077,0.0,-0.2537979483604431,0.0,1603.0,8.18,0.019547687622336492,0.0,0.0,0.0,-0.004329432267695665,1500.0,375.0,1500.0,51.459442599999996,2.712939789299986,1417.0,12.000344,-242.0,0.0,0.0,1500.0,1569.0,0.06296907365322113,-0.00013519329051780638,-0.06826774030923843,1490.0,0.0,18.0,1000.0,0.0,0.0207081101834774,,,,,,,,,
4.801446,0.07418449223041534,0.9746257662773132,12.061014,1.3405561570051228e-05,0.08901179185171082,-9.72747802734375,0.0,0.004890531301498413,0.0,0.21218417584896088,-2.7913053999999997,1.3899270296096802,5.0,0.0,0.0,-3.287204607806127e-06,1.0,-75.0,5.0,-0.24753624200820923,0.0,-0.10263285040855408,0.0,1602.0,7.930000000000001,0.01884955592153876,0.0,0.0,0.0,0.0056227738969028,1500.0,377.0,1500.0,51.459441399999996,2.713463388075584,1418.0,12.100341,-243.0,0.0,0.0,1500.0,1568.0,0.10904835164546967,2.358852998552746e-05,-0.06834278255701065,1491.0,0.0,18.0,1000.0,0.0,0.020296629518270493,,,,,,,,,
4.901247,0.09154392033815384,0.9747519493103027,12.180738,8.567451725896185e-06,0.08883725892651137,-9.716464042663574,0.0,0.009251454845070839,0.0,0.21162773668766022,-2.7913053999999997,1.4018573760986328,5.0,0.0,0.0,-7.359701100774534e-06,1.0,-75.0,5.0,-0.263007253408432,0.0,-0.2457217276096344,0.0,1602.0,7.930000000000001,0.01884955592153876,0.0,0.0,0.0,0.018572138622403145,1500.0,375.0,1500.0,51.459441399999996,2.71468511855198,1418.0,12.200142,-243.0,0.0,0.0,1500.0,1568.0,0.17181746661663055,-0.0001599756998205011,-0.0682748332619667,1491.0,0.0,18.0,1000.0,0.0,0.02027445286512375,,,,,,,,,
5.001241,0.10073376446962357,0.9748580455780029,12.261038,-1.0267467681241571e-06,0.08866272600131195,-9.715038299560547,0.0,0.012019759975373745,0.0,0.21117717027664185,-2.7913056999999997,1.3909351825714111,5.0,0.0,0.0,-3.394898490514012e-06,1.0,-75.0,5.0,-0.3197343051433563,0.0,-0.10938390344381332,0.0,1603.0,7.8500000000000005,0.01780235837034216,0.0,0.0,0.0,0.02802557311952114,1500.0,377.0,1500.0,51.4594416,2.7155577831779776,1417.0,12.300136,-244.0,0.0,0.0,1500.0,1569.0,0.2079073041677475,8.773440750610329e-06,-0.0683261975646019,1490.0,0.0,18.0,1000.0,0.0,0.019686853513121605,,,,,,,,,
5.101488,0.1112564355134964,0.975009024143219,12.380761999999999,2.2004461970990326e-05,0.08848819307611251,-9.696338653564453,0.0,0.01584623008966446,0.0,0.21050848066806793,-2.7913056999999997,1.3824656009674072,5.0,0.0,0.0,-1.8220699282721613e-06,1.0,-76.0,5.0,-0.252693235874176,0.0,-0.2268521785736084,0.0,1603.0,7.8500000000000005,0.017627825445142728,0.0,0.0,0.0,0.04091880843043327,1500.0,374.0,1500.0,51.4594416,2.716954046579573,1417.0,12.400383,-242.0,0.0,0.0,1500.0,1568.0,0.2559463679790497,-0.00015784231013086047,-0.06827729940414429,1491.0,0.0,18.0,1000.0,0.0,0.019540976732969284,,,,,,,,,
5.201231,0.11650311946868896,0.9751163721084595,12.460552999999999,1.9783164365663907e-06,0.08848819307611251,-9.724128723144531,0.0,0.018231550231575966,0.0,0.2100396752357483,-2.7913058,1.398629069328308,5.0,0.0,0.0,-1.3960666597165652e-06,1.0,-76.0,5.0,-0.28879228234291077,0.0,-0.12979623675346375,0.0,1602.0,7.73,0.016580627893946133,0.0,0.0,0.0,0.04900282248854637,1500.0,376.0,1500.0,51.459441399999996,2.71782671120557,1418.0,12.500126,-243.0,0.0,0.0,1500.0,1568.0,0.283405601978302,3.7943068227123304e-05,-0.06832334399223328,1491.0,0.0,18.0,1000.0,0.0,0.019064918160438538,,,,,,,,,
5.301432,0.12123376131057739,0.9752506613731384,12.581355,1.1573419222222362e-05,0.08831366015091309,-9.710282325744629,0.0,0.022132856771349907,0.0,0.20944003760814667,-2.7913058,1.4000859260559082,5.0,0.0,0.0,1.7804190504887761e-06,1.0,-76.0,5.0,-0.23722222447395325,0.0,-0.20206429064273834,0.0,1603.0,7.73,0.016580627893946133,0.0,0.0,0.0,0.062339235097169876,1500.0,375.0,1500.0,51.459441399999996,2.719048441681966,1417.0,12.600327,-243.0,0.0,0.0,1501.0,1568.0,0.3176131546497345,-0.00018574077557900756,-0.06827335804700851,1490.0,0.0,18.0,1001.0,0.0,0.018969882279634476,,,,,,,,,
5.401259,0.12330950051546097,0.9753378033638,12.660672,-1.212060747512692e-05,0.08831366015091309,-9.708894729614258,0.0,0.023861205205321312,0.0,0.20905138552188873,-2.7913063,1.3870288133621216,5.0,0.0,0.0,-1.019506695117484e-05,1.0,-75.0,5.0,-0.15471014380455017,0.0,-0.15119381248950958,0.0,1603.0,7.62,0.0158824961931484,0.0,0.0,0.0,0.06853025406599045,1500.0,377.0,1500.0,51.459441399999996,2.719746573382764,1417.0,12.700154,-244.0,0.0,0.0,1500.0,1568.0,0.33605679869651794,5.467147957228464e-05,-0.06833360344171524,1491.0,0.0,18.0,1000.0,0.0,0.018557347357273102,,,,,,,,,
5.501403999999999,0.1244131475687027,0.9754155278205872,12.78075,2.9541452488326712e-05,0.08813912722571364,-9.698808670043945,0.0,0.027360493317246437,0.0,0.2087024748325348,-2.7913063,1.398216724395752,5.0,0.0,0.0,-7.81993665238498e-06,1.0,-75.0,5.0,-0.28363528847694397,0.0,-0.1956840604543686,0.0,1602.0,7.62,0.0158824961931484,0.0,0.0,0.0,0.0802905336022377,1500.0,375.0,1500.0,51.459441399999996,2.7204447050835614,1418.0,12.800298999999999,-242.0,0.0,0.0,1500.0,1568.0,0.35567986965179443,-0.00017744419329464103,-0.068292036652565,1491.0,0.0,18.0,1000.0,0.0,0.01854660175740719,,,,,,,,,
5.601239999999999,0.12424445152282715,0.9754706025123596,12.860650999999999,3.194861967713719e-07,0.08813912722571364,-9.716726303100586,0.0,0.02818274311721325,0.0,0.20845703780651093,-2.7913068,1.3855727910995483,5.0,0.0,0.0,-4.54828443843023e-06,1.0,-75.0,5.0,-0.37130436301231384,0.0,-0.15170682966709137,0.0,1603.0,7.5600000000000005,0.015184364492350668,0.0,0.0,0.0,0.08539475500583649,1500.0,376.0,1501.0,51.459441299999995,2.7209683038591597,1417.0,12.900134999999999,-241.0,0.0,0.0,1500.0,1568.0,0.3652888238430023,7.363538009803545e-05,-0.06834203749895096,1490.0,0.0,18.0,1001.0,0.0,0.018225649371743202,,,,,,,,,
5.701485,0.1233285665512085,0.9755280017852783,12.980901999999999,1.8850142390442462e-05,0.08813912722571364,-9.715132713317871,0.0,0.03162982314825058,0.0,0.20819391310214996,-2.7913068,1.4010716676712036,5.0,0.0,0.0,4.270589569737006e-06,1.0,-75.0,5.0,-0.36099034547805786,0.0,-0.17740866541862488,0.0,1603.0,7.5600000000000005,0.015533430342749533,0.0,0.0,0.0,0.09568218886852264,1500.0,374.0,1500.0,51.459441299999995,2.7214919026347584,1417.0,13.00038,-242.0,0.0,0.0,1500.0,1569.0,0.3795683681964874,-0.00020447326278292497,-0.06830386817455292,1490.0,0.0,18.0,1000.0,0.0,0.0183082465082407,,,,,,,,,
5.801411,0.12308021634817123,0.9755755066871643,13.061072,5.335599518977829e-06,0.0879645943005142,-9.710719108581543,0.0,0.03177252784371376,0.0,0.20798029005527496,-2.7913074,1.3940984010696411,5.0,0.0,0.0,-6.7789551325961216e-06,1.0,-76.0,5.0,-0.15986715257167816,0.0,-0.1544780433177948,0.0,1602.0,7.55,0.015009831567151233,0.0,0.0,0.0,0.09913592040538788,1500.0,375.0,1500.0,51.4594421,2.721840968485157,1418.0,13.100306,-242.0,0.0,0.0,1500.0,1568.0,0.38956812024116516,6.219664077148562e-05,-0.06833906471729279,1491.0,0.0,17.0,1000.0,0.0,0.01806584745645523,,,,,,,,,
5.901460999999999,0.12153856456279755,0.9756178855895996,13.180736,2.2131914644985146e-05,0.0879645943005142,-9.71174430847168,0.0,0.03346540778875351,0.0,0.20778486132621765,-2.7913074,1.3930156230926514,5.0,0.0,0.0,-3.819147019310987e-06,1.0,-76.0,5.0,-0.24237923324108124,0.0,-0.1858873963356018,0.0,1602.0,7.55,0.015184364492350668,0.0,0.0,0.0,0.10612541437149048,1500.0,374.0,1500.0,51.4594421,2.722364567260755,1418.0,13.200356,-242.0,0.0,0.0,1500.0,1568.0,0.4006122350692749,-0.00018225035056974807,-0.06830337643623352,1491.0,0.0,17.0,1000.0,0.0,0.018166091293096542,,,,,,,,,
6.001246,0.1189136952161789,0.9756541848182678,13.260964999999999,-1.2640374141367879e-05,0.0879645943005142,-9.705945014953613,0.0,0.03350077196955681,0.0,0.20761989057064056,-2.7913079,1.4005944728851318,5.0,0.0,0.0,9.473106973882001e-07,1.0,-75.0,5.0,-0.4744444489479065,0.0,-0.1796538084745407,0.0,1602.0,7.57,0.014835298641951801,0.0,0.0,0.0,0.10743200778961182,1500.0,376.0,1500.0,51.459442599999996,2.722713633111154,1418.0,13.300141,-241.0,0.0,0.0,1500.0,1568.0,0.4046902060508728,3.122435484193301e-05,-0.06833047419786453,1491.0,0.0,17.0,1000.0,0.0,0.01800093799829483,,,,,,,,,
6.101452999999999,0.1160375252366066,0.9756813645362854,13.380744,2.0114828974476927e-05,0.0879645943005142,-9.716821670532227,0.0,0.034985076636075974,0.0,0.20749221742153168,-2.7913079,1.402786374092102,5.0,0.0,0.0,-1.4235657861179396e-05,1.0,-76.0,5.0,-0.4125604033470154,0.0,-0.16312769055366516,0.0,1602.0,7.57,0.015184364492350668,0.0,0.0,0.0,0.11256485432386398,1500.0,374.0,1500.0,51.459442599999996,2.7228881660363533,1418.0,13.400348,-243.0,0.0,0.0,1500.0,1568.0,0.4124113619327545,-0.00016085340190412543,-0.06830182671546936,1491.0,0.0,17.0,1000.0,0.0,0.018107840791344643,,,,,,,,,
6.201212999999999,0.11485670506954193,0.9757049679756165,13.460547,-1.1670289796953168e-05,0.0879645943005142,-9.71037483215332,0.0,0.034354109317064285,0.0,0.2073851376771927,-2.7913083,1.402820110321045,5.0,0.0,0.0,6.780392144834402e-06,1.0,-75.0,5.0,-0.2578502595424652,0.0,-0.1772182285785675,0.0,1602.0,7.54,0.015009831567151233,0.0,0.0,0.0,0.11222583800554276,1500.0,375.0,1500.0,51.459442499999994,2.723062698961553,1418.0,13.500107999999999,-243.0,0.0,0.0,1500.0,1568.0,0.419968843460083,2.1930019759062284e-05,-0.06830843538045883,1491.0,0.0,18.0,1000.0,0.0,0.018036579713225365,,,,,,,,,
6.301551,0.11265066266059875,0.9757190942764282,13.581335999999999,2.506806843963963e-05,0.0879645943005142,-9.704346656799316,0.0,0.035293448716402054,0.0,0.2073083221912384,-2.7913083,1.3906927108764648,5.0,0.0,0.0,-7.200491421433289e-06,1.0,-76.0,5.0,-0.4125604033470154,0.0,-0.16349424421787262,0.0,1602.0,7.54,0.015184364492350668,0.0,0.0,0.0,0.11501672118902206,1500.0,376.0,1500.0,51.459442499999994,2.7232372318867526,1418.0,13.600446,-242.0,0.0,0.0,1500.0,1568.0,0.42953601479530334,-0.00016850792569814694,-0.06830913573503494,1491.0,0.0,18.0,1000.0,0.0,0.01815253682434559,,,,,,,,,
6.401256999999999,0.11072780191898346,0.9757291674613953,13.661024,7.666067639948395e-06,0.0879645943005142,-9.71865177154541,0.0,0.03482803329825401,0.0,0.20725832879543304,-2.7913088,1.387289047241211,5.0,0.0,0.0,-4.310168615188512e-06,1.0,-75.0,5.0,-0.29394927620887756,0.0,-0.18335071206092834,0.0,1602.0,7.5,0.015184364492350668,0.0,0.0,0.0,0.11332865804433823,1500.0,377.0,1500.0,51.4594428,2.7234117648119516,1418.0,13.700152,-243.0,0.0,0.0,1500.0,1568.0,0.43507832288742065,2.8527607590950595e-05,-0.06832193583250046,1491.0,0.0,18.0,1000.0,0.0,0.01813390478491783,,,,,,,,,
6.501578,0.10810387879610062,0.975740373134613,13.780790999999999,1.2774408930804066e-05,0.0879645943005142,-9.718512535095215,0.0,0.035293690860271454,0.0,0.20720171928405762,-2.7913088,1.38993501663208,5.0,0.0,0.0,-2.0895864682352337e-05,1.0,-75.0,5.0,-0.3145773112773895,0.0,-0.16819259524345398,0.0,1602.0,7.5,0.015533430342749533,0.0,0.0,0.0,0.11482477188110352,1500.0,375.0,1500.0,51.4594428,2.7235862977371514,1418.0,13.800473,-244.0,0.0,0.0,1500.0,1568.0,0.44244229793548584,-0.00013409747547588597,-0.06830303370952606,1491.0,0.0,18.0,1000.0,0.0,0.01824907585978508,,,,,,,,,
6.601371,0.10557477176189423,0.9757490158081055,13.860638,4.3265578692953025e-06,0.0879645943005142,-9.718830108642578,0.0,0.034529462456703186,0.0,0.207161545753479,-2.7913091,1.3933378458023071,5.0,0.0,0.0,-2.1764558644720504e-06,1.0,-75.0,5.0,-0.4847584664821625,0.0,-0.19233331084251404,0.0,1603.0,7.48,0.015533430342749533,0.0,0.0,0.0,0.11314667016267776,1500.0,376.0,1500.0,51.4594427,2.7235862977371514,1417.0,13.900266,-243.0,0.0,0.0,1500.0,1569.0,0.4455980062484741,-1.6863266994186445e-05,-0.0682925134897232,1490.0,0.0,18.0,1000.0,0.0,0.01827700436115265,,,,,,,,,
6.701490999999999,0.10233646631240845,0.9757640361785889,13.980753,9.66338359807985e-06,0.0879645943005142,-9.71330738067627,0.0,0.03441118076443672,0.0,0.20708796381950378,-2.7913091,1.4019731283187866,5.0,0.0,0.0,-1.1704925398395152e-05,1.0,-75.0,5.0,-0.4538164436817169,0.0,-0.14547830820083618,0.0,1603.0,7.48,0.015707963267948967,0.0,0.0,0.0,0.11362667381763458,1500.0,378.0,1500.0,51.4594427,2.723760830662351,1417.0,14.000385999999999,-243.0,0.0,0.0,1500.0,1568.0,0.4517836570739746,-0.00010349999931739494,-0.0682889074087143,1491.0,0.0,18.0,1000.0,0.0,0.018326856195926666,,,,,,,,,
6.8011859999999995,0.10113666951656342,0.97577303647995,14.061036,-5.9951581668460935e-06,0.0879645943005142,-9.722356796264648,0.0,0.033360134810209274,0.0,0.20704244077205658,-2.7913098,1.3976894617080688,5.0,0.0,0.0,-1.4447634690865208e-05,1.0,-75.0,5.0,-0.3455193340778351,0.0,-0.1914832592010498,0.0,1603.0,7.45,0.015707963267948967,0.0,0.0,0.0,0.11129795014858246,1501.0,376.0,1500.0,51.4594429,2.72393536358755,1417.0,14.100081,-242.0,0.0,0.0,1500.0,1568.0,0.4579216241836548,-1.879853998702698e-05,-0.06828449666500092,1490.0,0.0,18.0,1000.0,0.0,0.018377872183918953,,,,,,,,,
6.901474,0.09895181655883789,0.9757912158966064,14.180762,1.8567919079153177e-05,0.0879645943005142,-9.710531234741211,0.0,0.03331403434276581,0.0,0.2069561630487442,-2.7913098,1.3883578777313232,5.0,0.0,0.0,-5.95920593913277e-06,1.0,-75.0,5.0,-0.43318843841552734,0.0,-0.1570221483707428,0.0,1603.0,7.45,0.0158824961931484,0.0,0.0,0.0,0.11101564019918442,1500.0,374.0,1500.0,51.4594429,2.7241098965127497,1417.0,14.200369,-243.0,0.0,0.0,1501.0,1568.0,0.4663766324520111,-0.00010141117173791333,-0.06827979534864426,1490.0,0.0,18.0,1001.0,0.0,0.01840320974588394,,,,,,,,,
7.001265,0.097394198179245,0.9758037328720093,14.260973,1.953079753611216e-05,0.0879645943005142,-9.705985069274902,0.0,0.032830458134412766,0.0,0.20689593255519867,-2.7913106,1.3860974311828613,5.0,0.0,0.0,-1.829130158867041e-05,1.0,-76.0,5.0,-0.43318843841552734,0.0,-0.19484907388687134,0.0,1603.0,7.45,0.0158824961931484,0.0,0.0,0.0,0.10911215096712112,1500.0,376.0,1500.0,51.4594433,2.724284429437949,1417.0,14.30016,-244.0,0.0,0.0,1500.0,1568.0,0.47126781940460205,-4.2648044398742375e-05,-0.06826779991388321,1491.0,0.0,18.0,1000.0,0.0,0.018459012731909752,,,,,,,,,
7.101433999999999,0.09520520269870758,0.9758282899856567,14.380894999999999,1.1840439360555933e-05,0.0879645943005142,-9.70963191986084,0.0,0.03340349718928337,0.0,0.2067827582359314,-2.7913106,1.3848000764846802,5.0,0.0,0.0,3.765852862887518e-06,1.0,-76.0,5.0,-0.263007253408432,0.0,-0.1542447954416275,0.0,1602.0,7.45,0.0158824961931484,0.0,0.0,0.0,0.10826527327299118,1500.0,375.0,1500.0,51.4594433,2.724458962363148,1418.0,14.400329,-243.0,0.0,0.0,1500.0,1568.0,0.4790540039539337,-7.621723545219808e-05,-0.06826473772525787,1491.0,0.0,18.0,1000.0,0.0,0.018439754843711853,,,,,,,,,
7.201312,0.09312047064304352,0.975843608379364,14.460521,1.8028807353144575e-05,0.0879645943005142,-9.713960647583008,0.0,0.033251140266656876,0.0,0.20670562982559204,-2.7913112,1.3972039222717285,5.0,0.0,0.0,-1.655615782090429e-05,1.0,-76.0,5.0,-0.43318843841552734,0.0,-0.19240379333496094,0.0,1602.0,7.44,0.016057029118347832,0.0,0.0,0.0,0.10686299204826355,1500.0,375.0,1500.0,51.4594434,2.724633495288348,1418.0,14.500207,-242.0,0.0,0.0,1500.0,1568.0,0.48199063539505005,-5.950998765525015e-05,-0.06826268881559372,1491.0,0.0,18.0,1000.0,0.0,0.018504785373806953,,,,,,,,,
7.301788,0.08880183845758438,0.9758661985397339,14.5815,-2.2166579200014113e-06,0.0879645943005142,-9.722354888916016,0.0,0.032836563885211945,0.0,0.20660488307476044,-2.7913118999999997,1.3846750259399414,5.0,0.0,0.0,-4.996786167946556e-06,1.0,-75.0,5.0,-0.4486594498157501,0.0,-0.1585051566362381,0.0,1602.0,7.43,0.016057029118347832,0.0,0.0,0.0,0.10616042464971542,1500.0,375.0,1500.0,51.459443699999994,2.7248080282135474,1418.0,14.600683,-243.0,0.0,0.0,1500.0,1568.0,0.4842722713947296,-8.905387021305297e-05,-0.06825777143239975,1491.0,0.0,18.0,1000.0,0.0,0.01845042034983635,,,,,,,,,
7.401209999999999,0.08632481843233109,0.9758721590042114,14.660582,6.05114627675338e-06,0.0879645943005142,-9.718826293945312,0.0,0.032771285623311996,0.0,0.20657113194465637,-2.7913118999999997,1.398973822593689,5.0,0.0,0.0,-1.372969342065019e-05,1.0,-76.0,5.0,-0.505386471748352,0.0,-0.18086639046669006,0.0,1602.0,7.43,0.016057029118347832,0.0,0.0,0.0,0.10551494359970093,1500.0,375.0,1500.0,51.459443699999994,2.7248080282135474,1418.0,14.700104999999999,-244.0,0.0,0.0,1500.0,1568.0,0.486721396446228,-7.635416458441749e-05,-0.06827361136674881,1491.0,0.0,18.0,1000.0,0.0,0.018454909324645996,,,,,,,,,
7.501424999999999,0.08339003473520279,0.9758902788162231,14.780736,3.0678404862829745e-07,0.0879645943005142,-9.714122772216797,0.0,0.03243451938033104,0.0,0.20648956298828125,-2.7913118999999997,1.3849120140075684,5.0,0.0,0.0,-5.828063460649132e-06,1.0,-76.0,5.0,-0.4125604033470154,0.0,-0.1760975569486618,0.0,1602.0,7.43,0.0158824961931484,0.0,0.0,0.0,0.10516687482595444,1500.0,373.0,1500.0,51.459443699999994,2.724982561138747,1418.0,14.80032,-243.0,0.0,0.0,1500.0,1568.0,0.4924415051937103,-6.0826089714278856e-05,-0.06827781349420547,1491.0,0.0,18.0,1000.0,0.0,0.018396710976958275,,,,,,,,,
7.601208,0.0816471204161644,0.9758993983268738,14.860529999999999,1.3761765613728623e-06,0.0879645943005142,-9.712468147277832,0.0,0.03237353637814522,0.0,0.20644927024841309,-2.7913124,1.3921470642089844,5.0,0.0,0.0,7.852435656892618e-07,1.0,-75.0,5.0,-0.3816183805465698,0.0,-0.1748274862766266,0.0,1602.0,7.4,0.0158824961931484,0.0,0.0,0.0,0.10517860949039459,1500.0,377.0,1500.0,51.4594439,2.7251570940639462,1418.0,14.900103,-243.0,0.0,0.0,1500.0,1568.0,0.4964848458766937,-6.744626540767718e-05,-0.0682636946439743,1491.0,0.0,18.0,1000.0,0.0,0.018418041989207268,,,,,,,,,
7.701494,0.0788244754076004,0.9759090542793274,14.980941,1.3515128038696341e-05,0.0879645943005142,-9.720638275146484,0.0,0.03279665857553482,0.0,0.20640479028224945,-2.7913124,1.3804206848144531,5.0,0.0,0.0,-1.79982790973932e-05,1.0,-75.0,5.0,-0.3300483226776123,0.0,-0.17055350542068481,0.0,1602.0,7.4,0.0158824961931484,0.0,0.0,0.0,0.10567156225442886,1500.0,376.0,1500.0,51.4594439,2.7251570940639462,1418.0,15.000389,-244.0,0.0,0.0,1500.0,1568.0,0.5004745721817017,-5.0935593163969446e-05,-0.06826937943696976,1491.0,0.0,18.0,1000.0,0.0,0.018383335322141647,,,,,,,,,
7.801242,0.0762007087469101,0.9759156107902527,15.06101,-2.3151890083437194e-06,0.0879645943005142,-9.719383239746094,0.0,0.03354976698756218,0.0,0.20637565851211548,-2.7913129,1.392031192779541,5.0,0.0,0.0,2.095757645924476e-06,1.0,-75.0,5.0,-0.4796014726161957,0.0,-0.17425522208213806,0.0,1603.0,7.33,0.0158824961931484,0.0,0.0,0.0,0.10656458139419556,1500.0,375.0,1501.0,51.4594439,2.7253316269891457,1417.0,15.100137,-244.0,0.0,0.0,1500.0,1569.0,0.5010787844657898,-8.036173113469792e-05,-0.06826762109994888,1490.0,0.0,18.0,1000.0,0.0,0.018368985503911972,,,,,,,,,
7.901434999999999,0.07200321555137634,0.9759223461151123,15.18086,1.3812560618433345e-05,0.0879645943005142,-9.714544296264648,0.0,0.03458763659000397,0.0,0.20634247362613678,-2.7913129,1.381852388381958,5.0,0.0,0.0,-3.876779134205616e-06,1.0,-75.0,5.0,-0.4641304612159729,0.0,-0.18010258674621582,0.0,1603.0,7.33,0.015707963267948967,0.0,0.0,0.0,0.10751274228096008,1500.0,375.0,1500.0,51.4594439,2.7253316269891457,1417.0,15.20033,-244.0,0.0,0.0,1500.0,1569.0,0.5014837384223938,-6.216871122715561e-05,-0.06829226762056351,1490.0,0.0,18.0,1000.0,0.0,0.01829340308904648,,,,,,,,,
8.001543,0.06974813342094421,0.9759278297424316,15.260952,6.464352567819054e-06,0.0879645943005142,-9.715614318847656,0.0,0.0351172611117363,0.0,0.20631538331508636,-2.7913134,1.3848286867141724,5.0,0.0,0.0,6.644367685218876e-06,1.0,-75.0,5.0,-0.42287442088127136,0.0,-0.17963583767414093,0.0,1602.0,7.3100000000000005,0.015707963267948967,0.0,0.0,0.0,0.10822422057390213,1500.0,377.0,1500.0,51.4594439,2.7253316269891457,1418.0,15.300438,-243.0,0.0,0.0,1500.0,1568.0,0.5029035806655884,-6.878974841675618e-05,-0.06829967349767685,1491.0,0.0,18.0,1000.0,0.0,0.018279150128364563,,,,,,,,,
8.101455,0.06659939140081406,0.9759408235549927,15.380751,8.281779382051958e-06,0.08813912722571364,-9.710987091064453,0.0,0.036149654537439346,0.0,0.20624709129333496,-2.7913134,1.3821626901626587,5.0,0.0,0.0,-4.4779358573358036e-06,1.0,-75.0,5.0,-0.4125604033470154,0.0,-0.18186286091804504,0.0,1603.0,7.3100000000000005,0.015533430342749533,0.0,0.0,0.0,0.11022654920816422,1501.0,376.0,1500.0,51.4594439,2.725506159914345,1417.0,15.40035,-243.0,0.0,0.0,1500.0,1568.0,0.50502610206604,-5.347417052495376e-05,-0.06833817809820175,1490.0,0.0,18.0,1000.0,0.0,0.018208984285593033,,,,,,,,,
8.201191999999999,0.0649704858660698,0.9759519100189209,15.460541,1.0355062441026025e-05,0.08813912722571364,-9.722414016723633,0.0,0.0368737131357193,0.0,0.20619633793830872,-2.7913139,1.392504334449768,5.0,0.0,0.0,-1.346273525315192e-05,1.0,-76.0,5.0,-0.5363285541534424,0.0,-0.18108154833316803,0.0,1603.0,7.28,0.015533430342749533,0.0,0.0,0.0,0.11143510043621063,1500.0,374.0,1500.0,51.459444,2.725680692839545,1417.0,15.500086999999999,-243.0,0.0,0.0,1500.0,1569.0,0.5057891607284546,-7.26710326275052e-05,-0.0683404877781868,1490.0,0.0,18.0,1000.0,0.0,0.018183518201112747,,,,,,,,,
8.30147,0.06204603239893913,0.9759748578071594,15.581361,1.3695288431988758e-05,0.0879645943005142,-9.712182998657227,0.0,0.037568628787994385,0.0,0.2060958296060562,-2.7913139,1.3995873928070068,5.0,0.0,0.0,-1.5152271533881558e-05,1.0,-75.0,5.0,-0.3816183805465698,0.0,-0.18861143290996552,0.0,1603.0,7.28,0.0153588974175501,0.0,0.0,0.0,0.11349053680896759,1500.0,377.0,1500.0,51.459444,2.725855225764744,1417.0,15.600365,-244.0,0.0,0.0,1500.0,1568.0,0.5082398056983948,-6.7135887018854e-05,-0.06833868473768234,1491.0,0.0,18.0,1000.0,0.0,0.01809651218354702,,,,,,,,,
8.40137,0.060034267604351044,0.9759902358055115,15.661016,-7.495109661719535e-07,0.0879645943005142,-9.707561492919922,0.0,0.038179829716682434,0.0,0.20602843165397644,-2.7913143,1.3811556100845337,5.0,0.0,0.0,-1.111670838885915e-05,1.0,-75.0,5.0,-0.43834543228149414,0.0,-0.17718666791915894,0.0,1602.0,7.28,0.015184364492350668,0.0,0.0,0.0,0.1154676303267479,1500.0,375.0,1500.0,51.459444,2.725855225764744,1418.0,15.700265,-244.0,0.0,0.0,1500.0,1568.0,0.5097708106040955,-5.5946684943675165e-05,-0.06833470612764359,1491.0,0.0,18.0,1000.0,0.0,0.018049126490950584,,,,,,,,,
8.501581,0.0569290854036808,0.976007878780365,15.780717,1.1563538429695312e-05,0.0879645943005142,-9.709718704223633,0.0,0.03936943784356117,0.0,0.20594336092472076,-2.7913148,1.3919028043746948,5.0,0.0,0.0,-5.274922451851892e-06,1.0,-75.0,5.0,-0.3816183805465698,0.0,-0.18645040690898895,0.0,1602.0,7.26,0.015184364492350668,0.0,0.0,0.0,0.11799930781126022,1500.0,376.0,1500.0,51.4594439,2.7260297586899433,1418.0,15.800476,-244.0,0.0,0.0,1500.0,1568.0,0.510460615158081,-4.9935765866355634e-05,-0.06834873557090759,1491.0,0.0,18.0,1000.0,0.0,0.018012702465057373,,,,,,,,,
8.601234999999999,0.054998401552438736,0.9760206937789917,15.860564,4.092782798291911e-06,0.0879645943005142,-9.715307235717773,0.0,0.040312621742486954,0.0,0.20588546991348267,-2.7913148,1.3887368440628052,5.0,0.0,0.0,1.7333610903358495e-06,1.0,-75.0,5.0,-0.4486594498157501,0.0,-0.1796870231628418,0.0,1603.0,7.26,0.015184364492350668,0.0,0.0,0.0,0.11995260417461395,1500.0,376.0,1500.0,51.4594439,2.726204291615143,1417.0,15.900129999999999,-243.0,0.0,0.0,1500.0,1568.0,0.5100199580192566,-7.26938704041871e-05,-0.06835012137889862,1491.0,0.0,18.0,1000.0,0.0,0.017972957342863083,,,,,,,,,
8.701648999999998,0.05086394026875496,0.976040780544281,15.980766,1.8919726495248939e-06,0.0879645943005142,-9.724327087402344,0.0,0.040640003979206085,0.0,0.2057889848947525,-2.7913148,1.3951783180236816,5.0,0.0,0.0,-1.514139920798967e-05,1.0,-75.0,5.0,-0.49507248401641846,0.0,-0.19222919642925262,0.0,1602.0,7.26,0.015009831567151233,0.0,0.0,0.0,0.12247484922409058,1500.0,376.0,1500.0,51.4594439,2.726378824540342,1418.0,16.000543999999998,-243.0,0.0,0.0,1500.0,1568.0,0.5086979866027832,-8.223372987286416e-05,-0.0683654174208641,1491.0,0.0,18.0,1000.0,0.0,0.017929859459400177,,,,,,,,,
8.801260000000001,0.048697978258132935,0.9760528206825256,16.061056999999998,-2.748809356086e-06,0.0879645943005142,-9.713740348815918,0.0,0.041253477334976196,0.0,0.2057342231273651,-2.7913154,1.3948571681976318,5.0,0.0,0.0,-2.5098566725888686e-06,1.0,-75.0,5.0,-0.4022463858127594,0.0,-0.17900057137012482,0.0,1602.0,7.23,0.015009831567151233,0.0,0.0,0.0,0.12408857047557831,1500.0,377.0,1500.0,51.4594439,2.7265533574655416,1418.0,16.100155,-243.0,0.0,0.0,1500.0,1568.0,0.5085956454277039,-6.826504033833636e-05,-0.06836986541748047,1491.0,0.0,18.0,1000.0,0.0,0.01788581907749176,,,,,,,,,
8.901438,0.04540734365582466,0.9760724902153015,16.180898,5.051171163458645e-06,0.0879645943005142,-9.716537475585938,0.0,0.04160129278898239,0.0,0.2056446224451065,-2.7913154,1.401857614517212,5.0,0.0,0.0,-5.011094827451721e-06,1.0,-75.0,5.0,-0.42803141474723816,0.0,-0.18245521187782288,0.0,1602.0,7.23,0.015009831567151233,0.0,0.0,0.0,0.1262676864862442,1500.0,375.0,1500.0,51.4594439,2.726727890390741,1418.0,16.200333,-243.0,0.0,0.0,1500.0,1568.0,0.5082659125328064,-9.011658266976862e-05,-0.06835906952619553,1491.0,0.0,18.0,1000.0,0.0,0.017884928733110428,,,,,,,,,
9.001237999999999,0.04278060793876648,0.9760859608650208,16.26097,9.221271468049324e-06,0.0879645943005142,-9.709115028381348,0.0,0.0416724793612957,0.0,0.20558348298072815,-2.7913159999999997,1.3927016258239746,5.0,0.0,0.0,-7.210167507020775e-06,1.0,-75.0,5.0,-0.5982125997543335,0.0,-0.17637509107589722,0.0,1603.0,7.18,0.015009831567151233,0.0,0.0,0.0,0.1269039660692215,1500.0,377.0,1500.0,51.459443799999995,2.7269024233159405,1417.0,16.300133,-244.0,0.0,0.0,1501.0,1568.0,0.5072683691978455,-5.4328315563840547e-05,-0.06835196912288666,1490.0,0.0,18.0,1000.0,0.0,0.01787649095058441,,,,,,,,,
9.101439999999998,0.04041111469268799,0.9761081337928772,16.38071,6.703166832852088e-06,0.0879645943005142,-9.706947326660156,0.0,0.042303916066884995,0.0,0.205479234457016,-2.7913159999999997,1.3971205949783325,5.0,0.0,0.0,-1.640113422069195e-05,1.0,-76.0,5.0,-0.4847584664821625,0.0,-0.17524217069149017,0.0,1603.0,7.18,0.015184364492350668,0.0,0.0,0.0,0.127822145819664,1500.0,375.0,1501.0,51.459443799999995,2.72707695624114,1417.0,16.400335,-244.0,0.0,0.0,1500.0,1569.0,0.5081687569618225,-9.617662328526088e-05,-0.0683310329914093,1490.0,0.0,18.0,1000.0,0.0,0.017944639548659325,,,,,,,,,
9.201215,0.039188023656606674,0.9761221408843994,16.460549,1.3726253531333247e-05,0.0879645943005142,-9.712857246398926,0.0,0.04183347895741463,0.0,0.2054136097431183,-2.7913167,1.395754098892212,5.0,0.0,0.0,-6.93782448030087e-06,1.0,-75.0,5.0,-0.44350242614746094,0.0,-0.18690671026706696,0.0,1602.0,7.09,0.015184364492350668,0.0,0.0,0.0,0.12707455456256866,1500.0,376.0,1500.0,51.459443799999995,2.7272514891663393,1418.0,16.50011,-243.0,0.0,0.0,1500.0,1568.0,0.5102173686027527,-4.807632384170311e-05,-0.06831438094377518,1491.0,0.0,18.0,1000.0,0.0,0.017998000606894493,,,,,,,,,
9.301473,0.03728236258029938,0.976140022277832,16.581378,1.5101414812320367e-05,0.0879645943005142,-9.711928367614746,0.0,0.04143710434436798,0.0,0.2053217887878418,-2.7913167,1.3958383798599243,5.0,0.0,0.0,-1.503426890431267e-05,1.0,-75.0,5.0,-0.4796014726161957,0.0,-0.16216668486595154,0.0,1602.0,7.09,0.015533430342749533,0.0,0.0,0.0,0.12633246183395386,1500.0,378.0,1500.0,51.459443799999995,2.727426022091539,1418.0,16.600368,-244.0,0.0,0.0,1500.0,1568.0,0.5123050212860107,-8.879972883339362e-05,-0.06828862428665161,1491.0,0.0,18.0,1000.0,0.0,0.01817372441291809,,,,,,,,,
9.401234999999998,0.03604135289788246,0.9761520028114319,16.661008,8.16546723559689e-06,0.0879645943005142,-9.727667808532715,0.0,0.04075823351740837,0.0,0.20525923371315002,-2.7913172,1.3916064500808716,5.0,0.0,0.0,-1.3235756401746291e-05,1.0,-75.0,5.0,-0.4486594498157501,0.0,-0.17870448529720306,0.0,1603.0,7.08,0.0158824961931484,0.0,0.0,0.0,0.12360844016075134,1500.0,378.0,1500.0,51.459444,2.727600555016738,1417.0,16.700129999999998,-244.0,0.0,0.0,1500.0,1569.0,0.5131906270980835,-4.296512376510087e-05,-0.06826729327440262,1490.0,0.0,18.0,1000.0,0.0,0.018316999077796936,,,,,,,,,
9.501481,0.03369312360882759,0.9761640429496765,16.780862,8.33288652674269e-06,0.0879645943005142,-9.70819091796875,0.0,0.0391346737742424,0.0,0.2051851451396942,-2.7913172,1.396222472190857,5.0,0.0,0.0,-4.485838154752178e-06,1.0,-76.0,5.0,-0.4847584664821625,0.0,-0.17214137315750122,0.0,1603.0,7.08,0.016580627893946133,0.0,0.0,0.0,0.11973979324102402,1500.0,376.0,1500.0,51.459444,2.7277750879419376,1417.0,16.800376,-243.0,0.0,0.0,1500.0,1569.0,0.5138551592826843,-9.842263328503708e-05,-0.06823446601629257,1490.0,0.0,18.0,1000.0,0.0,0.018629128113389015,,,,,,,,,
9.601258,0.03198825195431709,0.9761707782745361,16.860506,5.911756089640207e-07,0.08813912722571364,-9.71217155456543,0.0,0.03790392354130745,0.0,0.20513562858104706,-2.7913177,1.3848929405212402,5.0,0.0,0.0,-1.8075470376211863e-05,1.0,-76.0,5.0,-0.4074034094810486,0.0,-0.1772458553314209,0.0,1602.0,7.03,0.016929693744344994,0.0,0.0,0.0,0.11539311707019806,1500.0,378.0,1500.0,51.4594442,2.7279496208671374,1418.0,16.900153,-244.0,0.0,0.0,1500.0,1568.0,0.5140632390975952,-6.276747140601567e-05,-0.068224236369133,1491.0,0.0,18.0,1000.0,0.0,0.01885823719203472,,,,,,,,,
9.701479,0.02907053381204605,0.976173460483551,16.980728,1.5853796628233464e-05,0.08813912722571364,-9.713218688964844,0.0,0.03549104556441307,0.0,0.20509983599185944,-2.7913182,1.3897291421890259,5.0,0.0,0.0,-9.018890974597372e-06,1.0,-76.0,5.0,-0.4796014726161957,0.0,-0.17494720220565796,0.0,1602.0,6.96,0.017976891295541596,0.0,0.0,0.0,0.10750465840101242,1500.0,374.0,1500.0,51.459444,2.7279496208671374,1418.0,17.000374,-244.0,0.0,0.0,1500.0,1568.0,0.5131753087043762,-7.863219623548433e-05,-0.06816612184047699,1491.0,0.0,18.0,1000.0,0.0,0.019307689741253853,,,,,,,,,
9.801219999999999,0.026868386194109917,0.9761713147163391,17.061013,1.654580970732414e-05,0.08813912722571364,-9.711097717285156,0.0,0.03322368115186691,0.0,0.2050935924053192,-2.7913182,1.3994237184524536,5.0,0.0,0.0,-4.9629702196940374e-08,1.0,-75.0,5.0,-0.5157005190849304,0.0,-0.1817663162946701,0.0,1603.0,6.96,0.018675022996339326,0.0,0.0,0.0,0.10065213590860367,1500.0,378.0,1500.0,51.459444,2.7281241537923364,1417.0,17.100115,-243.0,0.0,0.0,1500.0,1569.0,0.5120449662208557,-5.882031930874764e-05,-0.06811598688364029,1490.0,0.0,18.0,1000.0,0.0,0.01965809427201748,,,,,,,,,
9.901622999999999,0.024006137624382973,0.9761571884155273,17.180699,6.1712330566275565e-06,0.08831366015091309,-9.709460258483887,0.0,0.029275739565491676,0.0,0.2051255702972412,-2.7913186999999997,1.3999743461608887,5.0,0.0,0.0,6.818953878069502e-07,1.0,-75.0,5.0,-0.505386471748352,0.0,-0.16108600795269012,0.0,1603.0,6.8500000000000005,0.019722220547535925,0.0,0.0,0.0,0.08961158990859985,1500.0,376.0,1500.0,51.459443699999994,2.7281241537923364,1417.0,17.200518,-243.0,0.0,0.0,1500.0,1568.0,0.5113118290901184,-5.881751538242904e-05,-0.06805504858493805,1491.0,0.0,18.0,1000.0,0.0,0.020231883972883224,,,,,,,,,
10.001209999999999,0.022713104262948036,0.9761422872543335,17.260956,5.929470605298666e-06,0.08848819307611251,-9.71883773803711,0.0,0.026179786771535873,0.0,0.2051704376935959,-2.7913186999999997,1.389928936958313,5.0,0.0,0.0,-1.0654355161737429e-05,1.0,-76.0,5.0,-0.505386471748352,0.0,-0.1832352727651596,0.0,1602.0,6.8500000000000005,0.02076941809873252,0.0,0.0,0.0,0.08069538325071335,1500.0,375.0,1500.0,51.459443699999994,2.7281241537923364,1418.0,17.300105,-243.0,0.0,0.0,1500.0,1568.0,0.5114879608154297,-5.2184750466226354e-05,-0.06799862533807755,1491.0,0.0,18.0,1000.0,0.0,0.020680183544754982,,,,,,,,,
10.101604,0.020551040768623352,0.9761059880256653,17.380793,-5.289604968199536e-06,0.08848819307611251,-9.718554496765137,0.0,0.02159934863448143,0.0,0.20530349016189575,-2.7913186999999997,1.3955878019332886,5.0,0.0,0.0,-7.9332203552329e-06,1.0,-75.0,5.0,-0.546642541885376,0.0,-0.17449639737606049,0.0,1602.0,6.8500000000000005,0.02199114857512855,0.0,0.0,0.0,0.06577827781438828,1500.0,375.0,1500.0,51.459443699999994,2.7279496208671374,1418.0,17.400499,-243.0,0.0,0.0,1500.0,1568.0,0.5122002959251404,-7.054687557640928e-05,-0.06790672987699509,1491.0,0.0,18.0,1000.0,0.0,0.021360553801059723,,,,,,,,,
10.201244999999998,0.01925116963684559,0.9760732650756836,17.460528,4.7752770046928525e-06,0.08866272600131195,-9.721713066101074,0.0,0.018007386475801468,0.0,0.20542751252651215,-2.7913191,1.3831360340118408,5.0,0.0,0.0,-2.040063643506042e-05,1.0,-75.0,5.0,-0.4692874550819397,0.0,-0.1844363510608673,0.0,1602.0,6.79,0.022863813201125717,0.0,0.0,0.0,0.05524968355894089,1501.0,377.0,1500.0,51.4594434,2.7277750879419376,1417.0,17.50014,-244.0,0.0,0.0,1500.0,1568.0,0.5133012533187866,-6.259207159197287e-05,-0.0678592398762703,1491.0,0.0,18.0,1000.0,0.0,0.021810419857501984,,,,,,,,,
10.301443999999998,0.017389949411153793,0.9760113954544067,17.581143,4.166281986812259e-06,0.08866272600131195,-9.716300964355469,0.0,0.012662985362112522,0.0,0.20567752420902252,-2.7913191,1.3844597339630127,5.0,0.0,0.0,-4.158455629067012e-06,1.0,-75.0,5.0,-0.48991549015045166,0.0,-0.1747896522283554,0.0,1603.0,6.79,0.024260076602721184,0.0,0.0,0.0,0.038851071149110794,1500.0,375.0,1500.0,51.4594434,2.7272514891663393,1417.0,17.600338999999998,-244.0,0.0,0.0,1501.0,1568.0,0.5147901773452759,-5.958656735303845e-05,-0.06776472181081772,1490.0,0.0,18.0,1001.0,0.0,0.022505195811390877,,,,,,,,,
10.401207999999999,0.01622151955962181,0.9759671688079834,17.66069,1.646741558475141e-05,0.08883725892651137,-9.722124099731445,0.0,0.008941562846302986,0.0,0.20585346221923828,-2.7913194999999997,1.3952748775482178,5.0,0.0,0.0,5.000289044014134e-06,1.0,-75.0,5.0,-0.49507248401641846,0.0,-0.17600871622562408,0.0,1602.0,6.73,0.02530727415391778,0.0,0.0,0.0,0.027652082964777946,1500.0,376.0,1500.0,51.459443199999995,2.7269024233159405,1418.0,17.700103,-243.0,0.0,0.0,1500.0,1568.0,0.5151196122169495,-9.729621074596937e-05,-0.06771117448806763,1491.0,0.0,18.0,1000.0,0.0,0.022972244769334793,,,,,,,,,
10.501551000000001,0.013993608765304089,0.9758912324905396,17.78076,4.4301912019125966e-07,0.08883725892651137,-9.708473205566406,0.0,0.003221664810553193,0.0,0.20616914331912994,-2.7913194999999997,1.390052080154419,5.0,0.0,0.0,-1.5145661988726202e-06,1.0,-75.0,5.0,-0.48991549015045166,0.0,-0.18491503596305847,0.0,1602.0,6.73,0.02652900463031381,0.0,0.0,0.0,0.011143168434500694,1500.0,376.0,1500.0,51.459443199999995,2.726378824540342,1418.0,17.800446,-242.0,0.0,0.0,1500.0,1568.0,0.5152301788330078,-5.3492087207763447e-05,-0.06762781739234924,1491.0,0.0,18.0,1000.0,0.0,0.023603998124599457,,,,,,,,,
10.601185,0.012514909729361534,0.9758356213569641,17.860556,1.1348144060829879e-05,0.08901179185171082,-9.71082878112793,0.0,-0.00033423668355681,0.0,0.20639996230602264,-2.7913197999999997,1.4042125940322876,5.0,0.0,0.0,-1.4367001490898933e-05,1.0,-75.0,5.0,-0.5878985524177551,0.0,-0.1744362711906433,0.0,1603.0,6.67,0.027227136331111543,0.0,0.0,0.0,0.0011436669155955315,1500.0,377.0,1500.0,51.459443,2.7260297586899433,1417.0,17.90008,-242.0,0.0,0.0,1501.0,1568.0,0.5150551199913025,-8.485027264015075e-05,-0.06758133322000504,1490.0,0.0,18.0,1001.0,0.0,0.024014325812458992,,,,,,,,,
10.701476999999999,0.0109568415209651,0.9757431149482727,17.980895999999998,-3.2226472520664667e-07,0.08901179185171082,-9.702256202697754,0.0,-0.005660779774188995,0.0,0.20679844915866852,-2.7913197999999997,1.3916289806365967,5.0,0.0,0.0,-1.1248414700352505e-05,1.0,-75.0,5.0,-0.6136835813522339,0.0,-0.17522473633289337,0.0,1603.0,6.67,0.028274333882308142,0.0,0.0,0.0,-0.014627690427005291,1500.0,376.0,1500.0,51.459443,2.7253316269891457,1417.0,18.000372,-244.0,0.0,0.0,1500.0,1569.0,0.5160854458808899,-4.063379313201274e-05,-0.06750466674566269,1490.0,0.0,18.0,1000.0,0.0,0.024553406983613968,,,,,,,,,
10.801373,0.010881155729293823,0.9756761789321899,18.061080999999998,2.0149459496342244e-05,0.08918632477691024,-9.720393180847168,0.0,-0.008807272650301456,0.0,0.20708973705768585,-2.79132,1.3939155340194702,5.0,0.0,0.0,-9.084887882363645e-06,1.0,-75.0,5.0,-0.629154622554779,0.0,-0.1724710613489151,0.0,1602.0,6.67,0.028972465583105872,0.0,0.0,0.0,-0.024206679314374924,1500.0,379.0,1500.0,51.4594427,2.724633495288348,1418.0,18.100268,-244.0,0.0,0.0,1500.0,1568.0,0.5186988115310669,-7.954374049067569e-05,-0.06745505332946777,1491.0,0.0,18.0,1000.0,0.0,0.02489556185901165,,,,,,,,,
10.901258,0.01221319567412138,0.9755635857582092,18.180681,5.202106720371701e-06,0.08918632477691024,-9.716280937194824,0.0,-0.013889799825847149,0.0,0.2075868546962738,-2.79132,1.3896061182022095,5.0,0.0,0.0,1.7518536701498357e-06,1.0,-76.0,5.0,-0.629154622554779,0.0,-0.17023448646068573,0.0,1602.0,6.67,0.029670597283903602,0.0,0.0,0.0,-0.03827713057398796,1500.0,376.0,1500.0,51.4594427,2.723760830662351,1418.0,18.200153,-242.0,0.0,0.0,1500.0,1568.0,0.5252020359039307,-5.764428759214743e-05,-0.06739882379770279,1491.0,0.0,18.0,1000.0,0.0,0.02531595341861248,,,,,,,,,
11.001226999999998,0.013431125320494175,0.9754852652549744,18.260958,1.0695521066938807e-05,0.08918632477691024,-9.718770027160645,0.0,-0.016615573316812515,0.0,0.2079351395368576,-2.79132,1.400458812713623,5.0,0.0,0.0,-4.719024185346657e-07,1.0,-75.0,5.0,-0.5517995357513428,0.0,-0.17300328612327576,0.0,1603.0,6.67,0.0301941960595019,0.0,0.0,0.0,-0.04612916707992554,1500.0,376.0,1500.0,51.4594427,2.723062698961553,1417.0,18.300121999999998,-243.0,0.0,0.0,1500.0,1569.0,0.5309053659439087,-6.930046124555101e-05,-0.06736714392900467,1490.0,0.0,18.0,1000.0,0.0,0.025560278445482254,,,,,,,,,
