time_index,velocity_z,quaternion_3,time_actual,attitude_pitch,wind_y,velocity_x,quaternion_0,global_position_longitude,mode_0,mode_2,magnetometer_1,mode_1,wind_x,altitude_gps,attitude_roll,position_x,magnetometer_2,velocity_y,global_position_latitude,attitude_yaw,time_flight,magnetometer_0,position_z,quaternion_1,gps_sat_count_0,position_y,quaternion_2,battery_0,acceleration_y,servos_3,current_2,current_3,current_0,current_1,rpm_0,servos_0,airspeed_0,servos_7,acceleration_z,acceleration_x,servos_4,servos_1,tx_controls_7,axis_rate_yaw,altitude_baro,tx_controls_0,tx_controls_6,airspeed_1,axis_rate_pitch,tx_controls_1,servos_5,tx_controls_5,rpm_1,tx_controls_3,servos_6,servos_2,battery_1,tx_controls_2,tx_controls_4,axis_rate_roll
0.0,0.0,0.0,9.079283,-0.04834562028024293,0.0,0.0,1.0,145.12655669999998,0.0,0.0,74.0,0.0,0.0,163.3,0.005759586531581287,0.0,-432.0,0.0,-37.6235474,0.0,9.098217,268.0,0.0,0.0,0.0,0.0,0.0,,,,,,,,,,,,,,,,,,,,,,,,,,,,,,,,,
0.18012799999999984,0.0,0.0,9.238688,-0.04834562028024293,0.0,0.0,1.0,145.12655669999998,0.0,0.0,74.0,0.0,0.0,163.3,0.005759586531581287,0.0,-442.0,0.0,-37.6235474,0.0,9.278345,269.0,0.0,0.0,0.0,0.0,0.0,,,,,,,,,,,,,,,,,,,,,,,,,,,,,,,,,
0.5001300000000004,0.0,0.0,9.559132,-0.04834562028024293,0.0,0.0,1.0,145.12639059999998,0.0,0.0,75.0,0.0,0.0,140.21,0.005759586531581287,0.0,-436.0,0.0,-37.623453,0.0,9.598347,266.0,0.0,0.0,5.0,0.0,0.0,,,,,,,,,,,,,,,,,,,,,,,,,,,,,,,,,
0.6801669999999991,0.0,0.0,9.759136999999999,-0.04834562028024293,0.0,0.0,1.0,145.1264289,0.0,0.0,75.0,0.0,0.0,154.11,0.005759586531581287,0.0,-430.0,0.0,-37.6234834,0.0,9.778383999999999,267.0,0.0,0.0,5.0,0.0,0.0,,,,,,,,,,,,,,,,,,,,,,,,,,,,,,,,,
0.9220039999999994,0.0,0.0,9.99941,-0.04834562028024293,0.0,0.0,1.0,145.12644369999998,0.0,0.0,78.0,0.0,0.0,160.64000000000001,0.005759586531581287,0.0,-427.0,0.0,-37.6234916,0.0,10.020221,264.0,0.0,0.0,5.0,0.0,0.0,,,,,,,,,,,,,,,,,,,,,,,,,,,,,,,,,
1.1820489999999992,0.0,0.0,10.239616999999999,-0.04834562028024293,0.0,0.0,1.0,145.1264957,0.0,0.0,77.0,0.0,0.0,171.97,0.005759586531581287,0.0,-426.0,0.0,-37.6235297,0.0,10.280266,265.0,0.0,0.0,15.0,0.0,0.0,,,,,,,,,,,,,,,,,,,,,,,,,,,,,,,,,
1.5013919999999992,0.0,0.0,10.559839,-0.04834562028024293,0.0,0.0,1.0,145.1264933,0.0,0.0,76.0,0.0,0.0,169.98,0.005759586531581287,0.0,-433.0,0.0,-37.6235314,0.0,10.599609,265.0,0.0,0.0,14.0,0.0,0.0,,,,,,,,,,,,,,,,,,,,,,,,,,,,,,,,,
1.7015849999999997,0.0,0.0,10.759659,-0.04834562028024293,0.0,0.0,1.0,145.1264894,0.0,0.0,76.0,0.0,0.0,167.79,0.005759586531581287,0.0,-431.0,0.0,-37.6235303,0.0,10.799802,266.0,0.0,0.0,16.0,0.0,0.0,,,,,,,,,,,,,,,,,,,,,,,,,,,,,,,,,
1.9012060000000002,0.0,0.0,10.959335,-0.04834562028024293,0.0,0.0,1.0,145.12649,0.0,0.0,76.0,0.0,0.0,167.84,0.005759586531581287,0.0,-430.0,0.0,-37.6235302,0.0,10.999423,265.0,0.0,0.0,16.0,0.0,0.0,,,,,,,,,,,,,,,,,,,,,,,,,,,,,,,,,
2.101172,0.0,0.0,11.159595,-0.04834562028024293,0.0,0.0,1.0,145.1264884,0.0,0.0,76.0,0.0,0.0,166.35,0.005759586531581287,0.0,-432.0,0.0,-37.6235326,0.0,11.199389,266.0,0.0,0.0,16.0,0.0,0.0,,,,,,,,,,,,,,,,,,,,,,,,,,,,,,,,,
2.301406,0.0,0.0,11.359337,-0.04834562028024293,0.0,0.0,1.0,145.12648769999998,0.0,0.0,76.0,0.0,0.0,165.33,0.005759586531581287,0.0,-431.0,0.0,-37.6235365,0.0,11.399623,264.0,0.0,0.0,15.0,0.0,0.0,,,,,,,,,,,,,,,,,,,,,,,,,,,,,,,,,
2.5410299999999992,0.0,0.0,11.600408,-0.04834562028024293,0.0,0.0,1.0,145.12648579999998,0.0,0.0,77.0,0.0,0.0,164.11,0.005759586531581287,0.0,-427.0,0.0,-37.6235347,0.0,11.639247,264.0,0.0,0.0,15.0,0.0,0.0,,,,,,,,,,,,,,,,,,,,,,,,,,,,,,,,,
2.6820059999999994,0.0,0.0,11.760079,-0.04834562028024293,0.0,0.0,1.0,145.12648579999998,0.0,0.0,78.0,0.0,0.0,163.83,0.005759586531581287,0.0,-427.0,0.0,-37.623534299999996,0.0,11.780223,266.0,0.0,0.0,14.0,0.0,0.0,,,,,,,,,,,,,,,,,,,,,,,,,,,,,,,,,
2.9014869999999995,0.0,0.0,11.959341,-0.04834562028024293,0.0,0.0,1.0,145.126484,0.0,0.0,76.0,0.0,0.0,162.99,0.005759586531581287,0.0,-433.0,0.0,-37.6235348,0.0,11.999704,265.0,0.0,0.0,15.0,0.0,0.0,,,,,,,,,,,,,,,,,,,,,,,,,,,,,,,,,
3.1821710000000003,0.0,0.0,12.239709999999999,-0.04834562028024293,0.0,0.0,1.0,145.1264837,0.0,0.0,78.0,0.0,0.0,162.74,0.005759586531581287,0.0,-426.0,0.0,-37.6235364,0.0,12.280388,265.0,0.0,0.0,16.0,0.0,0.0,,,,,,,,,,,,,,,,,,,,,,,,,,,,,,,,,
3.4819739999999992,0.0,0.0,12.560321,-0.04834562028024293,0.0,0.0,1.0,145.12648339999998,0.0,0.0,75.0,0.0,0.0,163.13,0.005759586531581287,0.0,-437.0,0.0,-37.623537999999996,0.0,12.580191,266.0,0.0,0.0,16.0,0.0,0.0,,,,,,,,,,,,,,,,,,,,,,,,,,,,,,,,,
3.6820759999999986,0.0,0.0,12.759758,-0.04834562028024293,0.0,0.0,1.0,145.1264838,0.0,0.0,76.0,0.0,0.0,163.59,0.005759586531581287,0.0,-432.0,0.0,-37.6235393,0.0,12.780292999999999,267.0,0.0,0.0,16.0,0.0,0.0,,,,,,,,,,,,,,,,,,,,,,,,,,,,,,,,,
3.8819470000000003,0.0,0.0,12.95938,-0.04834562028024293,0.0,0.0,1.0,145.1264852,0.0,0.0,76.0,0.0,0.0,163.5,0.005759586531581287,0.0,-435.0,0.0,-37.623541599999996,0.0,12.980164,266.0,0.0,0.0,17.0,0.0,0.0,,,,,,,,,,,,,,,,,,,,,,,,,,,,,,,,,
4.082079,0.0,0.0,13.159685,-0.04834562028024293,0.0,0.0,1.0,145.1264859,0.0,0.0,76.0,0.0,0.0,163.46,0.005759586531581287,0.0,-433.0,0.0,-37.6235436,0.0,13.180296,266.0,0.0,0.0,17.0,0.0,0.0,,,,,,,,,,,,,,,,,,,,,,,,,,,,,,,,,
4.283389999999999,-0.009610382840037346,0.000797729822807014,13.360370999999999,0.10367255756846318,0.0,-0.001489427057094872,0.9970521926879883,145.1264869,0.0,0.0,76.0,0.0,0.0,163.44,-0.014660765716752368,0.0,-432.0,0.0028655643109232187,-37.623545299999996,0.0,13.381606999999999,266.0,-0.00021199858747422695,-0.010210542939603329,17.0,0.0,0.07604016363620758,,,,,,,,,,,,,,,,,,,,,,,,,,,,,,,,,
4.483022,-0.02509380131959915,-0.0662643238902092,13.56135,0.10384709049366261,0.0,-0.006742754951119423,0.9948444366455078,145.1264878,0.0,0.0,76.0,0.0,0.0,163.52,-0.014486232791552936,0.0,-434.0,0.008976130746304989,-37.623546399999995,6.148445888925624,13.581239,265.0,-0.00671237800270319,-0.005026103463023901,17.0,0.0,0.07660592347383499,,,,,,,,,,,,,,,,,,,,,,,,,,,,,,,,,
4.683138999999999,-0.04182158038020134,-0.06672682613134384,13.761356,0.10384709049366261,0.0,-0.009068116545677185,0.9948107004165649,145.1264886,0.0,0.0,76.0,0.0,0.0,163.6,-0.014660765716752368,0.0,-433.0,0.01737751066684723,-37.6235474,6.147573224299627,13.781355999999999,267.0,-0.04721422120928764,-0.005020043347030878,17.0,0.0,0.07664169371128082,,,,,,,,,,,,,,,,,,,,,,,,,,,,,,,,,
4.882968,-0.0737387165427208,-0.06745453923940659,13.960818999999999,0.10402162341886204,0.0,-0.013075267896056175,0.9947525262832642,145.1264893,0.0,0.0,75.0,0.0,0.0,163.65,-0.014835298641951801,0.0,-437.0,0.024929719045758247,-37.6235485,6.146176960898032,13.981185,266.0,-0.1178588792681694,-0.005061079747974873,17.0,0.0,0.07675759494304657,,,,,,,,,,,,,,,,,,,,,,,,,,,,,,,,,
5.1020389999999995,-0.11664047092199326,-0.06784486770629883,14.160853999999999,0.10419615634406147,0.0,-0.015944160521030426,0.9947263598442078,145.12648959999999,0.0,0.0,77.0,0.0,0.0,163.68,-0.014311699866353503,0.0,-435.0,0.031519319862127304,-37.623549,6.145304296272035,14.200256,265.0,-0.1719779670238495,-0.004790918901562691,17.0,0.0,0.07677046954631805,,,,,,,,,,,,,,,,,,,,,,,,,,,,,,,,,
5.28303,-0.16330493986606598,-0.06798490881919861,14.360821,0.10419615634406147,0.0,-0.020173093304038048,0.9947129487991333,145.1264898,0.0,0.0,75.0,0.0,0.0,163.75,-0.014311699866353503,0.0,-435.0,0.03515791520476341,-37.6235496,6.145129763346835,14.381247,267.0,-0.21925030648708344,-0.004766915924847126,17.0,0.0,0.07682184875011444,,,,,,,,,,,,,,,,,,,,,,,,,,,,,,,,,
5.482635,-0.21409964561462402,-0.06808270514011383,14.561617,0.10419615634406147,0.0,-0.02172323688864708,0.9947052597999573,145.1264897,0.0,0.0,76.0,0.0,0.0,163.77,-0.014486232791552936,0.0,-437.0,0.03983478620648384,-37.6235504,6.144780697496436,14.580852,265.0,-0.25734943151474,-0.0048509081825613976,17.0,0.0,0.0768299326300621,,,,,,,,,,,,,,,,,,,,,,,,,,,,,,,,,
5.683021999999999,-0.2667151987552643,-0.0680556446313858,14.761334,0.10402162341886204,0.0,-0.02404075860977173,0.9947119355201721,145.1264897,0.0,0.0,75.0,0.0,0.0,163.77,-0.014660765716752368,0.0,-436.0,0.0379752442240715,-37.623550699999996,6.144955230421635,14.781239,267.0,-0.3038620948791504,-0.0049846358597278595,17.0,0.0,0.07675901800394058,,,,,,,,,,,,,,,,,,,,,,,,,,,,,,,,,
5.883113999999999,-0.31989967823028564,-0.06786369532346725,14.960815,0.10384709049366261,0.0,-0.022408530116081238,0.9947266578674316,145.1264894,0.0,0.0,77.0,0.0,0.0,163.78,-0.015533430342749533,0.0,-430.0,0.03673115000128746,-37.6235505,6.145304296272035,14.981330999999999,265.0,-0.3602493405342102,-0.005418313201516867,17.0,0.0,0.07670830935239792,,,,,,,,,,,,,,,,,,,,,,,,,,,,,,,,,
6.082955999999999,-0.37275049090385437,-0.06775115430355072,15.16114,0.10367255756846318,0.0,-0.023937547579407692,0.9947407841682434,145.1264893,0.0,0.0,76.0,0.0,0.0,163.84,-0.016057029118347832,0.0,-431.0,0.03220214322209358,-37.6235505,6.145478829197234,15.181173,265.0,-0.41669565439224243,-0.005660936236381531,17.0,0.0,0.07660696655511856,,,,,,,,,,,,,,,,,,,,,,,,,,,,,,,,,
6.283055999999998,-0.42251288890838623,-0.06765207648277283,15.360847999999999,0.10349802464326374,0.0,-0.021408697590231895,0.9947510957717896,145.12648919999998,0.0,0.0,76.0,0.0,0.0,163.89000000000001,-0.016755160819145562,0.0,-434.0,0.024929486215114594,-37.6235502,6.145653362122434,15.381272999999998,267.0,-0.478985995054245,-0.006025231909006834,17.0,0.0,0.0765329897403717,,,,,,,,,,,,,,,,,,,,,,,,,,,,,,,,,
6.483046,-0.4665536880493164,-0.06763693690299988,15.561366999999999,0.1033234917180643,0.0,-0.018428826704621315,0.994757890701294,145.12648959999999,0.0,0.0,76.0,0.0,0.0,163.89000000000001,-0.016755160819145562,0.0,-432.0,0.017673702910542488,-37.6235504,6.145653362122434,15.581263,266.0,-0.5385438799858093,-0.006086891051381826,17.0,0.0,0.07645286619663239,,,,,,,,,,,,,,,,,,,,,,,,,,,,,,,,,
6.682953999999999,-0.5074990391731262,-0.06760450452566147,15.761291,0.10314895879286488,0.0,-0.016303610056638718,0.9947645664215088,145.12648959999999,0.0,0.0,75.0,0.0,0.0,163.93,-0.016929693744344994,0.0,-434.0,0.012404294684529305,-37.6235504,6.145653362122434,15.781170999999999,268.0,-0.598436176776886,-0.006176218390464783,17.0,0.0,0.07638739049434662,,,,,,,,,,,,,,,,,,,,,,,,,,,,,,,,,
6.882966999999999,-0.5420018434524536,-0.0674416646361351,15.961222,0.10314895879286488,0.0,-0.014397059567272663,0.9947764873504639,145.1264897,0.0,0.0,76.0,0.0,0.0,163.96,-0.01710422666954443,0.0,-434.0,0.008026103489100933,-37.6235506,6.146002427972832,15.981183999999999,265.0,-0.655237078666687,-0.006221657618880272,17.0,0.0,0.0763714537024498,,,,,,,,,,,,,,,,,,,,,,,,,,,,,,,,,
7.083022999999999,-0.5717652440071106,-0.06726394593715668,16.161094,0.10314895879286488,0.0,-0.013610363006591797,0.9947924017906189,145.1264899,0.0,0.0,75.0,0.0,0.0,163.94,-0.016755160819145562,0.0,-432.0,0.005267797969281673,-37.623550699999996,6.146351493823231,16.18124,267.0,-0.702819287776947,-0.00608983775600791,17.0,0.0,0.07633277773857117,,,,,,,,,,,,,,,,,,,,,,,,,,,,,,,,,
7.282703,-0.600470244884491,-0.06707247346639633,16.360917,0.10314895879286488,0.0,-0.013868540525436401,0.9948040843009949,145.1264904,0.0,0.0,76.0,0.0,0.0,163.93,-0.016929693744344994,0.0,-432.0,0.0019593252800405025,-37.623551,6.14670055967363,16.38092,267.0,-0.7493197917938232,-0.006194851361215115,17.0,0.0,0.07633937150239944,,,,,,,,,,,,,,,,,,,,,,,,,,,,,,,,,
7.482673,-0.6278300881385803,-0.0668918564915657,16.561251,0.10314895879286488,0.0,-0.014236589893698692,0.9948126673698425,145.12649059999998,0.0,0.0,76.0,0.0,0.0,163.88,-0.01710422666954443,0.0,-432.0,0.000782680930569768,-37.623551299999995,6.147049625524028,16.58089,266.0,-0.7968884706497192,-0.006321524269878864,17.0,0.0,0.07637649029493332,,,,,,,,,,,,,,,,,,,,,,,,,,,,,,,,,
7.682875000000001,-0.652754008769989,-0.06673160940408707,16.761376,0.10314895879286488,0.0,-0.014979712665081024,0.9948218464851379,145.1264909,0.0,0.0,75.0,0.0,0.0,163.86,-0.017278759594743863,0.0,-431.0,0.00023851559672039002,-37.6235515,6.147398691374428,16.781092,267.0,-0.8429321050643921,-0.006420148070901632,17.0,0.0,0.07638930529356003,,,,,,,,,,,,,,,,,,,,,,,,,,,,,,,,,
7.882835999999999,-0.673426628112793,-0.06669875979423523,16.960841,0.10314895879286488,0.0,-0.015101205557584763,0.9948248863220215,145.12649109999998,0.0,0.0,76.0,0.0,0.0,163.85,-0.01710422666954443,0.0,-431.0,-0.0011643718462437391,-37.6235517,6.147398691374428,16.981053,267.0,-0.8822464942932129,-0.006286345887929201,17.0,0.0,0.07638855278491974,,,,,,,,,,,,,,,,,,,,,,,,,,,,,,,,,
8.083048,-0.6942344903945923,-0.0664861798286438,17.161071,0.10314895879286488,0.0,-0.016183841973543167,0.9948374629020691,145.126491,0.0,0.0,77.0,0.0,0.0,163.84,-0.01710422666954443,0.0,-431.0,-0.0031129824928939342,-37.6235517,6.147922290150026,17.181265,267.0,-0.9178741574287415,-0.006325721275061369,17.0,0.0,0.07640784978866577,,,,,,,,,,,,,,,,,,,,,,,,,,,,,,,,,
8.282655999999998,-0.708000123500824,-0.06629835069179535,17.360927,0.10314895879286488,0.0,-0.016324933618307114,0.9948477149009705,145.126491,0.0,0.0,75.0,0.0,0.0,163.83,-0.017453292519943295,0.0,-435.0,-0.00230090762488544,-37.6235517,6.148271356000424,17.380872999999998,266.0,-0.9466179013252258,-0.0064873951487243176,17.0,0.0,0.07642314583063126,,,,,,,,,,,,,,,,,,,,,,,,,,,,,,,,,
8.482823999999999,-0.7246928215026855,-0.06613785028457642,17.561256999999998,0.1033234917180643,0.0,-0.017769334837794304,0.9948568344116211,145.1264909,0.0,0.0,75.0,0.0,0.0,163.83,-0.017453292519943295,0.0,-430.0,-0.0018640294438228011,-37.6235516,6.148620421850824,17.581041,267.0,-0.9792451858520508,-0.006547741591930389,17.0,0.0,0.07643880695104599,,,,,,,,,,,,,,,,,,,,,,,,,,,,,,,,,
8.683006,-0.7410172820091248,-0.06598792225122452,17.761247,0.1033234917180643,0.0,-0.018419336527585983,0.9948665499687195,145.1264909,0.0,0.0,75.0,0.0,0.0,163.8,-0.017627825445142728,0.0,-434.0,-0.0017653255490586162,-37.6235516,6.148794954776023,17.781223,267.0,-1.0145748853683472,-0.006599819753319025,17.0,0.0,0.07643730193376541,,,,,,,,,,,,,,,,,,,,,,,,,,,,,,,,,
8.882931999999998,-0.7531360387802124,-0.0657687708735466,17.960874,0.10314895879286488,0.0,-0.01790996827185154,0.9948830604553223,145.1264909,0.0,0.0,76.0,0.0,0.0,163.76,-0.017627825445142728,0.0,-432.0,-0.0014518192037940025,-37.6235517,6.149318553551621,17.981149,267.0,-1.0495696067810059,-0.006646370515227318,17.0,0.0,0.07640830427408218,,,,,,,,,,,,,,,,,,,,,,,,,,,,,,,,,
9.082956999999999,-0.7644206285476685,-0.0655522421002388,18.161333,0.10297442586766545,0.0,-0.015636447817087173,0.9949041604995728,145.126491,0.0,0.0,75.0,0.0,0.0,163.72,-0.017627825445142728,0.0,-437.0,0.00031660738750360906,-37.623551899999995,6.14966761940202,18.181174,266.0,-1.0883867740631104,-0.00667345616966486,17.0,0.0,0.07631577551364899,,,,,,,,,,,,,,,,,,,,,,,,,,,,,,,,,
9.282950999999999,-0.7724242806434631,-0.06534083187580109,18.360694,0.102799892942466,0.0,-0.013613431714475155,0.9949269890785217,145.126491,0.0,0.0,76.0,0.0,0.0,163.68,-0.017453292519943295,0.0,-431.0,-0.0005410720477811992,-37.623552,6.150191218177619,18.381168,266.0,-1.121795415878296,-0.0066255019046366215,17.0,0.0,0.07620491832494736,,,,,,,,,,,,,,,,,,,,,,,,,,,,,,,,,
9.482942,-0.7736162543296814,-0.0650980994105339,18.561231,0.10245082709206714,0.0,-0.010515181347727776,0.9949519038200378,145.1264909,0.0,0.0,76.0,0.0,0.0,163.65,-0.017627825445142728,0.0,-433.0,-0.0005196628044359386,-37.6235521,6.150714816953217,18.581159,266.0,-1.1468476057052612,-0.006697384640574455,17.0,0.0,0.07608014345169067,,,,,,,,,,,,,,,,,,,,,,,,,,,,,,,,,
9.682844999999999,-0.7701486349105835,-0.06494530290365219,18.761309,0.10227629416686772,0.0,-0.008041169494390488,0.9949742555618286,145.1264909,0.0,0.0,76.0,0.0,0.0,163.62,-0.017278759594743863,0.0,-434.0,-0.003163152141496539,-37.6235521,6.151063882803616,18.781062,266.0,-1.1674519777297974,-0.006512752268463373,17.0,0.0,0.07593386620283127,,,,,,,,,,,,,,,,,,,,,,,,,,,,,,,,,
9.882958999999998,-0.7586476802825928,-0.06471440196037292,18.960774,0.10192722831646885,0.0,-0.005448547657579184,0.9949989318847656,145.1264908,0.0,0.0,75.0,0.0,0.0,163.58,-0.017453292519943295,0.0,-430.0,-0.004196554888039827,-37.6235521,6.151412948654015,18.981175999999998,266.0,-1.179438829421997,-0.006640189327299595,17.0,0.0,0.07579731196165085,,,,,,,,,,,,,,,,,,,,,,,,,,,,,,,,,
10.082686999999998,-0.7394518852233887,-0.06448296457529068,19.161065999999998,0.10175269539126941,0.0,-0.0024352732580155134,0.995019257068634,145.1264908,0.0,0.0,76.0,0.0,0.0,163.54,-0.017627825445142728,0.0,-431.0,-0.005685486830770969,-37.6235521,6.151936547429613,19.180903999999998,266.0,-1.1752103567123413,-0.006779304705560207,17.0,0.0,0.07571524381637573,,,,,,,,,,,,,,,,,,,,,,,,,,,,,,,,,
10.282932,-0.7171317338943481,-0.06422825902700424,19.36077,0.10157816246606999,0.0,-0.0005996344843879342,0.9950422644615173,145.1264908,0.0,0.0,76.0,0.0,0.0,163.49,-0.017627825445142728,0.0,-432.0,-0.0068281847052276134,-37.6235522,6.152460146205211,19.381149,266.0,-1.1649636030197144,-0.006811193190515041,17.0,0.0,0.0756264328956604,,,,,,,,,,,,,,,,,,,,,,,,,,,,,,,,,
10.482982999999999,-0.6924006938934326,-0.06404867023229599,19.561261,0.10157816246606999,0.0,0.0007335013360716403,0.9950567483901978,145.1264908,0.0,0.0,75.0,0.0,0.0,163.46,-0.017627825445142728,0.0,-432.0,-0.008295625448226929,-37.6235523,6.152809212055611,19.5812,267.0,-1.1566088199615479,-0.0067775556817650795,17.0,0.0,0.0755903348326683,,,,,,,,,,,,,,,,,,,,,,,,,,,,,,,,,
10.682677,-0.6655029058456421,-0.06389537453651428,19.761782,0.10140362954087055,0.0,0.0031615050975233316,0.9950702786445618,145.1264908,0.0,0.0,76.0,0.0,0.0,163.42000000000002,-0.017453292519943295,0.0,-432.0,-0.007942970842123032,-37.6235524,6.153158277906009,19.780894,267.0,-1.1463679075241089,-0.006749233230948448,17.0,0.0,0.07554540783166885,,,,,,,,,,,,,,,,,,,,,,,,,,,,,,,,,
10.921742,-0.6256272196769714,-0.06364236772060394,20.001345,0.10140362954087055,0.0,0.003845194121822715,0.9950863122940063,145.12649059999998,0.0,0.0,76.0,0.0,0.0,163.42000000000002,-0.01780235837034216,0.0,-428.0,-0.00748462975025177,-37.6235524,6.153507343756408,20.019959,266.0,-1.1234500408172607,-0.006891375873237848,17.0,0.0,0.07553406804800034,,,,,,,,,,,,,,,,,,,,,,,,,,,,,,,,,
11.082944,-0.6000573635101318,-0.06357691437005997,20.161224,0.10140362954087055,0.0,0.004770833067595959,0.9950952529907227,145.12649059999998,0.0,0.0,76.0,0.0,0.0,163.39000000000001,-0.017278759594743863,0.0,-430.0,-0.0070525952614843845,-37.623552499999995,6.153681876681607,20.181161,266.0,-1.1092149019241333,-0.006662702187895775,17.0,0.0,0.0754924938082695,,,,,,,,,,,,,,,,,,,,,,,,,,,,,,,,,
11.282803,-0.5689781308174133,-0.0634680837392807,20.360858,0.10140362954087055,0.0,0.004618652164936066,0.9951007962226868,145.12649059999998,0.0,0.0,76.0,0.0,0.0,163.35,-0.017453292519943295,0.0,-434.0,-0.007121328264474869,-37.6235526,6.154030942532007,20.38102,266.0,-1.0924789905548096,-0.006803359370678663,17.0,0.0,0.07549845427274704,,,,,,,,,,,,,,,,,,,,,,,,,,,,,,,,,
11.483413,-0.5323137044906616,-0.06346141546964645,20.561277999999998,0.10140362954087055,0.0,0.005487469024956226,0.9951032996177673,145.1264907,0.0,0.0,75.0,0.0,0.0,163.33,-0.01710422666954443,0.0,-434.0,-0.006410313304513693,-37.6235528,6.154030942532007,20.58163,268.0,-1.0666340589523315,-0.006644366774708033,17.0,0.0,0.07548551261425018,,,,,,,,,,,,,,,,,,,,,,,,,,,,,,,,,
11.682864,-0.4916180968284607,-0.06339574605226517,20.761381999999998,0.10140362954087055,0.0,0.006309859920293093,0.9951084852218628,145.1264907,0.0,0.0,75.0,0.0,0.0,163.29,-0.016929693744344994,0.0,-432.0,-0.005292328540235758,-37.6235528,6.154205475457205,20.781081,268.0,-1.026017189025879,-0.0065089259296655655,17.0,0.0,0.07548394799232483,,,,,,,,,,,,,,,,,,,,,,,,,,,,,,,,,
11.882664,-0.4502336084842682,-0.06322790682315826,20.960791999999998,0.10140362954087055,0.0,0.006793932057917118,0.9951164722442627,145.1264908,0.0,0.0,75.0,0.0,0.0,163.3,-0.01710422666954443,0.0,-430.0,-0.004660727921873331,-37.6235528,6.154380008382405,20.980881,266.0,-0.9863547682762146,-0.00664012786000967,17.0,0.0,0.07550805807113647,,,,,,,,,,,,,,,,,,,,,,,,,,,,,,,,,
12.082965,-0.4126238226890564,-0.06312915682792664,21.160857999999998,0.10140362954087055,0.0,0.0068228780291974545,0.9951205253601074,145.1264908,0.0,0.0,75.0,0.0,0.0,163.3,-0.017278759594743863,0.0,-430.0,-0.004251881968230009,-37.6235529,6.154729074232804,21.181182,268.0,-0.9469963908195496,-0.006713095121085644,17.0,0.0,0.07553118467330933,,,,,,,,,,,,,,,,,,,,,,,,,,,,,,,,,
12.282646999999999,-0.37298259139060974,-0.06306874752044678,21.360946,0.10157816246606999,0.0,0.007724578958004713,0.995124876499176,145.1264908,0.0,0.0,76.0,0.0,0.0,163.27,-0.016755160819145562,0.0,-434.0,-0.0026599846314638853,-37.6235528,6.154729074232804,21.380864,267.0,-0.9043542742729187,-0.006462005898356438,17.0,0.0,0.07554540783166885,,,,,,,,,,,,,,,,,,,,,,,,,,,,,,,,,
12.483047999999998,-0.33475545048713684,-0.06303797662258148,21.561280999999997,0.10157816246606999,0.0,0.006733892485499382,0.9951241612434387,145.1264907,0.0,0.0,75.0,0.0,0.0,163.3,-0.016929693744344994,0.0,-433.0,-0.004013858735561371,-37.6235528,6.154903607158004,21.581265,267.0,-0.8587644696235657,-0.006518092937767506,17.0,0.0,0.07557515054941177,,,,,,,,,,,,,,,,,,,,,,,,,,,,,,,,,
12.682688,-0.2983320355415344,-0.06296806782484055,21.761156,0.10157816246606999,0.0,0.0065054697915911674,0.9951258897781372,145.12649059999998,0.0,0.0,76.0,0.0,0.0,163.27,-0.016929693744344994,0.0,-431.0,-0.0037159034982323647,-37.6235527,6.155078140083203,21.780905,268.0,-0.8118329644203186,-0.006584810558706522,17.0,0.0,0.0756048634648323,,,,,,,,,,,,,,,,,,,,,,,,,,,,,,,,,
12.882658999999999,-0.26016947627067566,-0.06288982927799225,21.960698,0.10175269539126941,0.0,0.007537611294537783,0.9951280951499939,145.1264904,0.0,0.0,76.0,0.0,0.0,163.25,-0.01710422666954443,0.0,-431.0,-0.004072810057550669,-37.623552499999995,6.155078140083203,21.980876,267.0,-0.7618216276168823,-0.0066725281067192554,17.0,0.0,0.07563330233097076,,,,,,,,,,,,,,,,,,,,,,,,,,,,,,,,,
13.102095999999998,-0.2289176881313324,-0.06286215037107468,22.161111,0.10175269539126941,0.0,0.00590788759291172,0.9951267838478088,145.1264903,0.0,0.0,75.0,0.0,0.0,163.23,-0.01710422666954443,0.0,-434.0,-0.004467534366995096,-37.6235523,6.155252673008403,22.200312999999998,267.0,-0.7232073545455933,-0.006649518385529518,17.0,0.0,0.07567618787288666,,,,,,,,,,,,,,,,,,,,,,,,,,,,,,,,,
13.301969999999999,-0.20220299065113068,-0.06289748847484589,22.36096,0.10175269539126941,0.0,0.005014490801841021,0.9951235055923462,145.1264903,0.0,0.0,76.0,0.0,0.0,163.20000000000002,-0.01710422666954443,0.0,-435.0,-0.004490329883992672,-37.6235523,6.155078140083203,22.400187,267.0,-0.6873467564582825,-0.00663770129904151,17.0,0.0,0.07569146156311035,,,,,,,,,,,,,,,,,,,,,,,,,,,,,,,,,
13.502041,-0.17248284816741943,-0.06295717507600784,22.561096,0.10192722831646885,0.0,0.004750309512019157,0.9951178431510925,145.1264902,0.0,0.0,76.0,0.0,0.0,163.17000000000002,-0.016929693744344994,0.0,-431.0,-0.0014803038211539388,-37.6235521,6.155078140083203,22.600258,267.0,-0.6453171372413635,-0.006573274731636047,17.0,0.0,0.07572215795516968,,,,,,,,,,,,,,,,,,,,,,,,,,,,,,,,,
13.682946,-0.14808541536331177,-0.06291892379522324,22.761339,0.10192722831646885,0.0,0.00269677652977407,0.9951124787330627,145.12649009999998,0.0,0.0,76.0,0.0,0.0,163.14000000000001,-0.017627825445142728,0.0,-435.0,0.0010204254649579525,-37.623552,6.155078140083203,22.781163,266.0,-0.6063364148139954,-0.0068548922426998615,17.0,0.0,0.07579963654279709,,,,,,,,,,,,,,,,,,,,,,,,,,,,,,,,,
13.902047999999999,-0.1281612366437912,-0.06301963329315186,22.960673999999997,0.10210176124166828,0.0,0.0025357743725180626,0.9951046109199524,145.1264899,0.0,0.0,75.0,0.0,0.0,163.1,-0.017278759594743863,0.0,-432.0,-0.0025048288516700268,-37.623552,6.154903607158004,23.000265,266.0,-0.5801982879638672,-0.006692306604236364,17.0,0.0,0.07583347707986832,,,,,,,,,,,,,,,,,,,,,,,,,,,,,,,,,
14.082962,-0.11347581446170807,-0.06296854466199875,23.161105,0.10210176124166828,0.0,9.554022108204663e-05,0.9951066970825195,145.1264898,0.0,0.0,75.0,0.0,0.0,163.07,-0.016929693744344994,0.0,-432.0,-0.0018568526720628142,-37.623551899999995,6.154903607158004,23.181179,266.0,-0.5615382790565491,-0.006524713709950447,17.0,0.0,0.07586269080638885,,,,,,,,,,,,,,,,,,,,,,,,,,,,,,,,,
14.282679,-0.10005534440279007,-0.06294576078653336,23.360682999999998,0.10227629416686772,0.0,-0.00108494667802006,0.9951079487800598,145.1264898,0.0,0.0,75.0,0.0,0.0,163.05,-0.016580627893946133,0.0,-432.0,7.727311458438635e-05,-37.6235518,6.155078140083203,23.380896,266.0,-0.5486161708831787,-0.006333515979349613,17.0,0.0,0.07588068395853043,,,,,,,,,,,,,,,,,,,,,,,,,,,,,,,,,
14.482760999999998,-0.09097815304994583,-0.0628955066204071,23.561341,0.10227629416686772,0.0,-0.0018580745672807097,0.9951038360595703,145.1264897,0.0,0.0,76.0,0.0,0.0,163.04,-0.016929693744344994,0.0,-433.0,0.0014102377463132143,-37.6235517,6.155078140083203,23.580977999999998,266.0,-0.5434637069702148,-0.0065457578748464584,17.0,0.0,0.07595854997634888,,,,,,,,,,,,,,,,,,,,,,,,,,,,,,,,,
14.682927999999999,-0.09042368829250336,-0.06291327625513077,23.761276,0.10245082709206714,0.0,-0.0038459328934550285,0.9951008558273315,145.1264895,0.0,0.0,76.0,0.0,0.0,163.02,-0.016929693744344994,0.011131884530186653,-436.0,0.0018551078392192721,-37.6235516,6.155078140083203,23.781145,267.0,-0.5583577156066895,-0.0065053110010921955,17.0,-0.008816884830594063,0.07598672807216644,,,,,,,,,,,,,,,,,,,,,,,,,,,,,,,,,
14.883137,-0.09291902184486389,-0.0629737451672554,23.960694999999998,0.10245082709206714,0.0,-0.005523543804883957,0.9950961470603943,145.1264894,0.0,0.0,76.0,0.0,0.0,162.99,-0.016755160819145562,0.022263769060373306,-434.0,0.0012979154707863927,-37.6235514,6.154903607158004,23.981354,267.0,-0.5843935012817383,-0.006457544397562742,17.0,-0.02645065449178219,0.07600252330303192,,,,,,,,,,,,,,,,,,,,,,,,,,,,,,,,,
15.062700999999999,-0.09222374856472015,-0.06305889785289764,24.120946999999997,0.10245082709206714,0.0,-0.006435593590140343,0.9950903654098511,145.1264893,0.0,0.0,75.0,0.0,0.0,163.02,-0.016580627893946133,0.04452753812074661,-432.0,0.0015724303666502237,-37.623551299999995,6.154903607158004,24.160918,267.0,-0.5967287421226501,-0.006304705049842596,17.0,-0.03526753932237625,0.07601995766162872,,,,,,,,,,,,,,,,,,,,,,,,,,,,,,,,,
15.282731999999998,-0.08677735924720764,-0.06302236765623093,24.360809,0.10262536001726658,0.0,-0.008466437458992004,0.995089590549469,145.1264893,0.0,0.0,74.0,0.0,0.0,163.01,-0.016580627893946133,0.055659420788288116,-433.0,0.0026173931546509266,-37.623551299999995,6.154903607158004,24.380948999999998,266.0,-0.6044301986694336,-0.006367622874677181,17.0,-0.044084422290325165,0.07605569064617157,,,,,,,,,,,,,,,,,,,,,,,,,,,,,,,,,
15.482487999999998,-0.0817459225654602,-0.06295246630907059,24.561387999999997,0.10262536001726658,0.0,-0.00926568266004324,0.9950952529907227,145.1264893,0.0,0.0,75.0,0.0,0.0,162.99,-0.016580627893946133,0.055659420788288116,-436.0,0.001557584386318922,-37.6235512,6.155078140083203,24.580705,267.0,-0.6057763695716858,-0.006308837793767452,17.0,-0.044084422290325165,0.07604499161243439,,,,,,,,,,,,,,,,,,,,,,,,,,,,,,,,,
15.682964,-0.0746731385588646,-0.06286697089672089,24.761627999999998,0.10262536001726658,0.0,-0.009885277599096298,0.9951000213623047,145.1264893,0.0,0.0,76.0,0.0,0.0,162.96,-0.0164060949687467,0.06679131090641022,-432.0,0.002643210580572486,-37.6235512,6.155252673008403,24.781181,266.0,-0.6034032702445984,-0.00624070456251502,17.0,-0.044084422290325165,0.07605811208486557,,,,,,,,,,,,,,,,,,,,,,,,,,,,,,,,,
15.882882999999998,-0.06726079434156418,-0.0627874806523323,24.960970999999997,0.10262536001726658,0.0,-0.010644465684890747,0.9951013922691345,145.1264894,0.0,0.0,77.0,0.0,0.0,162.93,-0.016755160819145562,0.06679131090641022,-432.0,0.0033491698559373617,-37.623551299999995,6.155427205933601,24.981099999999998,265.0,-0.596259593963623,-0.006446948740631342,17.0,-0.044084422290325165,0.07608858495950699,,,,,,,,,,,,,,,,,,,,,,,,,,,,,,,,,
16.082743,-0.058466579765081406,-0.06284425407648087,25.161315,0.10262536001726658,0.0,-0.012513945810496807,0.9950963854789734,145.1264895,0.0,0.0,76.0,0.0,0.0,162.92000000000002,-0.016580627893946133,0.055659420788288116,-432.0,0.002365807304158807,-37.623551299999995,6.155252673008403,25.18096,264.0,-0.58426433801651,-0.006346709560602903,17.0,-0.03526753932237625,0.07611548900604248,,,,,,,,,,,,,,,,,,,,,,,,,,,,,,,,,
16.282835999999996,-0.04789399728178978,-0.06288982182741165,25.360684,0.102799892942466,0.0,-0.012639782391488552,0.9950928688049316,145.12648959999999,0.0,0.0,76.0,0.0,0.0,162.9,-0.016580627893946133,0.055659420788288116,-431.0,0.003626566380262375,-37.6235514,6.155252673008403,25.381052999999998,266.0,-0.5691304206848145,-0.006326446775346994,17.0,-0.02645065449178219,0.07612508535385132,,,,,,,,,,,,,,,,,,,,,,,,,,,,,,,,,
16.462097,-0.03907324746251106,-0.0630161389708519,25.520229,0.102799892942466,0.0,-0.01371352095156908,0.9950856566429138,145.12648959999999,0.0,0.0,76.0,0.0,0.0,162.87,-0.0164060949687467,0.04452753812074661,-431.0,0.004976986441761255,-37.6235515,6.154903607158004,25.560313999999998,266.0,-0.5541138648986816,-0.006238636560738087,17.0,-0.017633769661188126,0.07612214982509613,,,,,,,,,,,,,,,,,,,,,,,,,,,,,,,,,
16.683006999999996,-0.026949649676680565,-0.06305395066738129,25.761412999999997,0.102799892942466,0.0,-0.015102429315447807,0.995078980922699,145.1264897,0.0,0.0,76.0,0.0,0.0,162.83,-0.016755160819145562,0.03339565545320511,-436.0,0.005224389489740133,-37.6235517,6.154903607158004,25.781223999999998,266.0,-0.5306604504585266,-0.006428678520023823,17.0,-0.017633769661188126,0.07616343349218369,,,,,,,,,,,,,,,,,,,,,,,,,,,,,,,,,
16.882903999999996,-0.017734430730342865,-0.06310641020536423,25.960917,0.102799892942466,0.0,-0.015591795556247234,0.9950756430625916,145.1264898,0.0,0.0,75.0,0.0,0.0,162.79,-0.016580627893946133,0.011131884530186653,-432.0,0.005480049178004265,-37.623551899999995,6.154729074232804,25.981120999999998,266.0,-0.5063604116439819,-0.006340951193124056,17.0,-0.008816884830594063,0.07617072016000748,,,,,,,,,,,,,,,,,,,,,,,,,,,,,,,,,
17.082958999999995,-0.005386114586144686,-0.06313380599021912,26.161177,0.102799892942466,0.0,-0.01661326363682747,0.9950724840164185,145.1264898,0.0,0.0,75.0,0.0,0.0,162.74,-0.016580627893946133,-0.011131884530186653,-430.0,0.005639779381453991,-37.623552,6.154729074232804,26.181175999999997,265.0,-0.47810474038124084,-0.006298692896962166,17.0,0.0,0.07619276642799377,,,,,,,,,,,,,,,,,,,,,,,,,,,,,,,,,
17.282764999999998,0.00608743354678154,-0.06317487359046936,26.360825,0.102799892942466,0.0,-0.017015336081385612,0.9950700402259827,145.1264899,0.0,0.0,75.0,0.0,0.0,162.71,-0.0164060949687467,-0.022263769060373306,-430.0,0.005867302883416414,-37.6235521,6.154554541307604,26.380982,265.0,-0.44516658782958984,-0.006205849349498749,17.0,0.0,0.07619722187519073,,,,,,,,,,,,,,,,,,,,,,,,,,,,,,,,,
17.482869,0.01563650742173195,-0.063188835978508,26.561352,0.102799892942466,0.0,-0.01877398043870926,0.9950677156448364,145.12649,0.0,0.0,74.0,0.0,0.0,162.68,-0.016580627893946133,-0.03339565545320511,-434.0,0.004891584627330303,-37.6235522,6.154554541307604,26.581086,266.0,-0.40936172008514404,-0.006300192326307297,17.0,0.008816884830594063,0.0762081891298294,,,,,,,,,,,,,,,,,,,,,,,,,,,,,,,,,
17.682904999999998,0.026870960369706154,-0.06323673576116562,26.761233999999998,0.10297442586766545,0.0,-0.019653495401144028,0.995064377784729,145.12649009999998,0.0,0.0,76.0,0.0,0.0,162.64000000000001,-0.016580627893946133,-0.04452753812074661,-433.0,0.004965692292898893,-37.6235524,6.154380008382405,26.781122,266.0,-0.3715797960758209,-0.006307469215244055,17.0,0.017633769661188126,0.0762123167514801,,,,,,,,,,,,,,,,,,,,,,,,,,,,,,,,,
17.862356,0.036385998129844666,-0.06329414993524551,26.920213,0.10297442586766545,0.0,-0.02100919559597969,0.9950605034828186,145.1264903,0.0,0.0,76.0,0.0,0.0,162.59,-0.016580627893946133,-0.06679131090641022,-435.0,0.004194662440568209,-37.623552499999995,6.154380008382405,26.960573,267.0,-0.33867892622947693,-0.006272537633776665,17.0,0.02645065449178219,0.0762176364660263,,,,,,,,,,,,,,,,,,,,,,,,,,,,,,,,,
18.083464,0.05129428952932358,-0.0632985532283783,27.161262999999998,0.10297442586766545,0.0,-0.022005895152688026,0.9950579404830933,145.1264903,0.0,0.0,76.0,0.0,0.0,162.56,-0.016755160819145562,-0.07792319357395172,-431.0,0.004664170555770397,-37.6235526,6.154380008382405,27.181680999999998,266.0,-0.28913751244544983,-0.006357126869261265,17.0,0.044084422290325165,0.07624036818742752,,,,,,,,,,,,,,,,,,,,,,,,,,,,,,,,,
18.282635,0.06232836842536926,-0.06328243017196655,27.361337,0.10297442586766545,0.0,-0.0228037778288126,0.995058000087738,145.1264905,0.0,0.0,76.0,0.0,0.0,162.52,-0.016929693744344994,-0.08905507624149323,-431.0,0.003357894020155072,-37.6235527,6.154380008382405,27.380851999999997,266.0,-0.24477100372314453,-0.006441071163862944,17.0,0.044084422290325165,0.0762457475066185,,,,,,,,,,,,,,,,,,,,,,,,,,,,,,,,,
18.482652,0.07375644892454147,-0.0633273720741272,27.561255,0.10297442586766545,0.0,-0.02411329559981823,0.9950539469718933,145.12649059999998,0.0,0.0,75.0,0.0,0.0,162.49,-0.016755160819145562,-0.10018695890903473,-432.0,0.0018476682016626,-37.6235528,6.154205475457205,27.580869,265.0,-0.19909507036209106,-0.006410472095012665,17.0,0.06171819195151329,0.07626401633024216,,,,,,,,,,,,,,,,,,,,,,,,,,,,,,,,,
18.683079,0.0834595337510109,-0.06340152770280838,27.761397,0.10297442586766545,0.0,-0.02582404762506485,0.9950489401817322,145.12649059999998,0.0,0.0,75.0,0.0,0.0,162.45000000000002,-0.016929693744344994,-0.11131884157657623,-435.0,0.0030921597499400377,-37.6235528,6.154030942532007,27.781295999999998,267.0,-0.15272949635982513,-0.0064452351070940495,17.0,0.0705350786447525,0.07626479119062424,,,,,,,,,,,,,,,,,,,,,,,,,,,,,,,,,
18.882683999999998,0.09437346458435059,-0.06341899931430817,27.961126999999998,0.10297442586766545,0.0,-0.027321573346853256,0.9950481057167053,145.1264907,0.0,0.0,74.0,0.0,0.0,162.41,-0.016755160819145562,-0.11131884157657623,-434.0,0.0030852295458316803,-37.6235529,6.154030942532007,27.980901,266.0,-0.10580162703990936,-0.006390515249222517,17.0,0.0705350786447525,0.07626654952764511,,,,,,,,,,,,,,,,,,,,,,,,,,,,,,,,,
19.102061,0.10437817126512527,-0.06344134360551834,28.160871,0.10297442586766545,0.0,-0.02806628867983818,0.9950495958328247,145.1264909,0.0,0.0,75.0,0.0,0.0,162.38,-0.016580627893946133,-0.12245073169469833,-430.0,0.006199339404702187,-37.623553,6.154030942532007,28.200277999999997,267.0,-0.05773981660604477,-0.006275633815675974,17.0,0.07935196161270142,0.07623714208602905,,,,,,,,,,,,,,,,,,,,,,,,,,,,,,,,,
19.262395999999995,0.11273831874132156,-0.06348951905965805,28.320356999999998,0.10297442586766545,0.0,-0.02860472910106182,0.9950482249259949,145.126491,0.0,0.0,75.0,0.0,0.0,162.33,-0.016231562043547264,-0.13358262181282043,-433.0,0.003618992632254958,-37.623553099999995,6.154030942532007,28.360612999999997,267.0,-0.018313145264983177,-0.006113395560532808,17.0,0.09698572754859924,0.07622876763343811,,,,,,,,,,,,,,,,,,,,,,,,,,,,,,,,,
19.482760999999996,0.12344300001859665,-0.0635463148355484,28.561275,0.10297442586766545,0.0,-0.029097070917487144,0.9950433373451233,145.12649109999998,0.0,0.0,76.0,0.0,0.0,162.29,-0.016057029118347832,-0.14471450448036194,-430.0,0.005075318273156881,-37.623553199999996,6.153856409606807,28.580977999999998,268.0,0.03933398798108101,-0.0060612503439188,17.0,0.10580261796712875,0.0762488842010498,,,,,,,,,,,,,,,,,,,,,,,,,,,,,,,,,
19.682491999999996,0.13471679389476776,-0.06355052441358566,28.76136,0.10297442586766545,0.0,-0.029114168137311935,0.9950447082519531,145.12649109999998,0.0,0.0,75.0,0.0,0.0,162.23,-0.015707963267948967,-0.15584638714790344,-434.0,0.006107456050813198,-37.6235533,6.153856409606807,28.780708999999998,268.0,0.08954199403524399,-0.005863903556019068,17.0,0.11461950093507767,0.07624290138483047,,,,,,,,,,,,,,,,,,,,,,,,,,,,,,,,,
19.882674,0.14488443732261658,-0.06350528448820114,28.961053,0.10297442586766545,0.0,-0.03078099526464939,0.9950474500656128,145.12649109999998,0.0,0.0,75.0,0.0,0.0,162.21,-0.0158824961931484,-0.16697826981544495,-437.0,0.005553957540541887,-37.6235533,6.154030942532007,28.980891,266.0,0.1418265700340271,-0.005928365979343653,17.0,0.11461950093507767,0.0762399286031723,,,,,,,,,,,,,,,,,,,,,,,,,,,,,,,,,
20.082896999999996,0.15432599186897278,-0.0635271817445755,29.161347,0.10297442586766545,0.0,-0.030742885544896126,0.9950514435768127,145.1264912,0.0,0.0,75.0,0.0,0.0,162.17000000000002,-0.0153588974175501,-0.16697826981544495,-434.0,0.006945905741304159,-37.6235534,6.154030942532007,29.181113999999997,267.0,0.1941201090812683,-0.0056913988664746284,17.0,0.11461950093507767,0.07618850469589233,,,,,,,,,,,,,,,,,,,,,,,,,,,,,,,,,
20.282897999999996,0.16160862147808075,-0.06345822662115097,29.360809999999997,0.10297442586766545,0.0,-0.031601179391145706,0.995052695274353,145.1264912,0.0,0.0,75.0,0.0,0.0,162.15,-0.015533430342749533,-0.17811015248298645,-431.0,0.007550144102424383,-37.6235534,6.154030942532007,29.381114999999998,266.0,0.24636229872703552,-0.005769293289631605,17.0,0.12343638390302658,0.07622337341308594,,,,,,,,,,,,,,,,,,,,,,,,,,,,,,,,,
20.482681999999997,0.17106659710407257,-0.06337889283895493,29.561255,0.10297442586766545,0.0,-0.032881248742341995,0.9950573444366455,145.1264913,0.0,0.0,74.0,0.0,0.0,162.12,-0.015707963267948967,-0.17811015248298645,-434.0,0.008787699043750763,-37.6235535,6.154205475457205,29.580899,267.0,0.29742416739463806,-0.00589078338816762,17.0,0.12343638390302658,0.07621944695711136,,,,,,,,,,,,,,,,,,,,,,,,,,,,,,,,,
20.682507,0.1780434101819992,-0.06339388340711594,29.761329,0.10297442586766545,0.0,-0.031767889857292175,0.9950574636459351,145.1264913,0.0,0.0,76.0,0.0,0.0,162.1,-0.015707963267948967,-0.18924203515052795,-432.0,0.009611613117158413,-37.6235536,6.154205475457205,29.780724,267.0,0.34720927476882935,-0.0058519295416772366,17.0,0.1322532743215561,0.07620739191770554,,,,,,,,,,,,,,,,,,,,,,,,,,,,,,,,,
20.882768999999996,0.18533886969089508,-0.06335480511188507,29.960777,0.10297442586766545,0.0,-0.03301287814974785,0.9950583577156067,145.1264913,0.0,0.0,75.0,0.0,0.0,162.04,-0.0158824961931484,-0.20037391781806946,-432.0,0.00983968935906887,-37.623553799999996,6.154205475457205,29.980985999999998,267.0,0.3953850567340851,-0.005970007739961147,17.0,0.1322532743215561,0.07621943950653076,,,,,,,,,,,,,,,,,,,,,,,,,,,,,,,,,
21.082490999999997,0.1924578994512558,-0.06337065249681473,30.161108,0.10297442586766545,0.0,-0.033159494400024414,0.9950588345527649,145.1264913,0.0,0.0,77.0,0.0,0.0,162.0,-0.0158824961931484,-0.22263768315315247,-427.0,0.011204698123037815,-37.6235539,6.154205475457205,30.180708,264.0,0.44409728050231934,-0.005920738447457552,17.0,0.1322532743215561,0.07620420306921005,,,,,,,,,,,,,,,,,,,,,,,,,,,,,,,,,
21.282648000000002,0.19935157895088196,-0.06340596079826355,30.360894,0.102799892942466,0.0,-0.034409694373607635,0.9950582385063171,145.1264914,0.0,0.0,76.0,0.0,0.0,161.96,-0.0158824961931484,-0.23376958072185516,-429.0,0.011426785960793495,-37.623554,6.154205475457205,30.380865,265.0,0.4933792054653168,-0.005998761393129826,17.0,0.1322532743215561,0.07617654651403427,,,,,,,,,,,,,,,,,,,,,,,,,,,,,,,,,
21.482701,0.20601725578308105,-0.0635751485824585,30.561166999999998,0.102799892942466,0.0,-0.034532979130744934,0.9950515627861023,145.1264915,0.0,0.0,76.0,0.0,0.0,161.91,-0.015533430342749533,-0.24490146338939667,-433.0,0.013281825929880142,-37.623554,6.153856409606807,30.580917999999997,268.0,0.5428918600082397,-0.005773899145424366,17.0,0.141070157289505,0.07614045590162277,,,,,,,,,,,,,,,,,,,,,,,,,,,,,,,,,
21.682778999999996,0.21225330233573914,-0.06369002908468246,30.761153,0.102799892942466,0.0,-0.03547607734799385,0.995045006275177,145.12649159999998,0.0,0.0,74.0,0.0,0.0,161.89000000000001,-0.015707963267948967,-0.24490146338939667,-434.0,0.012908353470265865,-37.6235542,6.153681876681607,30.780996,267.0,0.5935276746749878,-0.005840360186994076,17.0,0.14988704025745392,0.07612581551074982,,,,,,,,,,,,,,,,,,,,,,,,,,,,,,,,,
21.882556,0.2170954942703247,-0.06367374956607819,30.960604,0.102799892942466,0.0,-0.0363558866083622,0.9950441718101501,145.1264917,0.0,0.0,76.0,0.0,0.0,161.86,-0.016057029118347832,-0.26716524362564087,-436.0,0.011370974592864513,-37.6235542,6.153681876681607,30.980773,266.0,0.6434306502342224,-0.005991877987980843,17.0,0.15870392322540283,0.07613695412874222,,,,,,,,,,,,,,,,,,,,,,,,,,,,,,,,,
22.082595999999995,0.22258302569389343,-0.06361733376979828,31.161161999999997,0.102799892942466,0.0,-0.03702477365732193,0.9950481653213501,145.1264919,0.0,0.0,75.0,0.0,0.0,161.83,-0.0158824961931484,-0.26716524362564087,-433.0,0.012602333910763264,-37.623554299999995,6.153681876681607,31.180812999999997,266.0,0.6919282674789429,-0.005967076402157545,17.0,0.16752080619335175,0.07613474875688553,,,,,,,,,,,,,,,,,,,,,,,,,,,,,,,,,
22.282928999999996,0.2280721515417099,-0.06356443464756012,31.361026,0.10262536001726658,0.0,-0.03733476251363754,0.9950533509254456,145.12649199999998,0.0,0.0,76.0,0.0,0.0,161.79,-0.016057029118347832,-0.2782971262931824,-432.0,0.010976700112223625,-37.623554399999996,6.153856409606807,31.381145999999998,265.0,0.7396621704101562,-0.006038932595402002,17.0,0.18515457212924957,0.07610539346933365,,,,,,,,,,,,,,,,,,,,,,,,,,,,,,,,,
22.482802,0.23274287581443787,-0.06348088383674622,31.561182,0.102799892942466,0.0,-0.039813313633203506,0.9950566291809082,145.12649199999998,0.0,0.0,76.0,0.0,0.0,161.75,-0.016231562043547264,-0.2894290089607239,-438.0,0.010482140816748142,-37.623554399999996,6.154030942532007,31.581018999999998,266.0,0.7870147228240967,-0.006127243395894766,17.0,0.1939714550971985,0.07612569630146027,,,,,,,,,,,,,,,,,,,,,,,,,,,,,,,,,
22.683045,0.23609806597232819,-0.06341150403022766,31.761125,0.10262536001726658,0.0,-0.04056615009903908,0.9950622320175171,145.1264922,0.0,0.0,75.0,0.0,0.0,161.74,-0.016231562043547264,-0.2894290089607239,-432.0,0.010523631237447262,-37.623554399999996,6.154205475457205,31.781261999999998,266.0,0.8339263796806335,-0.006174508482217789,17.0,0.1939714550971985,0.07610607892274857,,,,,,,,,,,,,,,,,,,,,,,,,,,,,,,,,
22.881515,0.2402094304561615,-0.06335780769586563,31.960828,0.10262536001726658,0.0,-0.040720097720623016,0.9950639009475708,145.1264922,0.0,0.0,76.0,0.0,0.0,161.71,-0.016580627893946133,-0.2894290089607239,-431.0,0.010807540267705917,-37.6235545,6.154205475457205,31.979732,267.0,0.8793431520462036,-0.006299520377069712,17.0,0.2116052359342575,0.07611843198537827,,,,,,,,,,,,,,,,,,,,,,,,,,,,,,,,,
23.081502999999998,0.24552883207798004,-0.06329527497291565,32.161318,0.102799892942466,0.0,-0.04081089794635773,0.9950649738311768,145.1264922,0.0,0.0,76.0,0.0,0.0,161.69,-0.016929693744344994,-0.3005608916282654,-434.0,0.011687446385622025,-37.6235546,6.154380008382405,32.179719999999996,265.0,0.9236051440238953,-0.006497825030237436,17.0,0.2116052359342575,0.07613921165466309,,,,,,,,,,,,,,,,,,,,,,,,,,,,,,,,,
23.281481999999997,0.24921372532844543,-0.0633273646235466,32.36096,0.10262536001726658,0.0,-0.04064349830150604,0.9950631260871887,145.1264922,0.0,0.0,76.0,0.0,0.0,161.65,-0.016929693744344994,-0.3116927742958069,-432.0,0.011834712699055672,-37.6235547,6.154205475457205,32.379698999999995,267.0,0.966161847114563,-0.006521804723888636,17.0,0.2116052359342575,0.0761353000998497,,,,,,,,,,,,,,,,,,,,,,,,,,,,,,,,,
23.481645,0.2544182538986206,-0.06343352794647217,32.561174,0.10262536001726658,0.0,-0.04151241108775139,0.995058536529541,145.1264922,0.0,0.0,75.0,0.0,0.0,161.63,-0.016755160819145562,-0.3228246569633484,-435.0,0.011830078437924385,-37.6235547,6.154030942532007,32.579862,265.0,1.0086168050765991,-0.006431104149669409,17.0,0.2116052359342575,0.07611490041017532,,,,,,,,,,,,,,,,,,,,,,,,,,,,,,,,,
23.681525,0.25646543502807617,-0.06352674216032028,32.761264,0.10262536001726658,0.0,-0.04184500873088837,0.9950511455535889,145.1264923,0.0,0.0,76.0,0.0,0.0,161.6,-0.016929693744344994,-0.3228246569633484,-436.0,0.010279498063027859,-37.6235548,6.153856409606807,32.779742,267.0,1.050205945968628,-0.006475632078945637,17.0,0.2116052359342575,0.07612983137369156,,,,,,,,,,,,,,,,,,,,,,,,,,,,,,,,,
23.881487,0.2571314871311188,-0.06353438645601273,32.960813,0.10262536001726658,0.0,-0.042429111897945404,0.995050311088562,145.1264923,0.0,0.0,76.0,0.0,0.0,161.57,-0.016929693744344994,-0.3339565396308899,-433.0,0.01039185095578432,-37.623554899999995,6.153856409606807,32.979704,265.0,1.0902185440063477,-0.006463095545768738,17.0,0.22042211890220642,0.07613499462604523,,,,,,,,,,,,,,,,,,,,,,,,,,,,,,,,,
24.081488999999998,0.25823086500167847,-0.0635199025273323,33.161049,0.10262536001726658,0.0,-0.04379183426499367,0.9950525164604187,145.1264924,0.0,0.0,76.0,0.0,0.0,161.57,-0.016929693744344994,-0.3450884222984314,-433.0,0.009294494986534119,-37.623554899999995,6.153856409606807,33.179705999999996,265.0,1.1294375658035278,-0.006506169214844704,17.0,0.22042211890220642,0.0761142373085022,,,,,,,,,,,,,,,,,,,,,,,,,,,,,,,,,
24.281565999999998,0.2592107951641083,-0.06359570473432541,33.360779,0.10262536001726658,0.0,-0.045011091977357864,0.9950479865074158,145.1264924,0.0,0.0,75.0,0.0,0.0,161.57,-0.016929693744344994,-0.3450884222984314,-433.0,0.007635351736098528,-37.623554999999996,6.153681876681607,33.379782999999996,268.0,1.1665217876434326,-0.006487214006483555,17.0,0.22923900187015533,0.07611268758773804,,,,,,,,,,,,,,,,,,,,,,,,,,,,,,,,,
24.48155,0.25970643758773804,-0.06362655013799667,33.561659999999996,0.10262536001726658,0.0,-0.04433060437440872,0.99504554271698,145.12649249999998,0.0,0.0,76.0,0.0,0.0,161.54,-0.017278759594743863,-0.3562203049659729,-435.0,0.005586042534559965,-37.6235551,6.153681876681607,33.579767,266.0,1.2005529403686523,-0.006598953623324633,17.0,0.22923900187015533,0.07610978931188583,,,,,,,,,,,,,,,,,,,,,,,,,,,,,,,,,
24.681531999999997,0.25984883308410645,-0.06360342353582382,33.761288,0.10262536001726658,0.0,-0.045019518584012985,0.9950478672981262,145.12649249999998,0.0,0.0,78.0,0.0,0.0,161.53,-0.017453292519943295,-0.3673521876335144,-431.0,0.005033660680055618,-37.6235551,6.153681876681607,33.779748999999995,267.0,1.2324367761611938,-0.006695829797536135,17.0,0.23805588483810425,0.07608931511640549,,,,,,,,,,,,,,,,,,,,,,,,,,,,,,,,,
24.881194,0.25957536697387695,-0.06355229765176773,33.960842,0.10262536001726658,0.0,-0.04553986340761185,0.9950517416000366,145.1264926,0.0,0.0,77.0,0.0,0.0,161.53,-0.017278759594743863,-0.3673521876335144,-435.0,0.003596238326281309,-37.6235553,6.153856409606807,33.979411,265.0,1.262750267982483,-0.006665936671197414,17.0,0.23805588483810425,0.07608456164598465,,,,,,,,,,,,,,,,,,,,,,,,,,,,,,,,,
25.101978000000003,0.25737136602401733,-0.06354618072509766,34.161057,0.10262536001726658,0.0,-0.0450381338596344,0.9950515031814575,145.1264928,0.0,0.0,77.0,0.0,0.0,161.51,-0.017627825445142728,-0.3896159529685974,-431.0,0.0030727596022188663,-37.6235554,6.153856409606807,34.200195,265.0,1.2904245853424072,-0.006798019632697105,17.0,0.24687276780605316,0.07608082890510559,,,,,,,,,,,,,,,,,,,,,,,,,,,,,,,,,
25.281596,0.25608372688293457,-0.06361428648233414,34.360602,0.10245082709206714,0.0,-0.045097675174474716,0.9950498342514038,145.1264929,0.0,0.0,76.0,0.0,0.0,161.49,-0.017627825445142728,-0.4007478356361389,-430.0,0.0015531034441664815,-37.623555499999995,6.153681876681607,34.379813,264.0,1.315898060798645,-0.006773699540644884,17.0,0.2645065486431122,0.07604745030403137,,,,,,,,,,,,,,,,,,,,,,,,,,,,,,,,,
25.481518,0.2559429109096527,-0.06373721361160278,34.561622,0.10245082709206714,0.0,-0.04605991020798683,0.9950420260429382,145.12649299999998,0.0,0.0,76.0,0.0,0.0,161.49,-0.017278759594743863,-0.4118797183036804,-431.0,0.0001864032237790525,-37.6235557,6.153332810831208,34.579735,264.0,1.3404659032821655,-0.006619502790272236,17.0,0.2733234167098999,0.07605991512537003,,,,,,,,,,,,,,,,,,,,,,,,,,,,,,,,,
25.681932000000003,0.25527438521385193,-0.06375069916248322,34.761187,0.10262536001726658,0.0,-0.04682568833231926,0.9950384497642517,145.1264931,0.0,0.0,76.0,0.0,0.0,161.48,-0.017453292519943295,-0.4341434836387634,-432.0,-0.0019144401885569096,-37.6235559,6.153332810831208,34.780149,266.0,1.363425850868225,-0.006751151755452156,17.0,0.28214031457901,0.07608447968959808,,,,,,,,,,,,,,,,,,,,,,,,,,,,,,,,,
25.881593000000002,0.2546261250972748,-0.06383228302001953,34.960414,0.10245082709206714,0.0,-0.048245467245578766,0.9950371980667114,145.1264932,0.0,0.0,76.0,0.0,0.0,161.47,-0.017278759594743863,-0.4564072787761688,-431.0,-0.003608995582908392,-37.623556,6.153158277906009,34.97981,266.0,1.3846309185028076,-0.006606449838727713,17.0,0.29095718264579773,0.07604487240314484,,,,,,,,,,,,,,,,,,,,,,,,,,,,,,,,,
26.062075999999998,0.25353947281837463,-0.06384430825710297,35.120664999999995,0.10262536001726658,0.0,-0.04894803464412689,0.9950332045555115,145.1264932,0.0,0.0,76.0,0.0,0.0,161.46,-0.017453292519943295,-0.4675391614437103,-433.0,-0.005155540071427822,-37.623556,6.153158277906009,35.160292999999996,266.0,1.399802803993225,-0.006677266675978899,17.0,0.29977408051490784,0.07608083635568619,,,,,,,,,,,,,,,,,,,,,,,,,,,,,,,,,
26.281554,0.24926267564296722,-0.06386256217956543,35.360838,0.10245082709206714,0.0,-0.04973726347088814,0.9950360059738159,145.1264933,0.0,0.0,76.0,0.0,0.0,161.48,-0.016929693744344994,-0.4675391614437103,-434.0,-0.007851673290133476,-37.623556,6.153158277906009,35.379771,267.0,1.423303246498108,-0.006485963240265846,17.0,0.29977408051490784,0.07604587078094482,,,,,,,,,,,,,,,,,,,,,,,,,,,,,,,,,
26.481585000000003,0.24635449051856995,-0.06376523524522781,35.561254,0.10245082709206714,0.0,-0.05097176507115364,0.9950422048568726,145.1264934,0.0,0.0,76.0,0.0,0.0,161.48,-0.017278759594743863,-0.4675391614437103,-432.0,-0.007956814020872116,-37.623556,6.153332810831208,35.579802,265.0,1.4387776851654053,-0.006672412157058716,17.0,0.30859094858169556,0.07602985948324203,,,,,,,,,,,,,,,,,,,,,,,,,,,,,,,,,
26.681576999999997,0.2436639368534088,-0.06374286860227585,35.761294,0.10245082709206714,0.0,-0.05152144283056259,0.9950438737869263,145.1264934,0.0,0.0,75.0,0.0,0.0,161.47,-0.017278759594743863,-0.4675391614437103,-432.0,-0.007916678674519062,-37.6235561,6.153332810831208,35.779793999999995,266.0,1.451993465423584,-0.006648332811892033,17.0,0.31740784645080566,0.07602941244840622,,,,,,,,,,,,,,,,,,,,,,,,,,,,,,,,,
26.881642999999997,0.2403404414653778,-0.06370283663272858,35.960622,0.10245082709206714,0.0,-0.052537139505147934,0.9950460195541382,145.1264934,0.0,0.0,76.0,0.0,0.0,161.45000000000002,-0.017453292519943295,-0.47867104411125183,-435.0,-0.009312238544225693,-37.623556199999996,6.153507343756408,35.979859999999995,267.0,1.4635295867919922,-0.006705744192004204,17.0,0.31740784645080566,0.07602991163730621,,,,,,,,,,,,,,,,,,,,,,,,,,,,,,,,,
27.101919000000002,0.23779833316802979,-0.06366638094186783,36.160775,0.10245082709206714,0.0,-0.05245678126811981,0.9950494170188904,145.1264934,0.0,0.0,77.0,0.0,0.0,161.42000000000002,-0.017278759594743863,-0.48980292677879333,-430.0,-0.010237464681267738,-37.6235563,6.153507343756408,36.200136,267.0,1.4742008447647095,-0.006642135791480541,17.0,0.31740784645080566,0.07602111250162125,,,,,,,,,,,,,,,,,,,,,,,,,,,,,,,,,
27.281570000000002,0.23403717577457428,-0.06362942606210709,36.360861,0.10245082709206714,0.0,-0.05302899703383446,0.9950514435768127,145.1264933,0.0,0.0,76.0,0.0,0.0,161.41,-0.017453292519943295,-0.5009347796440125,-434.0,-0.009605980478227139,-37.6235564,6.153681876681607,36.379787,267.0,1.4855422973632812,-0.006694921758025885,17.0,0.31740784645080566,0.0760205090045929,,,,,,,,,,,,,,,,,,,,,,,,,,,,,,,,,
27.481194000000002,0.23065079748630524,-0.06363273411989212,36.561423,0.10245082709206714,0.0,-0.05317017063498497,0.995049774646759,145.1264933,0.0,0.0,76.0,0.0,0.0,161.41,-0.01710422666954443,-0.512066662311554,-432.0,-0.00969504565000534,-37.6235565,6.153681876681607,36.579411,267.0,1.4968929290771484,-0.006594167556613684,17.0,0.30859094858169556,0.07604904472827911,,,,,,,,,,,,,,,,,,,,,,,,,,,,,,,,,
27.681762999999997,0.2286159098148346,-0.0637161135673523,36.761255999999996,0.10245082709206714,0.0,-0.0536247193813324,0.9950454235076904,145.1264934,0.0,0.0,76.0,0.0,0.0,161.41,-0.01710422666954443,-0.5231985449790955,-433.0,-0.010018844157457352,-37.6235566,6.153507343756408,36.779979999999995,265.0,1.5075976848602295,-0.006544903386384249,17.0,0.30859094858169556,0.07603997737169266,,,,,,,,,,,,,,,,,,,,,,,,,,,,,,,,,
27.881572,0.22267045080661774,-0.06364696472883224,36.960744999999996,0.10262536001726658,0.0,-0.054855067282915115,0.9950475692749023,145.1264933,0.0,0.0,77.0,0.0,0.0,161.42000000000002,-0.01710422666954443,-0.5343304872512817,-430.0,-0.012533039785921574,-37.6235566,6.153681876681607,36.979789,266.0,1.516852855682373,-0.006579376291483641,17.0,0.31740784645080566,0.07606729865074158,,,,,,,,,,,,,,,,,,,,,,,,,,,,,,,,,
28.0815,0.22018970549106598,-0.06364234536886215,37.161184,0.10262536001726658,0.0,-0.05475713312625885,0.9950482249259949,145.1264932,0.0,0.0,76.0,0.0,0.0,161.41,-0.01710422666954443,-0.5343304872512817,-433.0,-0.01264672726392746,-37.6235566,6.153681876681607,37.179717,267.0,1.5243496894836426,-0.006594983395189047,17.0,0.30859094858169556,0.07606150209903717,,,,,,,,,,,,,,,,,,,,,,,,,,,,,,,,,
28.281484,0.21551063656806946,-0.06368015706539154,37.36082,0.10245082709206714,0.0,-0.056440550833940506,0.9950456023216248,145.1264931,0.0,0.0,77.0,0.0,0.0,161.41,-0.017278759594743863,-0.5343304872512817,-432.0,-0.01161837950348854,-37.6235565,6.153507343756408,37.379701,268.0,1.5306228399276733,-0.00662284716963768,17.0,0.29977408051490784,0.0760609358549118,,,,,,,,,,,,,,,,,,,,,,,,,,,,,,,,,
28.481518,0.21098077297210693,-0.06372436881065369,37.561257999999995,0.10245082709206714,0.0,-0.05792810395359993,0.9950448274612427,145.12649299999998,0.0,0.0,77.0,0.0,0.0,161.42000000000002,-0.01710422666954443,-0.5231985449790955,-429.0,-0.011441109701991081,-37.6235564,6.153507343756408,37.579735,266.0,1.5353952646255493,-0.006535372696816921,17.0,0.29095718264579773,0.07604172080755234,,,,,,,,,,,,,,,,,,,,,,,,,,,,,,,,,
28.681556,0.20625558495521545,-0.06379464268684387,37.761219,0.10262536001726658,0.0,-0.058772869408130646,0.9950392842292786,145.12649299999998,0.0,0.0,77.0,0.0,0.0,161.44,-0.01710422666954443,-0.512066662311554,-430.0,-0.011395360343158245,-37.6235564,6.153332810831208,37.779773,267.0,1.5387145280838013,-0.006506690755486488,17.0,0.28214031457901,0.07605887204408646,,,,,,,,,,,,,,,,,,,,,,,,,,,,,,,,,
28.862183,0.2022119015455246,-0.06383286416530609,37.920271,0.10245082709206714,0.0,-0.06030447408556938,0.9950372576713562,145.1264929,0.0,0.0,75.0,0.0,0.0,161.41,-0.016929693744344994,-0.512066662311554,-429.0,-0.010885832831263542,-37.6235564,6.153158277906009,37.9604,267.0,1.5382907390594482,-0.0064823501743376255,17.0,0.28214031457901,0.07605460286140442,,,,,,,,,,,,,,,,,,,,,,,,,,,,,,,,,
29.081587,0.19706390798091888,-0.06380852311849594,38.161069999999995,0.10262536001726658,0.0,-0.062063153833150864,0.9950360059738159,145.1264929,0.0,0.0,77.0,0.0,0.0,161.4,-0.017278759594743863,-0.512066662311554,-427.0,-0.009216614998877048,-37.6235564,6.153332810831208,38.179804,265.0,1.5400465726852417,-0.006611252203583717,17.0,0.2733234167098999,0.07607966661453247,,,,,,,,,,,,,,,,,,,,,,,,,,,,,,,,,
29.281478,0.1915876418352127,-0.06380804628133774,38.360822,0.10262536001726658,0.0,-0.061451464891433716,0.9950367212295532,145.1264928,0.0,0.0,76.0,0.0,0.0,161.38,-0.016929693744344994,-0.512066662311554,-434.0,-0.008100073784589767,-37.6235564,6.153332810831208,38.379695,265.0,1.540655255317688,-0.006438372656702995,17.0,0.2733234167098999,0.0760854184627533,,,,,,,,,,,,,,,,,,,,,,,,,,,,,,,,,
29.481485999999997,0.1879993975162506,-0.06384463608264923,38.561172,0.10262536001726658,0.0,-0.06267006695270538,0.995035707950592,145.1264927,0.0,0.0,76.0,0.0,0.0,161.35,-0.016755160819145562,-0.512066662311554,-430.0,-0.008320387452840805,-37.6235564,6.153158277906009,38.579702999999995,266.0,1.5417921543121338,-0.006366138346493244,17.0,0.2645065486431122,0.07607515156269073,,,,,,,,,,,,,,,,,,,,,,,,,,,,,,,,,
29.681494,0.18395189940929413,-0.06384635716676712,38.761371,0.10262536001726658,0.0,-0.06336735188961029,0.9950346946716309,145.1264928,0.0,0.0,76.0,0.0,0.0,161.32,-0.016755160819145562,-0.512066662311554,-429.0,-0.007579986471682787,-37.6235565,6.153158277906009,38.779711,266.0,1.5440586805343628,-0.006341608241200447,17.0,0.2556896507740021,0.07608939707279205,,,,,,,,,,,,,,,,,,,,,,,,,,,,,,,,,
29.881498999999998,0.18043753504753113,-0.06391449272632599,38.960752,0.10262536001726658,0.0,-0.06374183297157288,0.9950306415557861,145.1264928,0.0,0.0,77.0,0.0,0.0,161.29,-0.016580627893946133,-0.5231985449790955,-430.0,-0.006652955897152424,-37.6235566,6.153158277906009,38.979715999999996,266.0,1.548181176185608,-0.0062403311021625996,17.0,0.2645065486431122,0.07609187811613083,,,,,,,,,,,,,,,,,,,,,,,,,,,,,,,,,
30.081584999999997,0.176858589053154,-0.06411059200763702,39.161164,0.10262536001726658,0.0,-0.06572005897760391,0.9950217604637146,145.1264928,0.0,0.0,75.0,0.0,0.0,161.25,-0.0158824961931484,-0.5343304872512817,-431.0,-0.004881914705038071,-37.6235566,6.152809212055611,39.179801999999995,266.0,1.5541210174560547,-0.005943672731518745,17.0,0.2645065486431122,0.07606739550828934,,,,,,,,,,,,,,,,,,,,,,,,,,,,,,,,,
30.262107999999998,0.1756209284067154,-0.06417767703533173,39.320161,0.10262536001726658,0.0,-0.06528282910585403,0.9950194358825684,145.1264928,0.0,0.0,75.0,0.0,0.0,161.21,-0.0158824961931484,-0.5343304872512817,-433.0,-0.004356001503765583,-37.6235567,6.1526346791304105,39.360324999999996,267.0,1.5596556663513184,-0.005873328074812889,17.0,0.2645065486431122,0.07604615390300751,,,,,,,,,,,,,,,,,,,,,,,,,,,,,,,,,
30.481476,0.17362084984779358,-0.06409569084644318,39.561332,0.10262536001726658,0.0,-0.0664093866944313,0.9950223565101624,145.1264927,0.0,0.0,77.0,0.0,0.0,161.19,-0.016057029118347832,-0.5454623699188232,-429.0,-0.0033419965766370296,-37.623556799999996,6.152809212055611,39.579693,265.0,1.5728721618652344,-0.005987308919429779,17.0,0.2645065486431122,0.07606939226388931,,,,,,,,,,,,,,,,,,,,,,,,,,,,,,,,,
30.681841,0.17166483402252197,-0.06411736458539963,39.761237,0.10262536001726658,0.0,-0.06739529222249985,0.9950264096260071,145.1264928,0.0,0.0,75.0,0.0,0.0,161.12,-0.015533430342749533,-0.5565942525863647,-432.0,-0.0005643607000820339,-37.6235569,6.152809212055611,39.780058,266.0,1.5852365493774414,-0.0057578012347221375,17.0,0.2556896507740021,0.07601544260978699,,,,,,,,,,,,,,,,,,,,,,,,,,,,,,,,,
30.881557,0.17035652697086334,-0.06400030106306076,39.960842,0.10262536001726658,0.0,-0.06781406700611115,0.9950306415557861,145.1264928,0.0,0.0,75.0,0.0,0.0,161.11,-0.0158824961931484,-0.5677261352539062,-430.0,-0.001811982481740415,-37.6235569,6.152983744980809,39.979774,267.0,1.6006560325622559,-0.005941787734627724,17.0,0.2645065486431122,0.0760447084903717,,,,,,,,,,,,,,,,,,,,,,,,,,,,,,,,,
31.101995000000002,0.16918593645095825,-0.06391488015651703,40.161189,0.10262536001726658,0.0,-0.06895598769187927,0.9950340986251831,145.12649299999998,0.0,0.0,75.0,0.0,0.0,161.05,-0.016057029118347832,-0.5677261352539062,-431.0,-0.0019456262234598398,-37.6235569,6.153158277906009,40.200212,267.0,1.6174510717391968,-0.0060296496376395226,17.0,0.2645065486431122,0.07606438547372818,,,,,,,,,,,,,,,,,,,,,,,,,,,,,,,,,
31.281588999999997,0.16690295934677124,-0.06389369815587997,40.360806,0.10262536001726658,0.0,-0.07057264447212219,0.9950367212295532,145.1264932,0.0,0.0,75.0,0.0,0.0,161.01,-0.0158824961931484,-0.5677261352539062,-432.0,-0.00013475253945216537,-37.6235571,6.153158277906009,40.379805999999995,267.0,1.6367310285568237,-0.005945032928138971,17.0,0.28214031457901,0.07605516165494919,,,,,,,,,,,,,,,,,,,,,,,,,,,,,,,,,
