time_index,tx_controls_1,servos_1,tx_controls_4,tx_controls_3,position_z,tx_controls_2,altitude_gps,velocity_x,global_position_longitude,velocity_y,wind_x,altitude_baro,axis_rate_yaw,tx_controls_7,axis_rate_pitch,axis_rate_roll,servos_6,servos_0,servos_7,wind_y,velocity_z,servos_5,mode_0,acceleration_y,position_x,mode_2,tx_controls_0,airspeed_0,servos_3,acceleration_z,tx_controls_5,position_y,global_position_latitude,attitude_pitch,acceleration_x,rpm_0,time_actual,mode_1,magnetometer_1,servos_4,tx_controls_6,attitude_roll,time_flight,magnetometer_0,gps_sat_count_0,magnetometer_2,servos_2,attitude_yaw,rpm_1,battery_0,current_3,current_2,current_1,battery_1,airspeed_1,current_0
0.0,1572.0,0.0,1417.0,1608.0,-0.6037100553512573,1494.0,7.38,-0.049974311143159866,-2.7913538,-0.061869360506534576,0.0,0.6635042428970337,0.0,1501.0,0.0,0.0,0.0,0.0,0.0,0.0,0.0318978987634182,0.0,5.0,-0.1960616111755371,0.0,1.0,1000.0,0.0,0.0,-9.737326622009277,1500.0,0.0,51.4594082,0.02181661564992912,1.0847508907318115,750.13134765625,35.694088,5.0,-2.0,0.0,1500.0,0.06440264939859076,35.733288,173.0,11.0,458.0,0.0,2.6007151183967503,-14.0,,,,,,,
0.09962099999999907,1572.0,0.0,1418.0,1608.0,-0.6075297594070435,1494.0,7.38,-0.05079643428325653,-2.7913538,-0.06131898984313011,0.0,0.6554127335548401,0.0,1500.0,0.0,0.0,0.0,0.0,0.0,0.0,0.0284882839769125,0.0,5.0,-0.19454863667488098,0.0,1.0,1000.0,0.0,0.0,-9.758285522460938,1500.0,0.0,51.4594082,0.02181661564992912,1.0764366388320923,750.1688385009766,35.813607999999995,5.0,-2.0,0.0,1500.0,0.06300638599699529,35.832909,173.0,11.0,458.0,0.0,2.6019368488731467,-14.0,,,,,,,
0.19997199999999538,1572.0,0.0,1418.0,1607.0,-0.6104916334152222,1495.0,7.33,-0.04355384781956673,-2.7913535,-0.049355268478393555,0.0,0.6769900918006897,0.0,1500.0,0.0,0.0,0.0,0.0,0.0,0.0,0.026399537920951843,0.0,5.0,-0.18812254071235657,0.0,1.0,1000.0,0.0,0.0,-9.741531372070312,1500.0,0.0,51.4594082,0.02181661564992912,1.0865851640701294,750.13134765625,35.893332,5.0,-2.0,0.0,1500.0,0.0635299847725936,35.93326,173.0,11.0,458.0,0.0,2.602460447648745,-14.0,,,,,,,
0.2996079999999992,1572.0,0.0,1418.0,1607.0,-0.6154568791389465,1495.0,7.33,-0.0441415011882782,-2.7913535,-0.04980425536632538,0.0,0.6662014126777649,0.0,1500.0,0.0,0.0,0.0,0.0,0.0,0.0,0.022727321833372116,0.0,5.0,-0.19110526144504547,0.0,1.0,1000.0,0.0,0.0,-9.736470222473145,1500.0,0.0,51.4594082,0.02181661564992912,1.0847114324569702,750.13134765625,36.013556,5.0,-2.0,0.0,1500.0,0.062482787221396996,36.032896,173.0,11.0,458.0,0.0,2.603682178125141,-14.0,,,,,,,
0.3998979999999932,1572.0,0.0,1417.0,1608.0,-0.6190841794013977,1494.0,7.23,-0.03850574046373367,-2.7913533,-0.03979058563709259,0.0,0.5691032409667969,-0.00017453292519943296,1500.0,0.0,0.0,0.0,0.0,0.0,0.0,0.02076852321624756,0.0,5.0,-0.17858365178108215,0.0,1.0,1000.0,0.0,0.0,-9.744379997253418,1501.0,0.0,51.4594077,0.02181661564992912,1.0818679332733154,750.0750579833984,36.093727,5.0,-2.0,0.0,1500.0,0.06300638599699529,36.133185999999995,173.0,11.0,458.0,0.0,2.604205776900739,-14.0,,,,,,,
0.4996769999999984,1572.0,0.0,1418.0,1608.0,-0.6227844953536987,1494.0,7.23,-0.03902954235672951,-2.7913533,-0.04054192081093788,0.0,0.6823844313621521,-0.00017453292519943296,1500.0,0.0,0.0,0.0,0.0,0.0,0.0,0.0177494864910841,0.0,5.0,-0.2006782591342926,0.0,1.0,1000.0,0.0,0.0,-9.747278213500977,1500.0,0.0,51.4594077,0.02181661564992912,1.1029553413391113,750.13134765625,36.213564,5.0,-2.0,0.0,1500.0,0.06230825429619757,36.232965,173.0,11.0,458.0,0.0,2.6052529744519357,-14.0,,,,,,,
0.5999020000000002,1572.0,0.0,1418.0,1608.0,-0.6247889399528503,1494.0,7.12,-0.034715671092271805,-2.7913531,-0.03200838714838028,0.0,0.7309334874153137,-0.00034906585039886593,1500.0,0.0,0.0,0.0,0.0,0.0,0.0,0.01621199958026409,0.0,5.0,-0.17934063076972961,0.0,1.0,1000.0,0.0,0.0,-9.736202239990234,1500.0,0.0,51.459407,0.021642082724729686,1.1049972772598267,750.0750579833984,36.293707,5.0,-2.0,0.0,1500.0,0.06265732014659643,36.33319,173.0,11.0,458.0,0.0,2.6057765732275344,-14.0,,,,,,,
0.6996349999999936,1572.0,0.0,1418.0,1608.0,-0.6298081278800964,1494.0,7.12,-0.03684736788272858,-2.7913531,-0.03301334008574486,0.0,0.6850816011428833,-0.00034906585039886593,1500.0,0.0,0.0,0.0,0.0,0.0,0.0,0.013460593298077583,0.0,5.0,-0.19733458757400513,0.0,1.0,1000.0,0.0,0.0,-9.742897987365723,1500.0,0.0,51.459407,0.021642082724729686,1.0791938304901123,750.0750579833984,36.413595,5.0,-2.0,0.0,1500.0,0.06213372137099813,36.432922999999995,173.0,11.0,458.0,0.0,2.606823770778731,-14.0,,,,,,,
0.799982,1572.0,0.0,1418.0,1607.0,-0.63400799036026,1495.0,7.04,-0.033010344952344894,-2.7913528,-0.026782602071762085,0.0,0.7039617896080017,-0.0005235987755982988,1500.0,0.0,0.0,0.0,0.0,0.0,0.0,0.011529479175806046,0.0,5.0,-0.16749030351638794,0.0,1.0,1000.0,0.0,0.0,-9.739692687988281,1500.0,0.0,51.4594064,0.021642082724729686,1.0904885530471802,750.0375137329102,36.493333,5.0,-2.0,0.0,1500.0,0.062482787221396996,36.53327,173.0,11.0,458.0,0.0,2.607347369554329,-14.0,,,,,,,
0.899719999999995,1571.0,0.0,1417.0,1608.0,-0.6406922936439514,1495.0,7.04,-0.033969420939683914,-2.7913528,-0.027911627665162086,0.0,0.6419268250465393,-0.0006981317007977319,1500.0,0.0,0.00017453292519943296,0.0,0.0,0.0,0.0,0.008007385767996311,0.0,5.0,-0.2174902856349945,0.0,1.0,1000.0,0.0,0.0,-9.740581512451172,1500.0,0.0,51.4594064,0.021642082724729686,1.0872693061828613,750.0750579833984,36.613987,5.0,-2.0,0.0,1500.0,0.0619591884457987,36.633008,173.0,11.0,458.0,0.0,2.6083945671055258,-14.0,,,,,,,
1.0000219999999942,1572.0,0.0,1418.0,1608.0,-0.6447264552116394,1494.0,7.01,-0.03084450215101242,-2.7913520999999997,-0.021743550896644592,0.0,0.7444193959236145,-0.0008726646259971648,1500.0,0.0,0.00017453292519943296,0.0,0.0,0.0,0.0,0.006111391820013523,0.0,5.0,-0.16093392670154572,0.0,1.0,1000.0,0.0,0.0,-9.750097274780273,1500.0,0.0,51.459406099999995,0.021642082724729686,1.096738576889038,750.0375137329102,36.693729999999995,5.0,-2.0,0.0,1500.0,0.06213372137099813,36.733309999999996,173.0,11.0,458.0,0.0,2.6090926988063234,-14.0,,,,,,,
1.0997050000000002,1572.0,0.0,1418.0,1607.0,-0.6510825753211975,1495.0,7.01,-0.03211335092782974,-2.7913520999999997,-0.02386041358113289,0.0,0.6419268250465393,-0.0010471975511965976,1500.0,0.0,0.00034906585039886593,0.0,0.0,0.0,0.0,0.0028439979068934917,0.0,5.0,-0.21921128034591675,0.0,1.0,1000.0,0.0,0.0,-9.737648010253906,1500.0,0.0,51.459406099999995,0.021642082724729686,1.09013032913208,750.0750579833984,36.813544,5.0,-2.0,0.0,1500.0,0.06161012259539984,36.832993,173.0,11.0,458.0,0.0,2.61013989635752,-14.0,,,,,,,
1.1998389999999972,1571.0,0.0,1417.0,1608.0,-0.6552267670631409,1495.0,6.98,-0.029388347640633583,-2.7913514,-0.01829710230231285,0.0,0.5070682764053345,-0.0012217304763960308,1500.0,0.0,0.00034906585039886593,0.0,0.0,0.0,0.0,0.0013490929268300533,0.0,5.0,-0.17175884544849396,0.0,1.0,1001.0,0.0,0.0,-9.748394966125488,1500.0,0.0,51.4594056,0.021642082724729686,1.084460973739624,750.0750579833984,36.893588,5.0,-2.0,0.0,1500.0,0.061784655520599266,36.933127,173.0,11.0,458.0,0.0,2.6108380280583177,-14.0,,,,,,,
1.2996929999999978,1572.0,0.0,1418.0,1607.0,-0.6574393510818481,1495.0,6.98,-0.030123617500066757,-2.7913514,-0.01921517588198185,0.0,0.6338353157043457,-0.0013962634015954637,1500.0,0.0,0.0005235987755982988,0.0,0.0,0.0,0.0,7.853850547689945e-05,0.0,5.0,-0.23706556856632233,0.0,1.0,1000.0,0.0,0.0,-9.740385055541992,1500.0,0.0,51.4594056,0.021642082724729686,1.0893669128417969,750.0750579833984,37.013601,5.0,-2.0,0.0,1500.0,0.0614355896702004,37.032981,173.0,11.0,458.0,0.0,2.611885225609514,-14.0,,,,,,,
1.3998549999999952,1572.0,0.0,1418.0,1607.0,-0.6571030020713806,1495.0,6.93,-0.02680850401520729,-2.7913509999999997,-0.014199203811585903,0.0,0.6554127335548401,-0.0015707963267948964,1500.0,0.0,0.0005235987755982988,0.0,0.0,0.0,0.0,5.626027996186167e-05,0.0,5.0,-0.15398260951042175,0.0,1.0,1000.0,0.0,0.0,-9.739762306213379,1500.0,0.0,51.4594051,0.021642082724729686,1.083271861076355,750.0375137329102,37.09381,5.0,-2.0,0.0,1500.0,0.0614355896702004,37.133143,173.0,11.0,458.0,0.0,2.612583357310312,-14.0,,,,,,,
1.4996719999999968,1572.0,0.0,1417.0,1608.0,-0.6569162607192993,1494.0,6.93,-0.026678021997213364,-2.7913509999999997,-0.014705127105116844,0.0,0.7498137354850769,-0.0017453292519943296,1500.0,0.0,0.0006981317007977319,0.0,0.0,0.0,0.0,-0.00044935184996575117,0.0,5.0,-0.21397607028484344,0.0,1.0,1000.0,0.0,0.0,-9.74267292022705,1500.0,0.0,51.4594051,0.021642082724729686,1.0781837701797485,750.0750579833984,37.213577,5.0,-2.0,0.0,1500.0,0.061086523819801536,37.23296,173.0,11.0,458.0,0.0,2.613805087786708,-14.0,,,,,,,
1.600018999999996,1572.0,0.0,1417.0,1608.0,-0.6582255959510803,1494.0,6.88,-0.023500168696045876,-2.7913506999999997,-0.009990266524255276,0.0,0.7848769426345825,-0.0019198621771937625,1500.0,0.0,0.0008726646259971648,0.0,0.0,0.0,0.0,-0.0011066299630329013,0.0,5.0,-0.1534186452627182,0.0,1.0,1000.0,0.0,0.0,-9.747143745422363,1500.0,0.0,51.4594047,0.021642082724729686,1.0866713523864746,750.0375137329102,37.29369,5.0,-2.0,0.0,1500.0,0.06091199089460211,37.333307,173.0,11.0,458.0,0.0,2.614503219487506,-14.0,,,,,,,
1.6996469999999988,1572.0,0.0,1418.0,1607.0,-0.6635758876800537,1495.0,6.88,-0.023375486955046654,-2.7913506999999997,-0.00963219627737999,0.0,0.7579052448272705,-0.0020943951023931952,1500.0,-0.00017453292519943296,0.0010471975511965976,0.0,0.0,0.0,0.0,-0.003489992581307888,0.0,5.0,-0.22404448688030243,0.0,1.0,1000.0,0.0,0.0,-9.746630668640137,1500.0,0.0,51.4594047,0.02181661564992912,1.0806856155395508,750.0750579833984,37.413579999999996,5.0,-2.0,0.0,1500.0,0.06056292504420324,37.432935,173.0,11.0,458.0,0.0,2.615724949963902,-14.0,,,,,,,
1.7998189999999994,1571.0,0.0,1417.0,1608.0,-0.6687424778938293,1495.0,6.8500000000000005,-0.019813744351267815,-2.7913504,-0.004784736316651106,0.0,0.7902712821960449,-0.0022689280275926286,1500.0,-0.00017453292519943296,0.0012217304763960308,0.0,0.0,0.0,0.0,-0.006017480976879597,0.0,5.0,-0.18776430189609528,0.0,1.0,1001.0,0.0,0.0,-9.751131057739258,1500.0,0.0,51.459404299999996,0.02181661564992912,1.084348440170288,750.0375137329102,37.493338,5.0,-2.0,0.0,1500.0,0.0603883921190038,37.533107,173.0,11.0,458.0,0.0,2.616423081664699,-14.0,,,,,,,
1.899670999999998,1572.0,0.0,1417.0,1608.0,-0.6782222986221313,1494.0,6.8500000000000005,-0.017625344917178154,-2.7913504,-0.0024932881351560354,0.0,0.7444193959236145,-0.0024434609527920616,1501.0,-0.00017453292519943296,0.0013962634015954637,0.0,0.0,0.0,0.0,-0.009909126907587051,0.0,5.0,-0.217123344540596,0.0,1.0,1000.0,0.0,0.0,-9.741106033325195,1500.0,0.0,51.459404299999996,0.02181661564992912,1.0826029777526855,750.0750579833984,37.6141,5.0,-2.0,0.0,1500.0,0.060039326268604934,37.632959,173.0,11.0,458.0,0.0,2.617470279215896,-14.0,,,,,,,
2.0000209999999967,1572.0,0.0,1418.0,1608.0,-0.6850531697273254,1494.0,6.8100000000000005,-0.014338958077132702,-2.7913501999999997,0.0019753952510654926,0.0,0.7929684519767761,-0.002617993877991494,1500.0,-0.00017453292519943296,0.0015707963267948964,0.0,0.0,0.0,0.0,-0.011898779310286045,0.0,5.0,-0.16741809248924255,0.0,1.0,1000.0,0.0,0.0,-9.733440399169922,1500.0,0.0,51.459404199999994,0.02181661564992912,1.0797748565673828,750.0750579833984,37.693692999999996,5.0,-2.0,0.0,1500.0,0.05969026041820607,37.733309,173.0,11.0,458.0,0.0,2.6181684109166934,-14.0,,,,,,,
2.0996489999999994,1572.0,0.0,1418.0,1607.0,-0.6957823634147644,1495.0,6.8100000000000005,-0.011582337319850922,-2.7913501999999997,0.004206347279250622,0.0,0.8172429800033569,-0.0027925268031909274,1500.0,-0.00034906585039886593,0.0017453292519943296,0.0,0.0,0.0,0.0,-0.015486487187445164,0.0,5.0,-0.20994019508361816,0.0,1.0,1000.0,0.0,0.0,-9.749494552612305,1500.0,0.0,51.459404199999994,0.02199114857512855,1.0779833793640137,750.0750579833984,37.813576,5.0,-2.0,0.0,1500.0,0.059166661642607775,37.832937,173.0,11.0,458.0,0.0,2.6192156084678904,-14.0,,,,,,,
2.199834999999993,1571.0,0.0,1417.0,1608.0,-0.7038654088973999,1495.0,6.79,-0.0075258552096784115,-2.79135,0.008767235092818737,0.0,0.7147504687309265,-0.003141592653589793,1500.0,-0.00034906585039886593,0.0017453292519943296,0.0,0.0,0.0,0.0,-0.018671566620469093,0.0,5.0,-0.16106021404266357,0.0,1.0,1001.0,0.0,0.0,-9.745418548583984,1500.0,0.0,51.459404,0.022165681500327987,1.087247610092163,750.0375137329102,37.893263,5.0,-2.0,0.0,1500.0,0.05881759579220891,37.933122999999995,173.0,11.0,458.0,0.0,2.6200882730938875,-14.0,,,,,,,
2.2996769999999955,1572.0,0.0,1417.0,1608.0,-0.7154106497764587,1494.0,6.79,-0.004308989271521568,-2.79135,0.011201822198927402,0.0,0.7767854332923889,-0.0033161255787892262,1500.0,-0.00034906585039886593,0.0019198621771937625,0.0,0.0,0.0,0.0,-0.02259429357945919,0.0,5.0,-0.22645998001098633,0.0,1.0,1000.0,0.0,0.0,-9.739838600158691,1501.0,0.0,51.459404,0.022165681500327987,1.0833944082260132,750.0750579833984,38.013566,5.0,-2.0,0.0,1500.0,0.05846852994181004,38.032965,173.0,11.0,458.0,0.0,2.6213100035702834,-14.0,,,,,,,
2.3998889999999946,1571.0,0.0,1417.0,1608.0,-0.7224190831184387,1495.0,6.7700000000000005,-0.00010153366019949317,-2.7913497,0.016406424343585968,0.0,0.5960749387741089,-0.003490658503988659,1500.0,-0.00034906585039886593,0.0020943951023931952,0.0,0.0,0.0,0.0,-0.02472822368144989,0.0,5.0,-0.1647288054227829,0.0,1.0,1001.0,0.0,0.0,-9.73978328704834,1500.0,0.0,51.4594038,0.02234021442552742,1.0914132595062256,750.0562591552734,38.093751,5.0,-2.0,0.0,1500.0,0.057944931166211744,38.133176999999996,173.0,11.0,458.0,0.0,2.622182668196281,-14.0,,,,,,,
2.4996189999999956,1572.0,0.0,1417.0,1608.0,-0.7299225330352783,1494.0,6.7700000000000005,0.0038534817285835743,-2.7913497,0.01922188512980938,0.0,0.7848769426345825,-0.003665191429188092,1500.0,-0.0005235987755982988,0.0020943951023931952,0.0,0.0,0.0,0.0,-0.027075033634901047,0.0,5.0,-0.2182946652173996,0.0,1.0,1000.0,0.0,0.0,-9.751913070678711,1501.0,0.0,51.4594038,0.022514747350726852,1.0860035419464111,750.0750579833984,38.213617,5.0,-2.0,0.0,1500.0,0.05759586531581288,38.232907,173.0,11.0,458.0,0.0,2.623753464523076,-14.0,,,,,,,
2.599996999999995,1572.0,0.0,1418.0,1607.0,-0.7337762117385864,1495.0,6.76,0.007968926802277565,-2.7913494,0.023189209401607513,0.0,0.6446239948272705,-0.004014257279586958,1500.0,-0.0005235987755982988,0.0022689280275926286,0.0,0.0,0.0,0.0,-0.02814931981265545,0.0,5.0,-0.15217047929763794,0.0,1.0,1000.0,0.0,0.0,-9.74672794342041,1500.0,0.0,51.4594035,0.022514747350726852,1.0893604755401611,750.0562591552734,38.293698,5.0,-2.0,0.0,1500.0,0.057246799465414014,38.333285,173.0,11.0,458.0,0.0,2.624626129149073,-14.0,,,,,,,
2.6996679999999955,1572.0,0.0,1418.0,1607.0,-0.7386179566383362,1495.0,6.76,0.011575316078960896,-2.7913494,0.025539547204971313,0.0,0.7767854332923889,-0.0041887902047863905,1500.0,-0.0005235987755982988,0.0022689280275926286,0.0,0.0,0.0,0.0,-0.029797712340950966,0.0,5.0,-0.21290357410907745,0.0,1.0,1000.0,0.0,0.0,-9.74742317199707,1500.0,0.0,51.4594035,0.022689280275926284,1.0790177583694458,750.0750579833984,38.413592,5.0,-2.0,0.0,1500.0,0.05689773361501515,38.432956,173.0,11.0,458.0,0.0,2.6261969254758677,-14.0,,,,,,,
2.7999049999999954,1572.0,0.0,1417.0,1608.0,-0.7414796352386475,1494.0,6.78,0.015370012260973454,-2.791349,0.02868802845478058,0.0,0.7444193959236145,-0.004363323129985824,1500.0,-0.0005235987755982988,0.0022689280275926286,0.0,0.0,0.0,0.0,-0.030540309846401215,0.0,5.0,-0.16058918833732605,0.0,1.0,1000.0,0.0,0.0,-9.738466262817383,1500.0,0.0,51.4594034,0.022689280275926284,1.0853252410888672,750.0750579833984,38.493308,5.0,-2.0,0.0,1501.0,0.056548667764616284,38.533193,173.0,11.0,458.0,0.0,2.627069590101865,-14.0,,,,,,,
2.8997349999999997,1572.0,0.0,1418.0,1608.0,-0.7467041015625,1494.0,6.78,0.01890692301094532,-2.791349,0.030591068789362907,0.0,0.5798919200897217,-0.004537856055185257,1500.0,-0.0005235987755982988,0.0022689280275926286,0.0,0.0,0.0,0.0,-0.03201201930642128,0.0,5.0,-0.20383325219154358,0.0,1.0,1000.0,0.0,0.0,-9.73730182647705,1500.0,0.0,51.4594034,0.022863813201125717,1.0971591472625732,750.0750579833984,38.613864,5.0,-2.0,0.0,1500.0,0.056548667764616284,38.633023,173.0,11.0,458.0,0.0,2.62864038642866,-14.0,,,,,,,
2.9998839999999944,1572.0,0.0,1417.0,1608.0,-0.7482551336288452,1494.0,6.7700000000000005,0.021027935668826103,-2.7913487,0.032883282750844955,0.0,0.6769900918006897,-0.00471238898038469,1500.0,-0.0005235987755982988,0.0022689280275926286,0.0,0.0,0.0,0.0,-0.032159000635147095,0.0,5.0,-0.16706223785877228,0.0,1.0,1000.0,0.0,0.0,-9.731378555297852,1500.0,0.0,51.4594033,0.022863813201125717,1.084211826324463,750.0562591552734,38.693593,5.0,-2.0,0.0,1501.0,0.05619960191421741,38.733171999999996,173.0,11.0,458.0,0.0,2.6296875839798566,-14.0,,,,,,,
3.099659999999993,1572.0,0.0,1418.0,1608.0,-0.7477669715881348,1494.0,6.7700000000000005,0.023866960778832436,-2.7913487,0.03439626097679138,0.0,0.7309334874153137,-0.004886921905584123,1500.0,-0.0005235987755982988,0.0022689280275926286,0.0,0.0,0.0,0.0,-0.031271059066057205,0.0,5.0,-0.21142855286598206,0.0,1.0,1000.0,0.0,0.0,-9.741106033325195,1500.0,0.0,51.4594033,0.02303834612632515,1.0840721130371094,750.0562591552734,38.813601999999996,5.0,-2.0,0.0,1500.0,0.05619960191421741,38.832947999999995,173.0,11.0,458.0,0.0,2.631083847381452,-14.0,,,,,,,
3.1998199999999954,1572.0,0.0,1418.0,1607.0,-0.7477116584777832,1495.0,6.74,0.02597571723163128,-2.7913482999999997,0.03569087013602257,0.0,0.7309334874153137,-0.005061454830783556,1500.0,-0.0006981317007977319,0.0022689280275926286,0.0,0.0,0.0,0.0,-0.03097621537744999,0.0,5.0,-0.17207598686218262,0.0,1.0,1000.0,0.0,0.0,-9.738432884216309,1500.0,0.0,51.4594029,0.02303834612632515,1.0882240533828735,750.0562591552734,38.893342,5.0,-2.0,0.0,1500.0,0.05619960191421741,38.933108,173.0,11.0,458.0,0.0,2.6321310449326485,-14.0,,,,,,,
3.299675999999998,1572.0,0.0,1417.0,1608.0,-0.7486478090286255,1495.0,6.74,0.02719949185848236,-2.7913482999999997,0.03607006371021271,0.0,0.7579052448272705,-0.005235987755982988,1500.0,-0.0006981317007977319,0.0022689280275926286,0.0,0.0,0.0,0.0,-0.030375076457858086,0.0,5.0,-0.20523732900619507,0.0,1.0,1000.0,0.0,0.0,-9.744338989257812,1500.0,0.0,51.4594029,0.02303834612632515,1.0840531587600708,750.0562591552734,39.013557999999996,5.0,-2.0,0.0,1500.0,0.05619960191421741,39.032964,173.0,11.0,458.0,0.0,2.6335273083342443,-14.0,,,,,,,
3.3998499999999936,1572.0,0.0,1418.0,1608.0,-0.7500743865966797,1494.0,6.72,0.028402363881468773,-2.7913482,0.03660477325320244,0.0,0.7012646198272705,-0.005235987755982988,1500.0,-0.0006981317007977319,0.0022689280275926286,0.0,0.0,0.0,0.0,-0.030725689604878426,0.0,5.0,-0.1785668581724167,0.0,1.0,1000.0,0.0,0.0,-9.740514755249023,1500.0,0.0,51.4594027,0.02303834612632515,1.0899314880371094,750.0562591552734,39.093762,5.0,-2.0,0.0,1500.0,0.05619960191421741,39.133137999999995,173.0,11.0,458.0,0.0,2.634399972960241,-14.0,,,,,,,
3.499658999999994,1572.0,0.0,1418.0,1607.0,-0.7524510622024536,1495.0,6.72,0.028945107012987137,-2.7913482,0.03686463087797165,0.0,0.6823844313621521,-0.0054105206811824215,1500.0,-0.0006981317007977319,0.0022689280275926286,0.0,0.0,0.0,0.0,-0.031126154586672783,0.0,5.0,-0.20095452666282654,0.0,1.0,1000.0,0.0,0.0,-9.752764701843262,1500.0,0.0,51.4594027,0.02303834612632515,1.0920376777648926,750.0562591552734,39.213556,5.0,-2.0,0.0,1500.0,0.05637413483941684,39.232946999999996,173.0,11.0,458.0,0.0,2.635621703436637,-14.0,,,,,,,
3.6996779999999987,1572.0,0.0,1418.0,1607.0,-0.7543988227844238,1495.0,6.72,0.028857827186584473,-2.7913482,0.036399733275175095,0.0,0.7498137354850769,-0.005585053606381855,1500.0,-0.0005235987755982988,0.0022689280275926286,0.0,0.0,0.0,0.0,-0.030244814231991768,0.0,5.0,-0.18807728588581085,0.0,1.0,1000.0,0.0,0.0,-9.74378776550293,1500.0,0.0,51.4594027,0.02303834612632515,1.085222601890564,750.0562591552734,39.41357,5.0,-2.0,0.0,1500.0,0.056548667764616284,39.432966,173.0,11.0,458.0,0.0,2.63771609853903,-14.0,,,,,,,
3.799966999999995,1572.0,0.0,1418.0,1607.0,-0.7552509307861328,1495.0,6.78,0.02883087284862995,-2.7913476,0.035836361348629,0.0,0.5852862596511841,-0.005759586531581287,1500.0,-0.0005235987755982988,0.0020943951023931952,0.0,0.0,0.0,0.0,-0.029806923121213913,0.0,5.0,-0.18305689096450806,0.0,1.0,1000.0,0.0,0.0,-9.748190879821777,1500.0,0.0,51.459402399999995,0.02303834612632515,1.0965971946716309,750.0562591552734,39.493454,5.0,-2.0,0.0,1500.0,0.056548667764616284,39.533255,173.0,11.0,458.0,0.0,2.6385887631650276,-14.0,,,,,,,
3.8996489999999966,1572.0,0.0,1417.0,1608.0,-0.7534942626953125,1494.0,6.78,0.028508037328720093,-2.7913476,0.03470286726951599,0.0,0.6850816011428833,-0.005759586531581287,1500.0,-0.0005235987755982988,0.0020943951023931952,0.0,0.0,0.0,0.0,-0.027863016352057457,0.0,5.0,-0.1799587607383728,0.0,1.0,1000.0,0.0,0.0,-9.741300582885742,1500.0,0.0,51.459402399999995,0.02303834612632515,1.0880322456359863,750.0562591552734,39.614148,5.0,-2.0,0.0,1500.0,0.056548667764616284,39.632937,173.0,11.0,458.0,0.0,2.6398104936414235,-14.0,,,,,,,
4.0000049999999945,1572.0,0.0,1418.0,1608.0,-0.7508121132850647,1494.0,6.84,0.027654804289340973,-2.7913471,0.034156013280153275,0.0,0.7309334874153137,-0.005934119456780721,1500.0,-0.0005235987755982988,0.0020943951023931952,0.0,0.0,0.0,0.0,-0.02560468390583992,0.0,5.0,-0.20198392868041992,0.0,1.0,1000.0,0.0,0.0,-9.751781463623047,1500.0,0.0,51.459402499999996,0.02303834612632515,1.0774755477905273,750.0562591552734,39.693664,5.0,-2.0,0.0,1500.0,0.05672320068981571,39.733292999999996,173.0,11.0,458.0,0.0,2.640508625342221,-14.0,,,,,,,
4.0996959999999945,1572.0,0.0,1418.0,1607.0,-0.7477470636367798,1495.0,6.84,0.026936814188957214,-2.7913471,0.03360607102513313,0.0,0.7228419780731201,-0.005934119456780721,1500.0,-0.0005235987755982988,0.0020943951023931952,0.0,0.0,0.0,0.0,-0.023425564169883728,0.0,5.0,-0.18374711275100708,0.0,1.0,1000.0,0.0,0.0,-9.75100326538086,1500.0,0.0,51.459402499999996,0.02303834612632515,1.086730718612671,750.0938034057617,39.813534,5.0,-2.0,0.0,1500.0,0.05672320068981571,39.832983999999996,173.0,11.0,458.0,0.0,2.6417303558186176,-14.0,,,,,,,
4.199873999999994,1572.0,0.0,1418.0,1608.0,-0.7466031908988953,1494.0,6.88,0.0262509286403656,-2.7913468,0.032378215342760086,0.0,0.7579052448272705,-0.005934119456780721,1500.0,-0.0005235987755982988,0.0020943951023931952,0.0,0.0,0.0,0.0,-0.02294285036623478,0.0,5.0,-0.1883200854063034,0.0,1.0,1000.0,0.0,0.0,-9.74625015258789,1500.0,0.0,51.459402499999996,0.02303834612632515,1.0976955890655518,750.0562591552734,39.893350999999996,5.0,-2.0,0.0,1500.0,0.05672320068981571,39.933161999999996,173.0,11.0,458.0,0.0,2.642428487519415,-14.0,,,,,,,
4.299651999999995,1572.0,0.0,1418.0,1607.0,-0.7464353442192078,1495.0,6.88,0.02495458722114563,-2.7913468,0.030890965834259987,0.0,0.8280317187309265,-0.005934119456780721,1500.0,-0.0005235987755982988,0.0019198621771937625,0.0,0.0,0.0,0.0,-0.022806720808148384,0.0,5.0,-0.19401760399341583,0.0,1.0,1000.0,0.0,0.0,-9.736075401306152,1500.0,0.0,51.459402499999996,0.02303834612632515,1.080244779586792,750.0562591552734,40.013588999999996,5.0,-2.0,0.0,1500.0,0.05707226654021458,40.032939999999996,173.0,11.0,458.0,0.0,2.6433011521454124,-14.0,,,,,,,
4.399968999999999,1572.0,0.0,1417.0,1608.0,-0.7484114170074463,1495.0,6.94,0.023626476526260376,-2.7913463999999997,0.029783176258206367,0.0,0.8442147374153137,-0.005934119456780721,1500.0,-0.0005235987755982988,0.0019198621771937625,0.0,0.0,0.0,0.0,-0.023361289873719215,0.0,5.0,-0.19532084465026855,0.0,1.0,1000.0,0.0,0.0,-9.739173889160156,1500.0,0.0,51.4594026,0.02303834612632515,1.09126615524292,750.0562591552734,40.093765999999995,5.0,-2.0,0.0,1500.0,0.05707226654021458,40.133257,173.0,11.0,458.0,0.0,2.64399928384621,-14.0,,,,,,,
4.499668999999997,1572.0,0.0,1417.0,1608.0,-0.7550055384635925,1494.0,6.94,0.022715436294674873,-2.7913463999999997,0.02888813428580761,0.0,0.7740882635116577,-0.005934119456780721,1500.0,-0.0005235987755982988,0.0019198621771937625,0.0,0.0,0.0,0.0,-0.025799095630645752,0.0,5.0,-0.17714335024356842,0.0,1.0,1000.0,0.0,0.0,-9.739688873291016,1500.0,0.0,51.4594026,0.022863813201125717,1.0919532775878906,750.0562591552734,40.213588,5.0,-2.0,0.0,1501.0,0.057246799465414014,40.232957,173.0,11.0,458.0,0.0,2.6450464813974066,-14.0,,,,,,,
4.6000119999999995,1572.0,0.0,1418.0,1607.0,-0.7603310346603394,1495.0,7.01,0.021443665027618408,-2.7913460999999997,0.027700530365109444,0.0,0.6796872615814209,-0.005934119456780721,1500.0,-0.0005235987755982988,0.0019198621771937625,0.0,0.0,0.0,0.0,-0.02774583362042904,0.0,5.0,-0.19259358942508698,0.0,1.0,1000.0,0.0,0.0,-9.743907928466797,1500.0,0.0,51.4594029,0.022863813201125717,1.0956515073776245,750.0562591552734,40.293977,5.0,-2.0,0.0,1500.0,0.057246799465414014,40.3333,173.0,11.0,458.0,0.0,2.645570080173005,-14.0,,,,,,,
4.699681999999996,1572.0,0.0,1418.0,1607.0,-0.7660177946090698,1495.0,7.01,0.02024366520345211,-2.7913460999999997,0.026687338948249817,0.0,0.7066589593887329,-0.005934119456780721,1500.0,-0.0005235987755982988,0.0019198621771937625,0.0,0.0,0.0,0.0,-0.029319413006305695,0.0,5.0,-0.18252567946910858,0.0,1.0,1000.0,0.0,0.0,-9.742410659790039,1500.0,0.0,51.4594029,0.022863813201125717,1.0879427194595337,750.0562591552734,40.413565999999996,5.0,-2.0,0.0,1500.0,0.05742133239061344,40.43297,173.0,11.0,458.0,0.0,2.646442744799002,-14.0,,,,,,,
4.799868999999994,1572.0,0.0,1418.0,1607.0,-0.7678367495536804,1495.0,7.08,0.019452840089797974,-2.7913457999999998,0.025430936366319656,0.0,0.7363278865814209,-0.005934119456780721,1500.0,-0.0005235987755982988,0.0017453292519943296,0.0,0.0,0.0,0.0,-0.02898552641272545,0.0,5.0,-0.19374704360961914,0.0,1.0,1000.0,0.0,0.0,-9.748384475708008,1500.0,0.0,51.4594032,0.022863813201125717,1.0713231563568115,750.0562591552734,40.493392,5.0,-2.0,0.0,1500.0,0.05742133239061344,40.533156999999996,173.0,11.0,458.0,0.0,2.646791810649401,-14.0,,,,,,,
4.8997189999999975,1572.0,0.0,1418.0,1607.0,-0.7694978713989258,1495.0,7.08,0.01857934147119522,-2.7913457999999998,0.024111026898026466,0.0,0.8064543008804321,-0.005934119456780721,1500.0,-0.0005235987755982988,0.0017453292519943296,0.0,0.0,0.0,0.0,-0.028596173971891403,0.0,5.0,-0.17428895831108093,0.0,1.0,1000.0,0.0,0.0,-9.74782943725586,1500.0,0.0,51.4594032,0.022863813201125717,1.0851514339447021,750.0562591552734,40.614128,5.0,-2.0,0.0,1500.0,0.05759586531581288,40.633007,173.0,11.0,458.0,0.0,2.6474899423501985,-14.0,,,,,,,
4.999902999999996,1572.0,0.0,1417.0,1608.0,-0.7712969779968262,1494.0,7.13,0.01742781326174736,-2.7913455,0.02244691178202629,0.0,0.6769900918006897,-0.005934119456780721,1501.0,-0.0005235987755982988,0.0017453292519943296,0.0,0.0,0.0,0.0,-0.028650641441345215,0.0,5.0,-0.18643563985824585,0.0,1.0,1000.0,0.0,0.0,-9.750656127929688,1500.0,0.0,51.4594035,0.022863813201125717,1.095381736755371,750.0562591552734,40.693630999999996,5.0,-2.0,0.0,1500.0,0.05777039824101231,40.733191,173.0,11.0,458.0,0.0,2.6478390082005974,-14.0,,,,,,,
5.099665999999999,1572.0,0.0,1418.0,1608.0,-0.7732236981391907,1494.0,7.13,0.016389772295951843,-2.7913455,0.021095478907227516,0.0,0.6904759407043457,-0.005759586531581287,1500.0,-0.0005235987755982988,0.0017453292519943296,0.0,0.0,0.0,0.0,-0.02816925197839737,0.0,5.0,-0.17791740596294403,0.0,1.0,1000.0,0.0,0.0,-9.747413635253906,1500.0,0.0,51.4594035,0.022689280275926284,1.0853793621063232,750.0562591552734,40.813548999999995,5.0,-2.0,0.0,1500.0,0.05777039824101231,40.832954,173.0,11.0,458.0,0.0,2.6483626069761956,-14.0,,,,,,,
5.1999019999999945,1572.0,0.0,1418.0,1607.0,-0.7727214694023132,1495.0,7.23,0.01537807285785675,-2.7913451,0.01970311626791954,0.0,0.6581099033355713,-0.005759586531581287,1500.0,-0.0005235987755982988,0.0017453292519943296,0.0,0.0,0.0,0.0,-0.027011916041374207,0.0,5.0,-0.19240565598011017,0.0,1.0,1000.0,0.0,0.0,-9.753524780273438,1500.0,0.0,51.4594041,0.022689280275926284,1.097810983657837,750.0562591552734,40.893324,5.0,-2.0,0.0,1500.0,0.057944931166211744,40.933189999999996,173.0,11.0,458.0,0.0,2.648537139901395,-14.0,,,,,,,
5.299692999999998,1572.0,0.0,1418.0,1607.0,-0.7697148323059082,1495.0,7.23,0.013797557912766933,-2.7913451,0.018638385459780693,0.0,0.7848769426345825,-0.005759586531581287,1500.0,-0.0005235987755982988,0.0017453292519943296,0.0,0.0,0.0,0.0,-0.024890052154660225,0.0,5.0,-0.1906372606754303,0.0,1.0,1000.0,0.0,0.0,-9.743229866027832,1500.0,0.0,51.4594041,0.022689280275926284,1.0856183767318726,750.0562591552734,41.013587,5.0,-2.0,0.0,1500.0,0.057944931166211744,41.032981,173.0,11.0,458.0,0.0,2.6490607386769933,-14.0,,,,,,,
5.3998339999999985,1572.0,0.0,1418.0,1607.0,-0.7679672241210938,1495.0,7.32,0.01293695904314518,-2.7913447,0.017985431477427483,0.0,0.7066589593887329,-0.005585053606381855,1500.0,-0.0005235987755982988,0.0017453292519943296,0.0,0.0,0.0,0.0,-0.023125266656279564,0.0,5.0,-0.19647085666656494,0.0,1.0,1000.0,0.0,0.0,-9.735922813415527,1500.0,0.0,51.4594045,0.022689280275926284,1.094070315361023,750.0375137329102,41.093731,5.0,-2.0,0.0,1500.0,0.05811946409141117,41.133122,173.0,11.0,458.0,0.0,2.6492352716021927,-14.0,,,,,,,
5.499648999999998,1572.0,0.0,1418.0,1607.0,-0.7662196755409241,1495.0,7.32,0.011560683138668537,-2.7913447,0.01820027455687523,0.0,0.6931731104850769,-0.005585053606381855,1500.0,-0.0005235987755982988,0.0015707963267948964,0.0,0.0,0.0,0.0,-0.0214543379843235,0.0,5.0,-0.19480331242084503,0.0,1.0,1000.0,0.0,0.0,-9.75522232055664,1500.0,0.0,51.4594045,0.022689280275926284,1.0869327783584595,750.0562591552734,41.213592,5.0,-2.0,0.0,1500.0,0.0582939970166106,41.232937,173.0,11.0,458.0,0.0,2.6495843374525916,-14.0,,,,,,,
5.599899999999998,1572.0,0.0,1417.0,1608.0,-0.7643643021583557,1494.0,7.390000000000001,0.010817219503223896,-2.7913444,0.016998013481497765,0.0,0.8657920956611633,-0.005585053606381855,1500.0,-0.0005235987755982988,0.0015707963267948964,0.0,0.0,0.0,0.0,-0.02005882002413273,0.0,5.0,-0.20241914689540863,0.0,1.0,1000.0,0.0,0.0,-9.748064041137695,1501.0,0.0,51.459404799999994,0.022689280275926284,1.0924034118652344,750.0375137329102,41.293710999999995,5.0,-2.0,0.0,1500.0,0.0582939970166106,41.333188,173.0,11.0,458.0,0.0,2.649933403302991,-14.0,,,,,,,
5.699690999999994,1572.0,0.0,1418.0,1608.0,-0.7641472816467285,1494.0,7.390000000000001,0.00950611662119627,-2.7913444,0.01548828650265932,0.0,0.6796872615814209,-0.005585053606381855,1500.0,-0.0005235987755982988,0.0015707963267948964,0.0,0.0,0.0,0.0,-0.01925387792289257,0.0,5.0,-0.19440363347530365,0.0,1.0,1000.0,0.0,0.0,-9.736225128173828,1500.0,0.0,51.459404799999994,0.022689280275926284,1.0795601606369019,750.0562591552734,41.413582999999996,5.0,-2.0,0.0,1500.0,0.0582939970166106,41.432978999999996,173.0,11.0,458.0,0.0,2.6502824691533893,-14.0,,,,,,,
5.799907999999995,1572.0,0.0,1418.0,1607.0,-0.7646968960762024,1495.0,7.44,0.009272383525967598,-2.7913441,0.014565113000571728,0.0,0.7444193959236145,-0.0054105206811824215,1500.0,-0.0005235987755982988,0.0015707963267948964,0.0,0.0,0.0,0.0,-0.01875595562160015,0.0,5.0,-0.18611416220664978,0.0,1.0,1000.0,0.0,0.0,-9.744630813598633,1500.0,0.0,51.459405,0.022689280275926284,1.0751241445541382,750.0375137329102,41.493159999999996,5.0,-2.0,0.0,1500.0,0.05846852994181004,41.533196,173.0,11.0,458.0,0.0,2.650457002078589,-14.0,,,,,,,
5.899678999999999,1572.0,0.0,1417.0,1608.0,-0.7642583250999451,1495.0,7.44,0.008534476161003113,-2.7913441,0.013868780806660652,0.0,0.7929684519767761,-0.0054105206811824215,1500.0,-0.0005235987755982988,0.0015707963267948964,0.0,0.0,0.0,0.0,-0.01799587532877922,0.0,5.0,-0.1693592369556427,0.0,1.0,1000.0,0.0,0.0,-9.73946762084961,1500.0,0.0,51.459405,0.022689280275926284,1.0807106494903564,750.0562591552734,41.61409,5.0,-2.0,0.0,1500.0,0.05846852994181004,41.632967,173.0,11.0,458.0,0.0,2.6508060679289875,-14.0,,,,,,,
5.999869999999994,1572.0,0.0,1418.0,1607.0,-0.7648119926452637,1495.0,7.49,0.008276572450995445,-2.7913438,0.012743839994072914,0.0,0.6608070731163025,-0.0054105206811824215,1500.0,-0.0005235987755982988,0.0015707963267948964,0.0,0.0,0.0,0.0,-0.01774119772017002,0.0,5.0,-0.17563650012016296,0.0,1.0,1000.0,0.0,0.0,-9.74199104309082,1500.0,0.0,51.4594052,0.022689280275926284,1.0905325412750244,750.0562591552734,41.693695999999996,5.0,-2.0,0.0,1500.0,0.058643062867009474,41.733157999999996,173.0,11.0,458.0,0.0,2.651155133779387,-14.0,,,,,,,
6.099598999999998,1572.0,0.0,1417.0,1608.0,-0.7645978927612305,1495.0,7.49,0.007905055768787861,-2.7913438,0.011792021803557873,0.0,0.6176522970199585,-0.005235987755982988,1500.0,-0.0005235987755982988,0.0015707963267948964,0.0,0.0,0.0,0.0,-0.016476429998874664,0.0,5.0,-0.1871982365846634,0.0,1.0,1000.0,0.0,0.0,-9.741710662841797,1500.0,0.0,51.4594052,0.022689280275926284,1.0809006690979004,750.13134765625,41.813595,5.0,-2.0,0.0,1500.0,0.058643062867009474,41.832887,173.0,11.0,458.0,0.0,2.6515041996297857,-14.0,,,,,,,
6.199982999999996,1572.0,0.0,1418.0,1608.0,-0.7618117332458496,1494.0,7.5600000000000005,0.007591287139803171,-2.7913435,0.011341182515025139,0.0,0.5340399742126465,-0.005235987755982988,1500.0,-0.0005235987755982988,0.0015707963267948964,0.0,0.0,0.0,0.0,-0.014631367288529873,0.0,5.0,-0.18850937485694885,0.0,1.0,1000.0,0.0,0.0,-9.734160423278809,1500.0,0.0,51.459405399999994,0.022689280275926284,1.0792603492736816,750.0562591552734,41.893392,5.0,-2.0,0.0,1500.0,0.05881759579220891,41.933271,173.0,11.0,458.0,0.0,2.651678732554985,-14.0,,,,,,,
6.299687999999996,1572.0,0.0,1418.0,1607.0,-0.7525476813316345,1495.0,7.5600000000000005,0.007047619670629501,-2.7913435,0.01094744261354208,0.0,0.7875741124153137,-0.005061454830783556,1500.0,-0.0005235987755982988,0.0015707963267948964,0.0,0.0,0.0,0.0,-0.00969475507736206,0.0,5.0,-0.19721704721450806,0.0,1.0,1000.0,0.0,0.0,-9.749317169189453,1500.0,0.0,51.459405399999994,0.022689280275926284,1.0935465097427368,750.0562591552734,42.013538,5.0,-2.0,0.0,1500.0,0.05881759579220891,42.032976,173.0,11.0,458.0,0.0,2.651853265480184,-14.0,,,,,,,
6.399899999999995,1572.0,0.0,1418.0,1607.0,-0.7464557886123657,1495.0,7.6000000000000005,0.006621561944484711,-2.7913433,0.010836862027645111,0.0,0.7255391478538513,-0.005061454830783556,1500.0,-0.0005235987755982988,0.0013962634015954637,0.0,0.0,0.0,0.0,-0.006775450427085161,0.0,5.0,-0.2120932638645172,0.0,1.0,1000.0,0.0,0.0,-9.75106430053711,1500.0,0.0,51.4594056,0.022689280275926284,1.084792137145996,750.0375137329102,42.093751999999995,5.0,-2.0,0.0,1500.0,0.05899212871740834,42.133188,173.0,11.0,458.0,0.0,2.652027798405384,-14.0,,,,,,,
6.4996559999999945,1572.0,0.0,1417.0,1608.0,-0.7406153678894043,1494.0,7.6000000000000005,0.006276017986238003,-2.7913433,0.010374017059803009,0.0,0.7336306571960449,-0.005061454830783556,1501.0,-0.0005235987755982988,0.0013962634015954637,0.0,0.0,0.0,0.0,-0.004438907373696566,0.0,5.0,-0.19057981669902802,0.0,1.0,1000.0,0.0,0.0,-9.742512702941895,1500.0,0.0,51.4594056,0.022689280275926284,1.0954960584640503,750.0562591552734,42.213530999999996,5.0,-2.0,0.0,1500.0,0.05899212871740834,42.232943999999996,173.0,11.0,458.0,0.0,2.652027798405384,-14.0,,,,,,,
6.599900999999996,1572.0,0.0,1418.0,1607.0,-0.7377448678016663,1495.0,7.640000000000001,0.005922254640609026,-2.7913430999999997,0.009814169257879257,0.0,0.5771947503089905,-0.004886921905584123,1500.0,-0.0005235987755982988,0.0013962634015954637,0.0,0.0,0.0,0.0,-0.0031836966518312693,0.0,5.0,-0.19647258520126343,0.0,1.0,1000.0,0.0,0.0,-9.748056411743164,1500.0,0.0,51.4594058,0.022514747350726852,1.0888055562973022,750.0375137329102,42.293867999999996,5.0,-2.0,0.0,1500.0,0.05899212871740834,42.333189,173.0,11.0,458.0,0.0,2.6522023313305834,-14.0,,,,,,,
6.699712999999996,1572.0,0.0,1417.0,1608.0,-0.7317120432853699,1494.0,7.640000000000001,0.005512708332389593,-2.7913430999999997,0.009074406698346138,0.0,0.6823844313621521,-0.004886921905584123,1501.0,-0.0005235987755982988,0.0013962634015954637,0.0,0.0,0.0,0.0,-0.0004632583004422486,0.0,5.0,-0.1804259717464447,0.0,1.0,1000.0,0.0,0.0,-9.745481491088867,1500.0,0.0,51.4594058,0.022514747350726852,1.064359426498413,750.0375137329102,42.413595,5.0,-2.0,0.0,1500.0,0.059166661642607775,42.433001,173.0,11.0,458.0,0.0,2.6522023313305834,-14.0,,,,,,,
6.799995999999993,1572.0,0.0,1418.0,1608.0,-0.7265024781227112,1494.0,7.69,0.005119903478771448,-2.7913428,0.008066860027611256,0.0,0.7902712821960449,-0.00471238898038469,1500.0,-0.0005235987755982988,0.0013962634015954637,0.0,0.0,0.0,0.0,0.002058490877971053,0.0,5.0,-0.19916996359825134,0.0,1.0,1000.0,0.0,0.0,-9.747371673583984,1500.0,0.0,51.459406099999995,0.022514747350726852,1.088730812072754,750.0375137329102,42.493345999999995,5.0,-2.0,0.0,1500.0,0.059166661642607775,42.533283999999995,173.0,11.0,458.0,0.0,2.6522023313305834,-14.0,,,,,,,
6.899686999999993,1572.0,0.0,1418.0,1607.0,-0.7214003205299377,1495.0,7.69,0.004408803302794695,-2.7913428,0.007965752854943275,0.0,0.7498137354850769,-0.00471238898038469,1500.0,-0.0005235987755982988,0.0013962634015954637,0.0,0.0,0.0,0.0,0.004670718219131231,0.0,5.0,-0.1951846182346344,0.0,1.0,1000.0,0.0,0.0,-9.748512268066406,1500.0,0.0,51.459406099999995,0.022514747350726852,1.0990111827850342,750.0750579833984,42.614098,5.0,-3.0,0.0,1500.0,0.059166661642607775,42.632974999999995,197.0,11.0,444.0,0.0,2.6522023313305834,-14.0,,,,,,,
7.000024999999994,1572.0,0.0,1417.0,1608.0,-0.7200040817260742,1495.0,7.73,0.003811436705291271,-2.7913425,0.008216319605708122,0.0,0.6985674500465393,-0.004537856055185257,1500.0,-0.0005235987755982988,0.0013962634015954637,0.0,0.0,0.0,0.0,0.005496426951140165,0.0,5.0,-0.19882503151893616,0.0,1.0,1000.0,0.0,0.0,-9.746603012084961,1500.0,0.0,51.4594063,0.022514747350726852,1.1079106330871582,750.0375137329102,42.693746999999995,5.0,-3.0,0.0,1500.0,0.059341194567807204,42.733312999999995,197.0,11.0,444.0,0.0,2.6522023313305834,-14.0,,,,,,,
7.099669999999996,1572.0,0.0,1417.0,1608.0,-0.7183682918548584,1494.0,7.73,0.0030656082089990377,-2.7913425,0.008218460716307163,0.0,0.8280317187309265,-0.004537856055185257,1500.0,-0.0005235987755982988,0.0013962634015954637,0.0,0.0,0.0,0.0,0.006160707678645849,0.0,5.0,-0.2108074128627777,0.022263769060373306,1.0,1000.0,0.0,0.0,-9.746312141418457,1501.0,0.020807797089219093,51.4594063,0.022514747350726852,1.0923482179641724,750.0750579833984,42.81357,5.0,-3.0,0.0,1500.0,0.05951572749300664,42.832958,197.0,11.0,444.0,0.0,2.6522023313305834,-14.0,,,,,,,
7.199890999999994,1572.0,0.0,1417.0,1608.0,-0.7186384797096252,1495.0,7.7700000000000005,0.0028727075550705194,-2.7913422,0.007894921116530895,0.0,0.8037571310997009,-0.004537856055185257,1500.0,-0.0005235987755982988,0.0013962634015954637,0.0,0.0,0.0,0.0,0.005821452010422945,0.0,5.0,-0.18878261744976044,0.022263769060373306,1.0,1000.0,0.0,0.0,-9.753805160522461,1500.0,0.020807797089219093,51.4594065,0.022514747350726852,1.0805652141571045,750.0375137329102,42.893392,5.0,-3.0,0.0,1500.0,0.05951572749300664,42.933178999999996,197.0,11.0,444.0,0.0,2.6522023313305834,-14.0,,,,,,,
7.299636,1572.0,0.0,1417.0,1608.0,-0.72207111120224,1494.0,7.7700000000000005,0.002223684685304761,-2.7913422,0.006742989644408226,0.0,0.7794826030731201,-0.004363323129985824,1500.0,-0.0005235987755982988,0.0013962634015954637,0.0,0.0,0.0,0.0,0.0041084145195782185,0.0,5.0,-0.19753557443618774,0.04452753812074661,1.0,1000.0,0.0,0.0,-9.746792793273926,1501.0,0.04161559417843819,51.4594065,0.022514747350726852,1.084967851638794,750.0375137329102,43.013605,5.0,-3.0,0.0,1500.0,0.05951572749300664,43.032924,197.0,11.0,444.0,0.0,2.6522023313305834,-14.0,,,,,,,
7.399977999999997,1572.0,0.0,1418.0,1607.0,-0.7251774668693542,1495.0,7.83,0.0023371479474008083,-2.7913418,0.006773330736905336,0.0,0.7848769426345825,-0.004363323129985824,1500.0,-0.0005235987755982988,0.0013962634015954637,0.0,0.0,0.0,0.0,0.0031704779248684645,0.0,5.0,-0.19555595517158508,0.04452753812074661,1.0,1000.0,0.0,0.0,-9.740849494934082,1500.0,0.04161559417843819,51.459406699999995,0.022514747350726852,1.086997389793396,750.0375137329102,43.093742999999996,5.0,-3.0,0.0,1500.0,0.05969026041820607,43.133266,197.0,11.0,444.0,0.0,2.6522023313305834,-14.0,,,,,,,
7.499682999999997,1572.0,0.0,1418.0,1607.0,-0.7302834987640381,1495.0,7.83,0.001711194752715528,-2.7913418,0.005756021477282047,0.0,0.7390250563621521,-0.0041887902047863905,1500.0,-0.0005235987755982988,0.0013962634015954637,0.0,0.0,0.0,0.0,0.0015925359912216663,0.0,5.0,-0.1793663203716278,0.06679131090641022,1.0,1000.0,0.0,0.0,-9.732380867004395,1500.0,0.06935931742191315,51.459406699999995,0.022514747350726852,1.086348056793213,750.0375137329102,43.213553999999995,5.0,-3.0,0.0,1500.0,0.05951572749300664,43.232971,197.0,11.0,444.0,0.0,2.6522023313305834,-14.0,,,,,,,
7.5999769999999955,1572.0,0.0,1417.0,1608.0,-0.7333015203475952,1494.0,7.88,0.0014488432789221406,-2.7913414999999997,0.0053952522575855255,0.0,0.7093561291694641,-0.0041887902047863905,1501.0,-0.0005235987755982988,0.0013962634015954637,0.0,0.0,0.0,0.0,0.0007251122733578086,0.0,5.0,-0.18980899453163147,0.06679131090641022,1.0,1000.0,0.0,0.0,-9.737433433532715,1500.0,0.06935931742191315,51.4594068,0.022514747350726852,1.0942864418029785,750.0375137329102,43.293679,5.0,-3.0,0.0,1500.0,0.05969026041820607,43.333265,197.0,11.0,444.0,0.0,2.6522023313305834,-14.0,,,,,,,
7.699697999999998,1572.0,0.0,1418.0,1608.0,-0.736114501953125,1494.0,7.88,0.00022980599896982312,-2.7913414999999997,0.004252602346241474,0.0,0.7282363176345825,-0.0041887902047863905,1500.0,-0.0005235987755982988,0.0012217304763960308,0.0,0.0,0.0,0.0,0.00016308209160342813,0.0,5.0,-0.18816237151622772,0.07792319357395172,1.0,1000.0,0.0,0.0,-9.732539176940918,1500.0,0.09016712009906769,51.4594068,0.022514747350726852,1.0896846055984497,750.0375137329102,43.413577,5.0,-3.0,0.0,1500.0,0.05969026041820607,43.432986,197.0,11.0,444.0,0.0,2.6522023313305834,-14.0,,,,,,,
7.7998699999999985,1572.0,0.0,1417.0,1608.0,-0.7370389699935913,1494.0,7.92,0.00017071871843654662,-2.7913413,0.004060554318130016,0.0,0.7740882635116577,-0.004014257279586958,1501.0,-0.0005235987755982988,0.0012217304763960308,0.0,0.0,0.0,0.0,-3.0159722882672213e-05,0.0,5.0,-0.19151152670383453,0.07792319357395172,1.0,1000.0,0.0,0.0,-9.731047630310059,1500.0,0.09016712009906769,51.4594069,0.022514747350726852,1.0849814414978027,750.0375137329102,43.493352,5.0,-3.0,0.0,1500.0,0.05969026041820607,43.533158,197.0,11.0,444.0,0.0,2.652027798405384,-14.0,,,,,,,
7.899669999999993,1572.0,0.0,1418.0,1608.0,-0.7385011911392212,1494.0,7.92,-0.0006373156793415546,-2.7913413,0.002727639628574252,0.0,0.7147504687309265,-0.004014257279586958,1500.0,-0.0005235987755982988,0.0012217304763960308,0.0,0.0,0.0,0.0,0.0004001179477199912,0.0,5.0,-0.19316329061985016,0.08905507624149323,1.0,1000.0,0.0,0.0,-9.733355522155762,1500.0,0.10403898358345032,51.4594069,0.022514747350726852,1.0942587852478027,750.0375137329102,43.61416,5.0,-3.0,0.0,1500.0,0.059864793343405505,43.632957999999995,197.0,11.0,444.0,0.0,2.652027798405384,-14.0,,,,,,,
7.999973999999995,1572.0,0.0,1418.0,1607.0,-0.7392129898071289,1495.0,7.97,-0.0007523989770561457,-2.791341,0.00255545019172132,0.0,0.8199402093887329,-0.003839724354387525,1500.0,-0.0005235987755982988,0.0012217304763960308,0.0,0.0,0.0,0.0,0.0007218529935926199,0.0,5.0,-0.18958821892738342,0.08905507624149323,1.0,1000.0,0.0,0.0,-9.743467330932617,1500.0,0.10403898358345032,51.4594071,0.022514747350726852,1.091077208518982,750.0375137329102,43.693618,5.0,-3.0,0.0,1500.0,0.059864793343405505,43.733261999999996,197.0,11.0,444.0,0.0,2.651853265480184,-14.0,,,,,,,
8.099666999999997,1572.0,0.0,1418.0,1607.0,-0.7410039305686951,1495.0,7.97,-0.0010541147785261273,-2.791341,0.0018033363157883286,0.0,0.8630949258804321,-0.003839724354387525,1500.0,-0.0005235987755982988,0.0012217304763960308,0.0,0.0,0.0,0.0,-1.1135314707644284e-05,0.0,5.0,-0.2011592537164688,0.11131884157657623,1.0,1000.0,0.0,0.0,-9.738636016845703,1500.0,0.12484677135944366,51.4594071,0.022514747350726852,1.0917712450027466,750.0375137329102,43.813601999999996,5.0,-3.0,0.0,1500.0,0.059864793343405505,43.832955,197.0,11.0,444.0,0.0,2.651853265480184,-14.0,,,,,,,
8.199969999999993,1572.0,0.0,1417.0,1608.0,-0.7441204190254211,1494.0,8.03,-0.0012790887849405408,-2.7913406999999997,0.0017310057301074266,0.0,0.7929684519767761,-0.003839724354387525,1500.0,-0.0005235987755982988,0.0012217304763960308,0.0,0.0,0.0,0.0,-0.0009485544869676232,0.0,5.0,-0.19648952782154083,0.11131884157657623,1.0,1000.0,0.0,0.0,-9.746501922607422,1501.0,0.12484677135944366,51.459407399999996,0.022514747350726852,1.0910704135894775,750.0000228881836,43.893266999999994,5.0,-3.0,0.0,1500.0,0.059864793343405505,43.933257999999995,197.0,11.0,444.0,0.0,2.651678732554985,-14.0,,,,,,,
8.299636,1572.0,0.0,1418.0,1608.0,-0.750078022480011,1494.0,8.03,-0.0020535250660032034,-2.7913406999999997,0.0013941052602604032,0.0,0.7012646198272705,-0.003665191429188092,1500.0,-0.0005235987755982988,0.0012217304763960308,0.0,0.0,0.0,0.0,-0.002744317054748535,0.0,5.0,-0.19672498106956482,0.14471450448036194,1.0,1000.0,0.0,0.0,-9.745383262634277,1500.0,0.1456545740365982,51.459407399999996,0.022514747350726852,1.1024619340896606,750.0375137329102,44.013509,5.0,-3.0,0.0,1500.0,0.059864793343405505,44.032924,197.0,11.0,444.0,0.0,2.651678732554985,-14.0,,,,,,,
8.399968999999999,1572.0,0.0,1417.0,1608.0,-0.7527943849563599,1494.0,8.08,-0.0029693911783397198,-2.7913405,0.0015876871766522527,0.0,0.6985674500465393,-0.003665191429188092,1500.0,-0.0005235987755982988,0.0012217304763960308,0.0,0.0,0.0,0.0,-0.0033779111690819263,0.0,5.0,-0.19222424924373627,0.14471450448036194,1.0,1000.0,0.0,0.0,-9.74518871307373,1501.0,0.1456545740365982,51.4594075,0.022514747350726852,1.092233419418335,750.0000228881836,44.093938,5.0,-3.0,0.0,1500.0,0.060039326268604934,44.133257,197.0,11.0,444.0,0.0,2.651678732554985,-14.0,,,,,,,
8.499657999999997,1572.0,0.0,1418.0,1608.0,-0.7540782690048218,1494.0,8.08,-0.0034679288510233164,-2.7913405,0.0009159029577858746,0.0,0.6823844313621521,-0.003665191429188092,1500.0,-0.0005235987755982988,0.0012217304763960308,0.0,0.0,0.0,0.0,-0.002908041700720787,0.0,5.0,-0.19898037612438202,0.15584638714790344,1.0,1000.0,0.0,0.0,-9.747918128967285,1500.0,0.15952642261981964,51.4594075,0.022514747350726852,1.0894520282745361,750.0375137329102,44.213606999999996,5.0,-3.0,0.0,1500.0,0.060039326268604934,44.232946,197.0,11.0,444.0,0.0,2.6515041996297857,-14.0,,,,,,,
8.600018999999996,1572.0,0.0,1418.0,1607.0,-0.7533661723136902,1495.0,8.120000000000001,-0.003843560116365552,-2.7913402,0.0007402535993605852,0.0,0.7525109052658081,-0.003490658503988659,1500.0,-0.0005235987755982988,0.0012217304763960308,0.0,0.0,0.0,0.0,-0.0022430128883570433,0.0,5.0,-0.1967773735523224,0.15584638714790344,1.0,1000.0,0.0,0.0,-9.735492706298828,1500.0,0.15952642261981964,51.4594078,0.022514747350726852,1.0741342306137085,750.0000228881836,44.293709,5.0,-3.0,0.0,1500.0,0.060039326268604934,44.333307,197.0,11.0,444.0,0.0,2.6515041996297857,-14.0,,,,,,,
8.699662999999994,1572.0,0.0,1417.0,1608.0,-0.7515963912010193,1495.0,8.120000000000001,-0.004550972953438759,-2.7913402,-0.00076433049980551,0.0,0.8199402093887329,-0.003490658503988659,1500.0,-0.0005235987755982988,0.0012217304763960308,0.0,0.0,0.0,0.0,-0.0005420469678938389,0.0,5.0,-0.18835516273975372,0.18924203515052795,1.0,1000.0,0.0,0.0,-9.729291915893555,1500.0,0.18033424019813538,51.4594078,0.022514747350726852,1.0833005905151367,750.0375137329102,44.413523,5.0,-3.0,0.0,1500.0,0.060039326268604934,44.432950999999996,197.0,11.0,444.0,0.0,2.651329666704586,-14.0,,,,,,,
8.799891999999993,1572.0,0.0,1418.0,1608.0,-0.7515304684638977,1494.0,8.16,-0.004775512032210827,-2.7913398999999997,-0.0009054645197466016,0.0,0.6715957522392273,-0.003490658503988659,1500.0,-0.0005235987755982988,0.0012217304763960308,0.0,0.0,0.0,0.0,0.00018203616491518915,0.0,5.0,-0.18359974026679993,0.18924203515052795,1.0,1000.0,0.0,0.0,-9.733617782592773,1500.0,0.18033424019813538,51.4594078,0.022514747350726852,1.0783836841583252,750.0375137329102,44.493317,5.0,-3.0,0.0,1500.0,0.060039326268604934,44.533179999999994,197.0,12.0,444.0,0.0,2.651329666704586,-14.0,,,,,,,
8.899713999999996,1572.0,0.0,1418.0,1607.0,-0.7510687112808228,1495.0,8.16,-0.0047654262743890285,-2.7913398999999997,-0.0017691324464976788,0.0,0.8657920956611633,-0.0033161255787892262,1500.0,-0.0005235987755982988,0.0012217304763960308,0.0,0.0,0.0,0.0,0.0006960228201933205,0.0,5.0,-0.19154436886310577,0.18924203515052795,1.0,1000.0,0.0,0.0,-9.740293502807617,1500.0,0.20114202797412872,51.4594078,0.022514747350726852,1.0826846361160278,750.0375137329102,44.614079,5.0,-3.0,0.0,1500.0,0.060039326268604934,44.633002,197.0,12.0,444.0,0.0,2.651155133779387,-14.0,,,,,,,
8.999859999999998,1572.0,0.0,1418.0,1608.0,-0.7513571381568909,1494.0,8.18,-0.0045187934301793575,-2.7913395999999997,-0.0018881266005337238,0.0,0.8064543008804321,-0.0033161255787892262,1500.0,-0.0005235987755982988,0.0012217304763960308,0.0,0.0,0.0,0.0,0.000854305166285485,0.0,5.0,-0.19052979350090027,0.18924203515052795,1.0,1000.0,0.0,0.0,-9.732206344604492,1500.0,0.20114202797412872,51.4594078,0.022514747350726852,1.0892589092254639,750.0000228881836,44.693926999999995,5.0,-3.0,0.0,1500.0,0.060039326268604934,44.733148,197.0,12.0,444.0,0.0,2.651155133779387,-14.0,,,,,,,
9.099647999999995,1572.0,0.0,1418.0,1607.0,-0.7541094422340393,1495.0,8.18,-0.00553978281095624,-2.7913395999999997,-0.0030892726499587297,0.0,0.8469119071960449,-0.0033161255787892262,1500.0,-0.0005235987755982988,0.0012217304763960308,0.0,0.0,0.0,0.0,-8.628865180071443e-05,0.0,5.0,-0.18620921671390533,0.18924203515052795,1.0,1000.0,0.0,0.0,-9.73896312713623,1500.0,0.22194983065128326,51.4594078,0.022514747350726852,1.0891257524490356,750.0375137329102,44.813601999999996,5.0,-3.0,0.0,1500.0,0.060039326268604934,44.832936,197.0,12.0,444.0,0.0,2.651155133779387,-14.0,,,,,,,
9.199877999999998,1572.0,0.0,1418.0,1607.0,-0.7569475769996643,1495.0,8.2,-0.005702240392565727,-2.7913392999999997,-0.0031085964292287827,0.0,0.8307288885116577,-0.0033161255787892262,1500.0,-0.0005235987755982988,0.0012217304763960308,0.0,0.0,0.0,0.0,-0.0006058044964447618,0.0,5.0,-0.18265314400196075,0.18924203515052795,1.0,1000.0,0.0,0.0,-9.745405197143555,1500.0,0.22194983065128326,51.4594078,0.02234021442552742,1.0955724716186523,750.0000228881836,44.893332,5.0,-3.0,0.0,1500.0,0.060039326268604934,44.933166,197.0,12.0,444.0,0.0,2.651155133779387,-14.0,,,,,,,
9.299662999999995,1572.0,0.0,1417.0,1608.0,-0.7624166011810303,1494.0,8.2,-0.006359621416777372,-2.7913392999999997,-0.0031286312732845545,0.0,0.7848769426345825,-0.003141592653589793,1501.0,-0.0005235987755982988,0.0012217304763960308,0.0,0.0,0.0,0.0,-0.002192151267081499,0.0,5.0,-0.20375941693782806,0.18924203515052795,1.0,1000.0,0.0,0.0,-9.748315811157227,1500.0,0.2427576184272766,51.4594078,0.022514747350726852,1.081023931503296,750.0375137329102,45.013534,5.0,-3.0,0.0,1500.0,0.060039326268604934,45.032951,197.0,12.0,444.0,0.0,2.651155133779387,-14.0,,,,,,,
9.399865999999996,1572.0,0.0,1418.0,1608.0,-0.7659358382225037,1494.0,8.23,-0.006795294117182493,-2.7913391,-0.0029244350735098124,0.0,0.6419268250465393,-0.003141592653589793,1500.0,-0.0005235987755982988,0.0012217304763960308,0.0,0.0,0.0,0.0,-0.0030665709637105465,0.0,5.0,-0.18722453713417053,0.18924203515052795,1.0,1000.0,0.0,0.0,-9.742356300354004,1500.0,0.2427576184272766,51.4594078,0.022514747350726852,1.095262885093689,750.0000228881836,45.093754999999994,5.0,-3.0,0.0,1500.0,0.060039326268604934,45.133154,197.0,12.0,444.0,0.0,2.651155133779387,-14.0,,,,,,,
9.499687999999999,1572.0,0.0,1418.0,1607.0,-0.7680556774139404,1495.0,8.23,-0.007782174274325371,-2.7913391,-0.0036854210775345564,0.0,0.6985674500465393,-0.003141592653589793,1500.0,-0.0005235987755982988,0.0012217304763960308,0.0,0.0,0.0,0.0,-0.0038070629816502333,0.0,5.0,-0.19111959636211395,0.18924203515052795,1.0,1000.0,0.0,0.0,-9.736692428588867,1500.0,0.25662946701049805,51.4594078,0.02234021442552742,1.0752166509628296,750.0000228881836,45.213606,5.0,-3.0,0.0,1500.0,0.060039326268604934,45.232976,197.0,12.0,444.0,0.0,2.651155133779387,-14.0,,,,,,,
9.599990999999996,1572.0,0.0,1418.0,1608.0,-0.7672230005264282,1494.0,8.26,-0.008022813126444817,-2.7913387999999997,-0.003886139951646328,0.0,0.7012646198272705,-0.0029670597283903604,1500.0,-0.0005235987755982988,0.0012217304763960308,0.0,0.0,0.0,0.0,-0.0027549646329134703,0.0,5.0,-0.18173909187316895,0.18924203515052795,1.0,1000.0,0.0,0.0,-9.74516487121582,1500.0,0.25662946701049805,51.4594078,0.02234021442552742,1.0895804166793823,750.0000228881836,45.293997,5.0,-3.0,0.0,1500.0,0.060039326268604934,45.333279,197.0,12.0,444.0,0.0,2.6509806008541874,-14.0,,,,,,,
9.699627999999997,1572.0,0.0,1418.0,1607.0,-0.7644840478897095,1495.0,8.26,-0.008564579300582409,-2.7913387999999997,-0.004194279666990042,0.0,0.9521015882492065,-0.0029670597283903604,1500.0,-0.0005235987755982988,0.0012217304763960308,0.0,0.0,0.0,0.0,-0.0015405123122036457,0.0,5.0,-0.18918484449386597,0.18924203515052795,1.0,1000.0,0.0,0.0,-9.747251510620117,1500.0,0.2774372696876526,51.4594078,0.02234021442552742,1.087942361831665,750.0000228881836,45.413593999999996,5.0,-3.0,0.0,1500.0,0.060039326268604934,45.432916,197.0,12.0,444.0,0.0,2.6509806008541874,-14.0,,,,,,,
9.800006999999994,1572.0,0.0,1417.0,1608.0,-0.7646996974945068,1495.0,8.290000000000001,-0.008756912313401699,-2.7913386,-0.00377533957362175,0.0,0.9170383810997009,-0.0029670597283903604,1500.0,-0.0005235987755982988,0.0012217304763960308,0.0,0.0,0.0,0.0,-0.0017721049953252077,0.0,5.0,-0.19589683413505554,0.18924203515052795,1.0,1000.0,0.0,0.0,-9.740843772888184,1500.0,0.2774372696876526,51.4594078,0.02234021442552742,1.0861822366714478,750.0000228881836,45.493280999999996,5.0,-3.0,0.0,1500.0,0.060039326268604934,45.533294999999995,197.0,12.0,444.0,0.0,2.6509806008541874,-14.0,,,,,,,
9.899670999999998,1572.0,0.0,1417.0,1608.0,-0.769865870475769,1494.0,8.290000000000001,-0.008811396546661854,-2.7913386,-0.0037067437078803778,0.0,0.8577005863189697,-0.0029670597283903604,1500.0,-0.0005235987755982988,0.0012217304763960308,0.0,0.0,0.0,0.0,-0.0029623527079820633,0.0,5.0,-0.19910496473312378,0.18924203515052795,1.0,1000.0,0.0,0.0,-9.728590965270996,1501.0,0.2913091480731964,51.4594078,0.02234021442552742,1.0861878395080566,750.281364440918,45.61411,5.0,-3.0,0.0,1500.0,0.06021385919380437,45.632959,197.0,12.0,444.0,0.0,2.6508060679289875,-14.0,,,,,,,
10.000001999999995,1572.0,0.0,1418.0,1607.0,-0.7745727896690369,1495.0,8.32,-0.009077408351004124,-2.7913383,-0.003455956233665347,0.0,0.6203494668006897,-0.0027925268031909274,1500.0,-0.0005235987755982988,0.0012217304763960308,0.0,0.0,0.0,0.0,-0.003914640285074711,0.0,5.0,-0.1961623579263687,0.18924203515052795,1.0,1000.0,0.0,0.0,-9.74207592010498,1500.0,0.2913091480731964,51.4594077,0.02234021442552742,1.0905325412750244,750.0000228881836,45.693815,5.0,-3.0,0.0,1500.0,0.060039326268604934,45.73329,197.0,12.0,444.0,0.0,2.6508060679289875,-14.0,,,,,,,
10.099653999999994,1572.0,0.0,1418.0,1607.0,-0.7784314751625061,1495.0,8.32,-0.009320314973592758,-2.7913383,-0.0031517050229012966,0.0,0.7848769426345825,-0.0027925268031909274,1500.0,-0.0005235987755982988,0.0012217304763960308,0.0,0.0,0.0,0.0,-0.0048989187926054,0.0,5.0,-0.19595551490783691,0.17811015248298645,1.0,1000.0,0.0,0.0,-9.73531723022461,1500.0,0.31211692094802856,51.4594077,0.02234021442552742,1.0819799900054932,750.2438735961914,45.813545999999995,5.0,-3.0,0.0,1500.0,0.06021385919380437,45.832941999999996,197.0,12.0,444.0,0.0,2.6506315350037886,-14.0,,,,,,,
10.199884999999995,1572.0,0.0,1418.0,1607.0,-0.7790391445159912,1495.0,8.370000000000001,-0.009371043182909489,-2.7913379999999997,-0.003326836507767439,0.0,0.8630949258804321,-0.0027925268031909274,1500.0,-0.0005235987755982988,0.0012217304763960308,0.0,0.0,0.0,0.0,-0.004992219153791666,0.0,5.0,-0.18844737112522125,0.17811015248298645,1.0,1000.0,0.0,0.0,-9.740614891052246,1500.0,0.31211692094802856,51.4594077,0.02234021442552742,1.0865193605422974,750.0000228881836,45.893363,5.0,-3.0,0.0,1500.0,0.06021385919380437,45.933173,197.0,12.0,444.0,0.0,2.650457002078589,-14.0,,,,,,,
10.299688999999994,1572.0,0.0,1418.0,1607.0,-0.781261146068573,1495.0,8.370000000000001,-0.009935476817190647,-2.7913379999999997,-0.0037908360827714205,0.0,0.9143412113189697,-0.0027925268031909274,1500.0,-0.0005235987755982988,0.0012217304763960308,0.0,0.0,0.0,0.0,-0.005456092301756144,0.0,5.0,-0.20410972833633423,0.17811015248298645,1.0,1000.0,0.0,0.0,-9.739007949829102,1500.0,0.3329247534275055,51.4594077,0.02234021442552742,1.0766206979751587,750.2438735961914,46.013618,5.0,-3.0,0.0,1500.0,0.06021385919380437,46.032976999999995,197.0,12.0,444.0,0.0,2.650457002078589,-14.0,,,,,,,
10.399887999999997,1572.0,0.0,1417.0,1608.0,-0.7845375537872314,1494.0,8.41,-0.01006302796304226,-2.7913378,-0.0035280692391097546,0.0,0.9089468717575073,-0.002617993877991494,1501.0,-0.0005235987755982988,0.0012217304763960308,0.0,0.0,0.0,0.0,-0.005949311889708042,0.0,5.0,-0.19477985799312592,0.17811015248298645,1.0,1000.0,0.0,0.0,-9.73891830444336,1500.0,0.3329247534275055,51.4594076,0.02234021442552742,1.0975925922393799,750.0000228881836,46.093922,5.0,-3.0,0.0,1500.0,0.060039326268604934,46.133176,197.0,12.0,444.0,0.0,2.6502824691533893,-14.0,,,,,,,
10.499641999999994,1572.0,0.0,1418.0,1608.0,-0.7917522192001343,1494.0,8.41,-0.010819055140018463,-2.7913378,-0.003093825653195381,0.0,0.9655874371528625,-0.002617993877991494,1500.0,-0.0005235987755982988,0.0012217304763960308,0.0,0.0,0.0,0.0,-0.007897373288869858,0.0,5.0,-0.2022973895072937,0.16697826981544495,1.0,1000.0,0.0,0.0,-9.744226455688477,1500.0,0.3467966318130493,51.4594076,0.02234021442552742,1.0879864692687988,750.0000228881836,46.21357,5.0,-3.0,0.0,1500.0,0.060039326268604934,46.232929999999996,197.0,12.0,444.0,0.0,2.6502824691533893,-14.0,,,,,,,
10.600031999999999,1572.0,0.0,1418.0,1607.0,-0.7980980277061462,1495.0,8.45,-0.01115910429507494,-2.7913376,-0.0027940727304667234,0.0,0.8226373791694641,-0.002617993877991494,1500.0,-0.0005235987755982988,0.0012217304763960308,0.0,0.0,0.0,0.0,-0.009398045018315315,0.0,5.0,-0.19153915345668793,0.16697826981544495,1.0,1000.0,0.0,0.0,-9.749131202697754,1500.0,0.3467966318130493,51.4594076,0.02234021442552742,1.0861809253692627,750.0000228881836,46.293676,5.0,-3.0,0.0,1500.0,0.060039326268604934,46.33332,197.0,12.0,444.0,0.0,2.65010793622819,-14.0,,,,,,,
10.699683999999998,1572.0,0.0,1418.0,1607.0,-0.8076321482658386,1495.0,8.45,-0.011327545158565044,-2.7913376,-0.0026853184681385756,0.0,0.8388203978538513,-0.002617993877991494,1500.0,-0.0005235987755982988,0.0010471975511965976,0.0,0.0,0.0,0.0,-0.01177864521741867,0.0,5.0,-0.18691852688789368,0.16697826981544495,1.0,1000.0,0.0,0.0,-9.741730690002441,1500.0,0.36066848039627075,51.4594076,0.02234021442552742,1.0871586799621582,750.0000228881836,46.413568,5.0,-3.0,0.0,1500.0,0.060039326268604934,46.432972,197.0,12.0,444.0,0.0,2.649933403302991,-14.0,,,,,,,
10.799864,1572.0,0.0,1418.0,1607.0,-0.8128271698951721,1495.0,8.49,-0.011520721018314362,-2.7913373999999997,-0.00268018851056695,0.0,0.7525109052658081,-0.0024434609527920616,1500.0,-0.0005235987755982988,0.0010471975511965976,0.0,0.0,0.0,0.0,-0.01260578352957964,0.0,5.0,-0.20188719034194946,0.16697826981544495,1.0,1000.0,0.0,0.0,-9.742774963378906,1500.0,0.36066848039627075,51.4594075,0.02234021442552742,1.0847762823104858,750.0000228881836,46.493342999999996,5.0,-3.0,0.0,1500.0,0.060039326268604934,46.533152,197.0,12.0,444.0,0.0,2.649933403302991,-14.0,,,,,,,
